rosbagTimestamp,header,seq,stamp,secs,nsecs,frame_id,name,position,velocity,effort
1608810897553213737,,81031,,1608810897,548897522,'',"[wheel_left_joint, wheel_right_joint]","[539.8379962309264, 568.2963107326068]","[0.0, 0.0]","[0.0, 0.0]"
1608810897574495952,,81032,,1608810897,568838733,'',"[wheel_left_joint, wheel_right_joint]","[539.8379962309264, 568.2963107326068]","[0.0, 0.0]","[0.0, 0.0]"
1608810897574514933,,81033,,1608810897,589921250,'',"[wheel_left_joint, wheel_right_joint]","[539.8379962309264, 568.2963107326068]","[0.0, 0.0]","[0.0, 0.0]"
1608810897609154295,,81034,,1608810897,609225744,'',"[wheel_left_joint, wheel_right_joint]","[539.8379962309264, 568.2963107326068]","[0.0, 0.0]","[0.0, 0.0]"
1608810897655067650,,81035,,1608810897,629048536,'',"[wheel_left_joint, wheel_right_joint]","[539.8379962309264, 568.2963107326068]","[0.0, 0.0]","[0.0, 0.0]"
1608810897655080514,,81036,,1608810897,649092998,'',"[wheel_left_joint, wheel_right_joint]","[539.8379962309264, 568.2963107326068]","[0.0, 0.0]","[0.0, 0.0]"
1608810897669233790,,81037,,1608810897,670410893,'',"[wheel_left_joint, wheel_right_joint]","[539.8379962309264, 568.2963107326068]","[0.0, 0.0]","[0.0, 0.0]"
1608810897669244850,,81038,,1608810897,689114547,'',"[wheel_left_joint, wheel_right_joint]","[539.8379962309264, 568.2963107326068]","[0.0, 0.0]","[0.0, 0.0]"
1608810897698787609,,81039,,1608810897,709084633,'',"[wheel_left_joint, wheel_right_joint]","[539.8379962309264, 568.2963107326068]","[0.0, 0.0]","[0.0, 0.0]"
1608810897720092439,,81040,,1608810897,728991718,'',"[wheel_left_joint, wheel_right_joint]","[539.8379962309264, 568.2963107326068]","[0.0, 0.0]","[0.0, 0.0]"
1608810897755034032,,81041,,1608810897,749795398,'',"[wheel_left_joint, wheel_right_joint]","[539.8379962309264, 568.2963107326068]","[0.0, 0.0]","[0.0, 0.0]"
1608810897787511624,,81042,,1608810897,770325199,'',"[wheel_left_joint, wheel_right_joint]","[539.8379962309264, 568.2963107326068]","[0.0, 0.0]","[0.0, 0.0]"
1608810897787523320,,81043,,1608810897,790721708,'',"[wheel_left_joint, wheel_right_joint]","[539.8379962309264, 568.2963107326068]","[0.0, 0.0]","[0.0, 0.0]"
1608810897816396471,,81044,,1608810897,809635072,'',"[wheel_left_joint, wheel_right_joint]","[539.8379962309264, 568.2963107326068]","[0.0, 0.0]","[0.0, 0.0]"
1608810897840475836,,81045,,1608810897,831183678,'',"[wheel_left_joint, wheel_right_joint]","[539.8379962309264, 568.2963107326068]","[0.0, 0.0]","[0.0, 0.0]"
1608810897840487745,,81046,,1608810897,852281653,'',"[wheel_left_joint, wheel_right_joint]","[539.8379962309264, 568.2963107326068]","[0.0, 0.0]","[0.0, 0.0]"
1608810897861800647,,81047,,1608810897,869252201,'',"[wheel_left_joint, wheel_right_joint]","[539.8379962309264, 568.2963107326068]","[0.0, 0.0]","[0.0, 0.0]"
1608810897883239243,,81048,,1608810897,888941409,'',"[wheel_left_joint, wheel_right_joint]","[539.8379962309264, 568.2963107326068]","[0.0, 0.0]","[0.0, 0.0]"
1608810897903624458,,81049,,1608810897,908913828,'',"[wheel_left_joint, wheel_right_joint]","[539.8379962309264, 568.2963107326068]","[0.0, 0.0]","[0.0, 0.0]"
1608810897925093650,,81050,,1608810897,928893540,'',"[wheel_left_joint, wheel_right_joint]","[539.8379962309264, 568.2963107326068]","[0.0, 0.0]","[0.0, 0.0]"
1608810897945949363,,81051,,1608810897,948872084,'',"[wheel_left_joint, wheel_right_joint]","[539.8379962309264, 568.2963107326068]","[0.0, 0.0]","[0.0, 0.0]"
1608810897963992146,,81052,,1608810897,968937255,'',"[wheel_left_joint, wheel_right_joint]","[539.8379962309264, 568.2963107326068]","[0.0, 0.0]","[0.0, 0.0]"
1608810897998752217,,81053,,1608810897,989873061,'',"[wheel_left_joint, wheel_right_joint]","[539.8379962309264, 568.2963107326068]","[0.0, 0.0]","[0.0, 0.0]"
1608810897998764940,,81054,,1608810898,9019179,'',"[wheel_left_joint, wheel_right_joint]","[539.8379962309264, 568.2963107326068]","[0.0, 0.0]","[0.0, 0.0]"
1608810898035087917,,81055,,1608810898,28923348,'',"[wheel_left_joint, wheel_right_joint]","[539.8379962309264, 568.2963107326068]","[0.0, 0.0]","[0.0, 0.0]"
1608810898060199764,,81056,,1608810898,50377162,'',"[wheel_left_joint, wheel_right_joint]","[539.8379962309264, 568.2963107326068]","[0.0, 0.0]","[0.0, 0.0]"
1608810898060257265,,81057,,1608810898,69719866,'',"[wheel_left_joint, wheel_right_joint]","[539.8379962309264, 568.2963107326068]","[0.0, 0.0]","[0.0, 0.0]"
1608810898076432622,,81058,,1608810898,89498033,'',"[wheel_left_joint, wheel_right_joint]","[539.8379962309264, 568.2963107326068]","[0.0, 0.0]","[0.0, 0.0]"
1608810898108721685,,81059,,1608810898,109592663,'',"[wheel_left_joint, wheel_right_joint]","[539.8379962309264, 568.2963107326068]","[0.0, 0.0]","[0.0, 0.0]"
1608810898129760689,,81060,,1608810898,129600084,'',"[wheel_left_joint, wheel_right_joint]","[539.8379962309264, 568.2963107326068]","[0.0, 0.0]","[0.0, 0.0]"
1608810898152026901,,81061,,1608810898,150642059,'',"[wheel_left_joint, wheel_right_joint]","[539.8379962309264, 568.2963107326068]","[0.0, 0.0]","[0.0, 0.0]"
1608810898168960294,,81062,,1608810898,169649926,'',"[wheel_left_joint, wheel_right_joint]","[539.8379962309264, 568.2963107326068]","[0.0, 0.0]","[0.0, 0.0]"
1608810898189922568,,81063,,1608810898,190679067,'',"[wheel_left_joint, wheel_right_joint]","[539.8379962309264, 568.2963107326068]","[0.0, 0.0]","[0.0, 0.0]"
1608810898212543677,,81064,,1608810898,209477223,'',"[wheel_left_joint, wheel_right_joint]","[539.8379962309264, 568.2963107326068]","[0.0, 0.0]","[0.0, 0.0]"
1608810898237136692,,81065,,1608810898,231152706,'',"[wheel_left_joint, wheel_right_joint]","[539.8379962309264, 568.2963107326068]","[0.0, 0.0]","[0.0, 0.0]"
1608810898237214769,,81066,,1608810898,249374521,'',"[wheel_left_joint, wheel_right_joint]","[539.8379962309264, 568.2963107326068]","[0.0, 0.0]","[0.0, 0.0]"
1608810898281844728,,81067,,1608810898,269492193,'',"[wheel_left_joint, wheel_right_joint]","[539.8379962309264, 568.2963107326068]","[0.0, 0.0]","[0.0, 0.0]"
1608810898306796177,,81068,,1608810898,289510405,'',"[wheel_left_joint, wheel_right_joint]","[539.8379962309264, 568.2963107326068]","[0.0, 0.0]","[0.0, 0.0]"
1608810898306826359,,81069,,1608810898,309485450,'',"[wheel_left_joint, wheel_right_joint]","[539.8379962309264, 568.2963107326068]","[0.0, 0.0]","[0.0, 0.0]"
1608810898331958758,,81070,,1608810898,329492579,'',"[wheel_left_joint, wheel_right_joint]","[539.8379962309264, 568.2963107326068]","[0.0, 0.0]","[0.0, 0.0]"
1608810898331970505,,81071,,1608810898,349289414,'',"[wheel_left_joint, wheel_right_joint]","[539.8379962309264, 568.2963107326068]","[0.0, 0.0]","[0.0, 0.0]"
1608810898356250392,,81072,,1608810898,369405336,'',"[wheel_left_joint, wheel_right_joint]","[539.8379962309264, 568.2963107326068]","[0.0, 0.0]","[0.0, 0.0]"
1608810898388284388,,81073,,1608810898,390281642,'',"[wheel_left_joint, wheel_right_joint]","[539.8379962309264, 568.2963107326068]","[0.0, 0.0]","[0.0, 0.0]"
1608810898422210183,,81074,,1608810898,409493678,'',"[wheel_left_joint, wheel_right_joint]","[539.8379962309264, 568.2963107326068]","[0.0, 0.0]","[0.0, 0.0]"
1608810898459945289,,81075,,1608810898,429844103,'',"[wheel_left_joint, wheel_right_joint]","[539.8379962309264, 568.2963107326068]","[0.0, 0.0]","[0.0, 0.0]"
1608810898459991707,,81076,,1608810898,449813606,'',"[wheel_left_joint, wheel_right_joint]","[539.8379962309264, 568.2963107326068]","[0.0, 0.0]","[0.0, 0.0]"
1608810898483085853,,81077,,1608810898,469368646,'',"[wheel_left_joint, wheel_right_joint]","[539.8379962309264, 568.2963107326068]","[0.0, 0.0]","[0.0, 0.0]"
1608810898483106888,,81078,,1608810898,489351275,'',"[wheel_left_joint, wheel_right_joint]","[539.8379962309264, 568.2963107326068]","[0.0, 0.0]","[0.0, 0.0]"
1608810898504373986,,81079,,1608810898,509351987,'',"[wheel_left_joint, wheel_right_joint]","[539.8379962309264, 568.2963107326068]","[0.0, 0.0]","[0.0, 0.0]"
1608810898527146014,,81080,,1608810898,529292615,'',"[wheel_left_joint, wheel_right_joint]","[539.8379962309264, 568.2963107326068]","[0.0, 0.0]","[0.0, 0.0]"
1608810898545126245,,81081,,1608810898,549242577,'',"[wheel_left_joint, wheel_right_joint]","[539.8379962309264, 568.2963107326068]","[0.0, 0.0]","[0.0, 0.0]"
1608810898581221273,,81082,,1608810898,570185384,'',"[wheel_left_joint, wheel_right_joint]","[539.8379962309264, 568.2963107326068]","[0.0, 0.0]","[0.0, 0.0]"
1608810898581346665,,81083,,1608810898,590249389,'',"[wheel_left_joint, wheel_right_joint]","[539.8379962309264, 568.2963107326068]","[0.0, 0.0]","[0.0, 0.0]"
1608810898605689720,,81084,,1608810898,609308881,'',"[wheel_left_joint, wheel_right_joint]","[539.8379962309264, 568.2963107326068]","[0.0, 0.0]","[0.0, 0.0]"
1608810898631401874,,81085,,1608810898,627978993,'',"[wheel_left_joint, wheel_right_joint]","[539.8379962309264, 568.2963107326068]","[0.0, 0.0]","[0.0, 0.0]"
1608810898656212104,,81086,,1608810898,647959288,'',"[wheel_left_joint, wheel_right_joint]","[539.8379962309264, 568.2963107326068]","[0.0, 0.0]","[0.0, 0.0]"
1608810898656249097,,81087,,1608810898,667947750,'',"[wheel_left_joint, wheel_right_joint]","[539.8379962309264, 568.2963107326068]","[0.0, 0.0]","[0.0, 0.0]"
1608810898666493161,,81088,,1608810898,688495344,'',"[wheel_left_joint, wheel_right_joint]","[539.8379962309264, 568.2963107326068]","[0.0, 0.0]","[0.0, 0.0]"
1608810898691451705,,81089,,1608810898,708237053,'',"[wheel_left_joint, wheel_right_joint]","[539.8379962309264, 568.2963107326068]","[0.0, 0.0]","[0.0, 0.0]"
1608810898742339862,,81090,,1608810898,728306308,'',"[wheel_left_joint, wheel_right_joint]","[539.8379962309264, 568.2963107326068]","[0.0, 0.0]","[0.0, 0.0]"
1608810898742391931,,81091,,1608810898,748310812,'',"[wheel_left_joint, wheel_right_joint]","[539.8379962309264, 568.2963107326068]","[0.0, 0.0]","[0.0, 0.0]"
1608810898761740063,,81092,,1608810898,768308899,'',"[wheel_left_joint, wheel_right_joint]","[539.8379962309264, 568.2963107326068]","[0.0, 0.0]","[0.0, 0.0]"
1608810898776531227,,81093,,1608810898,788366195,'',"[wheel_left_joint, wheel_right_joint]","[539.8379962309264, 568.2963107326068]","[0.0, 0.0]","[0.0, 0.0]"
1608810898793895359,,81094,,1608810898,808291073,'',"[wheel_left_joint, wheel_right_joint]","[539.8379962309264, 568.2963107326068]","[0.0, 0.0]","[0.0, 0.0]"
1608810898809530028,,81095,,1608810898,828329410,'',"[wheel_left_joint, wheel_right_joint]","[539.8379962309264, 568.2963107326068]","[0.0, 0.0]","[0.0, 0.0]"
1608810898823336943,,81096,,1608810898,848163287,'',"[wheel_left_joint, wheel_right_joint]","[539.8379962309264, 568.2963107326068]","[0.0, 0.0]","[0.0, 0.0]"
1608810898846505504,,81097,,1608810898,868133082,'',"[wheel_left_joint, wheel_right_joint]","[539.8379962309264, 568.2963107326068]","[0.0, 0.0]","[0.0, 0.0]"
1608810898868166912,,81098,,1608810898,888395714,'',"[wheel_left_joint, wheel_right_joint]","[539.8379962309264, 568.2963107326068]","[0.0, 0.0]","[0.0, 0.0]"
1608810898889089789,,81099,,1608810898,907202328,'',"[wheel_left_joint, wheel_right_joint]","[539.8379962309264, 568.2963107326068]","[0.0, 0.0]","[0.0, 0.0]"
1608810898918564298,,81100,,1608810898,927264291,'',"[wheel_left_joint, wheel_right_joint]","[539.8379962309264, 568.2963107326068]","[0.0, 0.0]","[0.0, 0.0]"
1608810898940132841,,81101,,1608810898,947216003,'',"[wheel_left_joint, wheel_right_joint]","[539.8379962309264, 568.2963107326068]","[0.0, 0.0]","[0.0, 0.0]"
1608810898956466184,,81102,,1608810898,967201256,'',"[wheel_left_joint, wheel_right_joint]","[539.8379962309264, 568.2963107326068]","[0.0, 0.0]","[0.0, 0.0]"
1608810898972367811,,81103,,1608810898,988348525,'',"[wheel_left_joint, wheel_right_joint]","[539.8379962309264, 568.2963107326068]","[0.0, 0.0]","[0.0, 0.0]"
1608810898992654270,,81104,,1608810899,8135151,'',"[wheel_left_joint, wheel_right_joint]","[539.8379962309264, 568.2963107326068]","[0.0, 0.0]","[0.0, 0.0]"
1608810899016869574,,81105,,1608810899,29361754,'',"[wheel_left_joint, wheel_right_joint]","[539.8379962309264, 568.2963107326068]","[0.0, 0.0]","[0.0, 0.0]"
1608810899048265201,,81106,,1608810899,48762501,'',"[wheel_left_joint, wheel_right_joint]","[539.8379962309264, 568.2963107326068]","[0.0, 0.0]","[0.0, 0.0]"
1608810899071906553,,81107,,1608810899,68986634,'',"[wheel_left_joint, wheel_right_joint]","[539.8379962309264, 568.2963107326068]","[0.0, 0.0]","[0.0, 0.0]"
1608810899099743983,,81108,,1608810899,90732702,'',"[wheel_left_joint, wheel_right_joint]","[539.8379962309264, 568.2963107326068]","[0.0, 0.0]","[0.0, 0.0]"
1608810899099856576,,81109,,1608810899,107740585,'',"[wheel_left_joint, wheel_right_joint]","[539.8379962309264, 568.2963107326068]","[0.0, 0.0]","[0.0, 0.0]"
1608810899129048022,,81110,,1608810899,127958009,'',"[wheel_left_joint, wheel_right_joint]","[539.8379962309264, 568.2963107326068]","[0.0, 0.0]","[0.0, 0.0]"
1608810899154630286,,81111,,1608810899,147868013,'',"[wheel_left_joint, wheel_right_joint]","[539.8379962309264, 568.2963107326068]","[0.0, 0.0]","[0.0, 0.0]"
1608810899154777669,,81112,,1608810899,167913351,'',"[wheel_left_joint, wheel_right_joint]","[539.8379962309264, 568.2963107326068]","[0.0, 0.0]","[0.0, 0.0]"
1608810899186526629,,81113,,1608810899,187775521,'',"[wheel_left_joint, wheel_right_joint]","[539.8379962309264, 568.2963107326068]","[0.0, 0.0]","[0.0, 0.0]"
1608810899212461521,,81114,,1608810899,208777538,'',"[wheel_left_joint, wheel_right_joint]","[539.8379962309264, 568.2963107326068]","[0.0, 0.0]","[0.0, 0.0]"
1608810899234826378,,81115,,1608810899,229512969,'',"[wheel_left_joint, wheel_right_joint]","[539.8379962309264, 568.2963107326068]","[0.0, 0.0]","[0.0, 0.0]"
1608810899234858885,,81116,,1608810899,248631962,'',"[wheel_left_joint, wheel_right_joint]","[539.8379962309264, 568.2963107326068]","[0.0, 0.0]","[0.0, 0.0]"
1608810899260751621,,81117,,1608810899,268644050,'',"[wheel_left_joint, wheel_right_joint]","[539.8379962309264, 568.2963107326068]","[0.0, 0.0]","[0.0, 0.0]"
1608810899278741490,,81118,,1608810899,289459982,'',"[wheel_left_joint, wheel_right_joint]","[539.8379962309264, 568.2963107326068]","[0.0, 0.0]","[0.0, 0.0]"
1608810899300026021,,81119,,1608810899,307904341,'',"[wheel_left_joint, wheel_right_joint]","[539.8379962309264, 568.2963107326068]","[0.0, 0.0]","[0.0, 0.0]"
1608810899320518738,,81120,,1608810899,327906221,'',"[wheel_left_joint, wheel_right_joint]","[539.8379962309264, 568.2963107326068]","[0.0, 0.0]","[0.0, 0.0]"
1608810899333322416,,81121,,1608810899,347519012,'',"[wheel_left_joint, wheel_right_joint]","[539.8379962309264, 568.2963107326068]","[0.0, 0.0]","[0.0, 0.0]"
1608810899360627528,,81122,,1608810899,367772895,'',"[wheel_left_joint, wheel_right_joint]","[539.8379962309264, 568.2963107326068]","[0.0, 0.0]","[0.0, 0.0]"
1608810899380982806,,81123,,1608810899,387056391,'',"[wheel_left_joint, wheel_right_joint]","[539.8379962309264, 568.2963107326068]","[0.0, 0.0]","[0.0, 0.0]"
1608810899411994571,,81124,,1608810899,407950782,'',"[wheel_left_joint, wheel_right_joint]","[539.8379962309264, 568.2963107326068]","[0.0, 0.0]","[0.0, 0.0]"
1608810899436431485,,81125,,1608810899,427932536,'',"[wheel_left_joint, wheel_right_joint]","[539.8379962309264, 568.2963107326068]","[0.0, 0.0]","[0.0, 0.0]"
1608810899465925752,,81126,,1608810899,448552757,'',"[wheel_left_joint, wheel_right_joint]","[539.8379962309264, 568.2963107326068]","[0.0, 0.0]","[0.0, 0.0]"
1608810899465986452,,81127,,1608810899,468498636,'',"[wheel_left_joint, wheel_right_joint]","[539.8379962309264, 568.2963107326068]","[0.0, 0.0]","[0.0, 0.0]"
1608810899483947709,,81128,,1608810899,488680476,'',"[wheel_left_joint, wheel_right_joint]","[539.8379962309264, 568.2963107326068]","[0.0, 0.0]","[0.0, 0.0]"
1608810899511801965,,81129,,1608810899,507728593,'',"[wheel_left_joint, wheel_right_joint]","[539.8379962309264, 568.2963107326068]","[0.0, 0.0]","[0.0, 0.0]"
1608810899524995238,,81130,,1608810899,528698235,'',"[wheel_left_joint, wheel_right_joint]","[539.8379962309264, 568.2963107326068]","[0.0, 0.0]","[0.0, 0.0]"
1608810899549804494,,81131,,1608810899,550096633,'',"[wheel_left_joint, wheel_right_joint]","[539.8379962309264, 568.2963107326068]","[0.0, 0.0]","[0.0, 0.0]"
1608810899566655263,,81132,,1608810899,568349365,'',"[wheel_left_joint, wheel_right_joint]","[539.8379962309264, 568.2963107326068]","[0.0, 0.0]","[0.0, 0.0]"
1608810899566701993,,81133,,1608810899,587615652,'',"[wheel_left_joint, wheel_right_joint]","[539.8379962309264, 568.2963107326068]","[0.0, 0.0]","[0.0, 0.0]"
1608810899589826451,,81134,,1608810899,607681991,'',"[wheel_left_joint, wheel_right_joint]","[539.8379962309264, 568.2963107326068]","[0.0, 0.0]","[0.0, 0.0]"
1608810899615184282,,81135,,1608810899,627866456,'',"[wheel_left_joint, wheel_right_joint]","[539.8379962309264, 568.2963107326068]","[0.0, 0.0]","[0.0, 0.0]"
1608810899633710012,,81136,,1608810899,646663445,'',"[wheel_left_joint, wheel_right_joint]","[539.8379962309264, 568.2963107326068]","[0.0, 0.0]","[0.0, 0.0]"
1608810899650383825,,81137,,1608810899,666704992,'',"[wheel_left_joint, wheel_right_joint]","[539.8379962309264, 568.2963107326068]","[0.0, 0.0]","[0.0, 0.0]"
1608810899666071054,,81138,,1608810899,686742164,'',"[wheel_left_joint, wheel_right_joint]","[539.8379962309264, 568.2963107326068]","[0.0, 0.0]","[0.0, 0.0]"
1608810899686917421,,81139,,1608810899,706714876,'',"[wheel_left_joint, wheel_right_joint]","[539.8379962309264, 568.2963107326068]","[0.0, 0.0]","[0.0, 0.0]"
1608810899705576643,,81140,,1608810899,726695172,'',"[wheel_left_joint, wheel_right_joint]","[539.8379962309264, 568.2963107326068]","[0.0, 0.0]","[0.0, 0.0]"
1608810899724612651,,81141,,1608810899,746735552,'',"[wheel_left_joint, wheel_right_joint]","[539.8379962309264, 568.2963107326068]","[0.0, 0.0]","[0.0, 0.0]"
1608810899759324506,,81142,,1608810899,766690765,'',"[wheel_left_joint, wheel_right_joint]","[539.8379962309264, 568.2963107326068]","[0.0, 0.0]","[0.0, 0.0]"
1608810899778716869,,81143,,1608810899,786702269,'',"[wheel_left_joint, wheel_right_joint]","[539.8379962309264, 568.2963107326068]","[0.0, 0.0]","[0.0, 0.0]"
1608810899800748860,,81144,,1608810899,807703120,'',"[wheel_left_joint, wheel_right_joint]","[539.8379962309264, 568.2963107326068]","[0.0, 0.0]","[0.0, 0.0]"
1608810899836567029,,81145,,1608810899,826575652,'',"[wheel_left_joint, wheel_right_joint]","[539.8379962309264, 568.2963107326068]","[0.0, 0.0]","[0.0, 0.0]"
1608810899857015078,,81146,,1608810899,846588615,'',"[wheel_left_joint, wheel_right_joint]","[539.8379962309264, 568.2963107326068]","[0.0, 0.0]","[0.0, 0.0]"
1608810899857046194,,81147,,1608810899,866506494,'',"[wheel_left_joint, wheel_right_joint]","[539.8379962309264, 568.2963107326068]","[0.0, 0.0]","[0.0, 0.0]"
1608810899874275476,,81148,,1608810899,886600541,'',"[wheel_left_joint, wheel_right_joint]","[539.8379962309264, 568.2963107326068]","[0.0, 0.0]","[0.0, 0.0]"
1608810899904568930,,81149,,1608810899,906531253,'',"[wheel_left_joint, wheel_right_joint]","[539.8379962309264, 568.2963107326068]","[0.0, 0.0]","[0.0, 0.0]"
1608810899921236364,,81150,,1608810899,926520591,'',"[wheel_left_joint, wheel_right_joint]","[539.8379962309264, 568.2963107326068]","[0.0, 0.0]","[0.0, 0.0]"
1608810899937501439,,81151,,1608810899,946383344,'',"[wheel_left_joint, wheel_right_joint]","[539.8379962309264, 568.2963107326068]","[0.0, 0.0]","[0.0, 0.0]"
1608810899954385199,,81152,,1608810899,966374431,'',"[wheel_left_joint, wheel_right_joint]","[539.8379962309264, 568.2963107326068]","[0.0, 0.0]","[0.0, 0.0]"
1608810899967711642,,81153,,1608810899,986468187,'',"[wheel_left_joint, wheel_right_joint]","[539.8379962309264, 568.2963107326068]","[0.0, 0.0]","[0.0, 0.0]"
1608810899990891377,,81154,,1608810900,7485663,'',"[wheel_left_joint, wheel_right_joint]","[539.8379962309264, 568.2963107326068]","[0.0, 0.0]","[0.0, 0.0]"
1608810900005774625,,81155,,1608810900,26399904,'',"[wheel_left_joint, wheel_right_joint]","[539.8379962309264, 568.2963107326068]","[0.0, 0.0]","[0.0, 0.0]"
1608810900024556688,,81156,,1608810900,46486369,'',"[wheel_left_joint, wheel_right_joint]","[539.8379962309264, 568.2963107326068]","[0.0, 0.0]","[0.0, 0.0]"
1608810900052032800,,81157,,1608810900,66321706,'',"[wheel_left_joint, wheel_right_joint]","[539.8379962309264, 568.2963107326068]","[0.0, 0.0]","[0.0, 0.0]"
1608810900072353369,,81158,,1608810900,86336419,'',"[wheel_left_joint, wheel_right_joint]","[539.8379962309264, 568.2963107326068]","[0.0, 0.0]","[0.0, 0.0]"
1608810900090004772,,81159,,1608810900,106315258,'',"[wheel_left_joint, wheel_right_joint]","[539.8379962309264, 568.2963107326068]","[0.0, 0.0]","[0.0, 0.0]"
1608810900103670781,,81160,,1608810900,126297305,'',"[wheel_left_joint, wheel_right_joint]","[539.8379962309264, 568.2963107326068]","[0.0, 0.0]","[0.0, 0.0]"
1608810900128225443,,81161,,1608810900,146275560,'',"[wheel_left_joint, wheel_right_joint]","[539.8379962309264, 568.2963107326068]","[0.0, 0.0]","[0.0, 0.0]"
1608810900147347470,,81162,,1608810900,166277148,'',"[wheel_left_joint, wheel_right_joint]","[539.8379962309264, 568.2963107326068]","[0.0, 0.0]","[0.0, 0.0]"
1608810900165417986,,81163,,1608810900,186291862,'',"[wheel_left_joint, wheel_right_joint]","[539.8379962309264, 568.2963107326068]","[0.0, 0.0]","[0.0, 0.0]"
1608810900196417022,,81164,,1608810900,207338506,'',"[wheel_left_joint, wheel_right_joint]","[539.8379962309264, 568.2963107326068]","[0.0, 0.0]","[0.0, 0.0]"
1608810900225724402,,81165,,1608810900,226332081,'',"[wheel_left_joint, wheel_right_joint]","[539.8379962309264, 568.2963107326068]","[0.0, 0.0]","[0.0, 0.0]"
1608810900248793109,,81166,,1608810900,246334837,'',"[wheel_left_joint, wheel_right_joint]","[539.8379962309264, 568.2963107326068]","[0.0, 0.0]","[0.0, 0.0]"
1608810900292181535,,81167,,1608810900,266351884,'',"[wheel_left_joint, wheel_right_joint]","[539.8379962309264, 568.2963107326068]","[0.0, 0.0]","[0.0, 0.0]"
1608810900292190001,,81168,,1608810900,286188096,'',"[wheel_left_joint, wheel_right_joint]","[539.8379962309264, 568.2963107326068]","[0.0, 0.0]","[0.0, 0.0]"
1608810900319916004,,81169,,1608810900,307017153,'',"[wheel_left_joint, wheel_right_joint]","[539.8379962309264, 568.2963107326068]","[0.0, 0.0]","[0.0, 0.0]"
1608810900319933514,,81170,,1608810900,326895949,'',"[wheel_left_joint, wheel_right_joint]","[539.8379962309264, 568.2963107326068]","[0.0, 0.0]","[0.0, 0.0]"
1608810900339337455,,81171,,1608810900,347059414,'',"[wheel_left_joint, wheel_right_joint]","[539.8379962309264, 568.2963107326068]","[0.0, 0.0]","[0.0, 0.0]"
1608810900363943237,,81172,,1608810900,367051961,'',"[wheel_left_joint, wheel_right_joint]","[539.8379962309264, 568.2963107326068]","[0.0, 0.0]","[0.0, 0.0]"
1608810900388762669,,81173,,1608810900,386941257,'',"[wheel_left_joint, wheel_right_joint]","[539.8379962309264, 568.2963107326068]","[0.0, 0.0]","[0.0, 0.0]"
1608810900407512577,,81174,,1608810900,408404697,'',"[wheel_left_joint, wheel_right_joint]","[539.8379962309264, 568.2963107326068]","[0.0, 0.0]","[0.0, 0.0]"
1608810900434089758,,81175,,1608810900,427081227,'',"[wheel_left_joint, wheel_right_joint]","[539.8379962309264, 568.2963107326068]","[0.0, 0.0]","[0.0, 0.0]"
1608810900434141983,,81176,,1608810900,447321694,'',"[wheel_left_joint, wheel_right_joint]","[539.8379962309264, 568.2963107326068]","[0.0, 0.0]","[0.0, 0.0]"
1608810900472035005,,81177,,1608810900,468010750,'',"[wheel_left_joint, wheel_right_joint]","[539.8379962309264, 568.2963107326068]","[0.0, 0.0]","[0.0, 0.0]"
1608810900489724207,,81178,,1608810900,486167232,'',"[wheel_left_joint, wheel_right_joint]","[539.8379962309264, 568.2963107326068]","[0.0, 0.0]","[0.0, 0.0]"
1608810900489753649,,81179,,1608810900,506064986,'',"[wheel_left_joint, wheel_right_joint]","[539.8379962309264, 568.2963107326068]","[0.0, 0.0]","[0.0, 0.0]"
1608810900513339850,,81180,,1608810900,526198701,'',"[wheel_left_joint, wheel_right_joint]","[539.8379962309264, 568.2963107326068]","[0.0, 0.0]","[0.0, 0.0]"
1608810900526806694,,81181,,1608810900,546122122,'',"[wheel_left_joint, wheel_right_joint]","[539.8379962309264, 568.2963107326068]","[0.0, 0.0]","[0.0, 0.0]"
1608810900549364639,,81182,,1608810900,566090460,'',"[wheel_left_joint, wheel_right_joint]","[539.8379962309264, 568.2963107326068]","[0.0, 0.0]","[0.0, 0.0]"
1608810900571145576,,81183,,1608810900,586113049,'',"[wheel_left_joint, wheel_right_joint]","[539.8379962309264, 568.2963107326068]","[0.0, 0.0]","[0.0, 0.0]"
1608810900600832384,,81184,,1608810900,607110109,'',"[wheel_left_joint, wheel_right_joint]","[539.8379962309264, 568.2963107326068]","[0.0, 0.0]","[0.0, 0.0]"
1608810900618689515,,81185,,1608810900,626103976,'',"[wheel_left_joint, wheel_right_joint]","[539.8379962309264, 568.2963107326068]","[0.0, 0.0]","[0.0, 0.0]"
1608810900634799406,,81186,,1608810900,646136482,'',"[wheel_left_joint, wheel_right_joint]","[539.8379962309264, 568.2963107326068]","[0.0, 0.0]","[0.0, 0.0]"
1608810900672849793,,81187,,1608810900,666091987,'',"[wheel_left_joint, wheel_right_joint]","[539.8379962309264, 568.2963107326068]","[0.0, 0.0]","[0.0, 0.0]"
1608810900700895547,,81188,,1608810900,686013074,'',"[wheel_left_joint, wheel_right_joint]","[539.8379962309264, 568.2963107326068]","[0.0, 0.0]","[0.0, 0.0]"
1608810900700951314,,81189,,1608810900,705964787,'',"[wheel_left_joint, wheel_right_joint]","[539.8379962309264, 568.2963107326068]","[0.0, 0.0]","[0.0, 0.0]"
1608810900719822739,,81190,,1608810900,725954709,'',"[wheel_left_joint, wheel_right_joint]","[539.8379962309264, 568.2963107326068]","[0.0, 0.0]","[0.0, 0.0]"
1608810900748737239,,81191,,1608810900,746028632,'',"[wheel_left_joint, wheel_right_joint]","[539.8379962309264, 568.2963107326068]","[0.0, 0.0]","[0.0, 0.0]"
1608810900764361046,,81192,,1608810900,765999595,'',"[wheel_left_joint, wheel_right_joint]","[539.8379962309264, 568.2963107326068]","[0.0, 0.0]","[0.0, 0.0]"
1608810900782273790,,81193,,1608810900,786060976,'',"[wheel_left_joint, wheel_right_joint]","[539.8379962309264, 568.2963107326068]","[0.0, 0.0]","[0.0, 0.0]"
1608810900860228975,,81194,,1608810900,806803991,'',"[wheel_left_joint, wheel_right_joint]","[539.8379962309264, 568.2963107326068]","[0.0, 0.0]","[0.0, 0.0]"
1608810900889623439,,81195,,1608810900,825842484,'',"[wheel_left_joint, wheel_right_joint]","[539.8379962309264, 568.2963107326068]","[0.0, 0.0]","[0.0, 0.0]"
1608810900889636911,,81196,,1608810900,845802947,'',"[wheel_left_joint, wheel_right_joint]","[539.8379962309264, 568.2963107326068]","[0.0, 0.0]","[0.0, 0.0]"
1608810900889645210,,81197,,1608810900,866537795,'',"[wheel_left_joint, wheel_right_joint]","[539.8379962309264, 568.2963107326068]","[0.0, 0.0]","[0.0, 0.0]"
1608810900889659024,,81198,,1608810900,888607910,'',"[wheel_left_joint, wheel_right_joint]","[539.8379962309264, 568.2963107326068]","[0.0, 0.0]","[0.0, 0.0]"
1608810900917687130,,81199,,1608810900,906701683,'',"[wheel_left_joint, wheel_right_joint]","[539.8379962309264, 568.2963107326068]","[0.0, 0.0]","[0.0, 0.0]"
1608810900957724946,,81200,,1608810900,926457685,'',"[wheel_left_joint, wheel_right_joint]","[539.8379962309264, 568.2963107326068]","[0.0, 0.0]","[0.0, 0.0]"
1608810900957738278,,81201,,1608810900,946566608,'',"[wheel_left_joint, wheel_right_joint]","[539.8379962309264, 568.2963107326068]","[0.0, 0.0]","[0.0, 0.0]"
1608810900957778230,,81202,,1608810900,966520655,'',"[wheel_left_joint, wheel_right_joint]","[539.8379962309264, 568.2963107326068]","[0.0, 0.0]","[0.0, 0.0]"
1608810901027437020,,81203,,1608810900,986420451,'',"[wheel_left_joint, wheel_right_joint]","[539.8379962309264, 568.2963107326068]","[0.0, 0.0]","[0.0, 0.0]"
1608810901064482207,,81204,,1608810901,7743306,'',"[wheel_left_joint, wheel_right_joint]","[539.8379962309264, 568.2963107326068]","[0.0, 0.0]","[0.0, 0.0]"
1608810901064540567,,81205,,1608810901,26560422,'',"[wheel_left_joint, wheel_right_joint]","[539.8379962309264, 568.2963107326068]","[0.0, 0.0]","[0.0, 0.0]"
1608810901064551800,,81206,,1608810901,46559386,'',"[wheel_left_joint, wheel_right_joint]","[539.8379962309264, 568.2963107326068]","[0.0, 0.0]","[0.0, 0.0]"
1608810901164493704,,81207,,1608810901,66506433,'',"[wheel_left_joint, wheel_right_joint]","[539.8379962309264, 568.2963107326068]","[0.0, 0.0]","[0.0, 0.0]"
1608810901164509919,,81208,,1608810901,86471564,'',"[wheel_left_joint, wheel_right_joint]","[539.8379962309264, 568.2963107326068]","[0.0, 0.0]","[0.0, 0.0]"
1608810901164520940,,81209,,1608810901,106454486,'',"[wheel_left_joint, wheel_right_joint]","[539.8379962309264, 568.2963107326068]","[0.0, 0.0]","[0.0, 0.0]"
1608810901191254054,,81210,,1608810901,126356616,'',"[wheel_left_joint, wheel_right_joint]","[539.8379962309264, 568.2963107326068]","[0.0, 0.0]","[0.0, 0.0]"
1608810901191313315,,81211,,1608810901,146451831,'',"[wheel_left_joint, wheel_right_joint]","[539.9257252360694, 568.3816028209403]","[4.386450257152319, 4.264604416675866]","[0.0, 0.0]"
1608810901191400225,,81212,,1608810901,166433879,'',"[wheel_left_joint, wheel_right_joint]","[540.0548818269745, 568.5107594118454]","[6.457829545252025, 6.457829545252025]","[0.0, 0.0]"
1608810901191418688,,81213,,1608810901,186282925,'',"[wheel_left_joint, wheel_right_joint]","[540.1499215825461, 568.6155468346551]","[4.751987778581679, 5.239371140487492]","[0.0, 0.0]"
1608810901223982918,,81214,,1608810901,206689061,'',"[wheel_left_joint, wheel_right_joint]","[540.2108445027843, 568.6764697548933]","[3.0461460119113326, 3.0461460119113326]","[0.0, 0.0]"
1608810901224000680,,81215,,1608810901,226596149,'',"[wheel_left_joint, wheel_right_joint]","[540.269330506213, 568.734955758322]","[2.9243001714348793, 2.9243001714348793]","[0.0, 0.0]"
1608810901246097239,,81216,,1608810901,246472320,'',"[wheel_left_joint, wheel_right_joint]","[540.3448749273084, 568.8056263457984]","[3.7772210547700524, 3.533529373817146]","[0.0, 0.0]"
1608810901267795362,,81217,,1608810901,267121126,'',"[wheel_left_joint, wheel_right_joint]","[540.435040849261, 568.8933553509414]","[4.508296097628772, 4.386450257152319]","[0.0, 0.0]"
1608810901298810859,,81218,,1608810901,287409719,'',"[wheel_left_joint, wheel_right_joint]","[540.5300806048326, 568.9932689401321]","[4.751987778581679, 4.9956794595345855]","[0.0, 0.0]"
1608810901298831263,,81219,,1608810901,306224502,'',"[wheel_left_joint, wheel_right_joint]","[540.6153726931661, 569.0907456125133]","[4.264604416675866, 4.873833619058132]","[0.0, 0.0]"
1608810901337162446,,81220,,1608810901,326524178,'',"[wheel_left_joint, wheel_right_joint]","[540.6982278646901, 569.1809115344658]","[4.142758576199412, 4.508296097628772]","[0.0, 0.0]"
1608810901337197507,,81221,,1608810901,346229430,'',"[wheel_left_joint, wheel_right_joint]","[540.7835199530236, 569.2759512900375]","[4.264604416675866, 4.751987778581679]","[0.0, 0.0]"
1608810901364671072,,81222,,1608810901,366317646,'',"[wheel_left_joint, wheel_right_joint]","[540.8736858749762, 569.3709910456091]","[4.508296097628772, 4.751987778581679]","[0.0, 0.0]"
1608810901391879575,,81223,,1608810901,386348111,'',"[wheel_left_joint, wheel_right_joint]","[540.9614148801193, 569.4587200507522]","[4.386450257152319, 4.386450257152319]","[0.0, 0.0]"
1608810901421679900,,81224,,1608810901,406962791,'',"[wheel_left_joint, wheel_right_joint]","[541.0442700516433, 569.5391383054666]","[4.142758576199412, 4.020912735722959]","[0.0, 0.0]"
1608810901421696437,,81225,,1608810901,426404665,'',"[wheel_left_joint, wheel_right_joint]","[541.1246883063577, 569.6219934769906]","[4.020912735722959, 4.142758576199412]","[0.0, 0.0]"
1608810901454023805,,81226,,1608810901,446367754,'',"[wheel_left_joint, wheel_right_joint]","[541.2075434778817, 569.7048486485146]","[4.142758576199412, 4.142758576199412]","[0.0, 0.0]"
1608810901518608914,,81227,,1608810901,467514150,'',"[wheel_left_joint, wheel_right_joint]","[541.2903986494057, 569.7901407368481]","[4.142758576199412, 4.264604416675866]","[0.0, 0.0]"
1608810901518649985,,81228,,1608810901,486172305,'',"[wheel_left_joint, wheel_right_joint]","[541.3732538209297, 569.8778697419912]","[4.142758576199412, 4.386450257152319]","[0.0, 0.0]"
1608810901538939416,,81229,,1608810901,506262271,'',"[wheel_left_joint, wheel_right_joint]","[541.4585459092632, 569.9631618303247]","[4.264604416675866, 4.264604416675866]","[0.0, 0.0]"
1608810901538976793,,81230,,1608810901,528545306,'',"[wheel_left_joint, wheel_right_joint]","[541.5438379975967, 570.0484539186582]","[4.264604416675866, 4.264604416675866]","[0.0, 0.0]"
1608810901539017234,,81231,,1608810901,546134198,'',"[wheel_left_joint, wheel_right_joint]","[541.6291300859302, 570.1386198406108]","[4.264604416675866, 4.508296097628772]","[0.0, 0.0]"
1608810901587118163,,81232,,1608810901,566172537,'',"[wheel_left_joint, wheel_right_joint]","[541.7144221742637, 570.2263488457538]","[4.264604416675866, 4.386450257152319]","[0.0, 0.0]"
1608810901621397068,,81233,,1608810901,586292837,'',"[wheel_left_joint, wheel_right_joint]","[541.7997142625973, 570.3116409340873]","[4.264604416675866, 4.264604416675866]","[0.0, 0.0]"
1608810901621422610,,81234,,1608810901,607905322,'',"[wheel_left_joint, wheel_right_joint]","[541.8850063509308, 570.3993699392304]","[4.264604416675866, 4.386450257152319]","[0.0, 0.0]"
1608810901621504948,,81235,,1608810901,626437184,'',"[wheel_left_joint, wheel_right_joint]","[541.9702984392643, 570.489535861183]","[4.264604416675866, 4.508296097628772]","[0.0, 0.0]"
1608810901654007298,,81236,,1608810901,646517233,'',"[wheel_left_joint, wheel_right_joint]","[542.0580274444073, 570.577264866326]","[4.386450257152319, 4.386450257152319]","[0.0, 0.0]"
1608810901675011792,,81237,,1608810901,666298319,'',"[wheel_left_joint, wheel_right_joint]","[542.1433195327409, 570.664993871469]","[4.264604416675866, 4.386450257152319]","[0.0, 0.0]"
1608810901675096678,,81238,,1608810901,686237783,'',"[wheel_left_joint, wheel_right_joint]","[542.2286116210744, 570.7502859598026]","[4.264604416675866, 4.264604416675866]","[0.0, 0.0]"
1608810901696022503,,81239,,1608810901,706086828,'',"[wheel_left_joint, wheel_right_joint]","[542.3163406262174, 570.8380149649456]","[4.386450257152319, 4.386450257152319]","[0.0, 0.0]"
1608810901733758198,,81240,,1608810901,725506827,'',"[wheel_left_joint, wheel_right_joint]","[542.4016327145509, 570.9257439700887]","[4.264604416675866, 4.386450257152319]","[0.0, 0.0]"
1608810901752667307,,81241,,1608810901,745609043,'',"[wheel_left_joint, wheel_right_joint]","[542.4869248028845, 571.0159098920412]","[4.264604416675866, 4.508296097628772]","[0.0, 0.0]"
1608810901818855893,,81242,,1608810901,765017374,'',"[wheel_left_joint, wheel_right_joint]","[542.5746538080275, 571.0987650635652]","[4.386450257152319, 4.142758576199412]","[0.0, 0.0]"
1608810901818886565,,81243,,1608810901,785184924,'',"[wheel_left_joint, wheel_right_joint]","[542.659945896361, 571.1889309855178]","[4.264604416675866, 4.508296097628772]","[0.0, 0.0]"
1608810901837859119,,81244,,1608810901,805260598,'',"[wheel_left_joint, wheel_right_joint]","[542.7452379846945, 571.2766599906608]","[4.264604416675866, 4.386450257152319]","[0.0, 0.0]"
1608810901837872726,,81245,,1608810901,826287117,'',"[wheel_left_joint, wheel_right_joint]","[542.8329669898376, 571.3668259126134]","[4.386450257152319, 4.508296097628772]","[0.0, 0.0]"
1608810901837920777,,81246,,1608810901,846041953,'',"[wheel_left_joint, wheel_right_joint]","[542.9231329117902, 571.4545549177565]","[4.508296097628772, 4.386450257152319]","[0.0, 0.0]"
1608810901858980969,,81247,,1608810901,865670788,'',"[wheel_left_joint, wheel_right_joint]","[543.0108619169332, 571.544720839709]","[4.386450257152319, 4.508296097628772]","[0.0, 0.0]"
1608810901877139406,,81248,,1608810901,885812671,'',"[wheel_left_joint, wheel_right_joint]","[543.0985909220763, 571.6300129280426]","[4.386450257152319, 4.264604416675866]","[0.0, 0.0]"
1608810901904347458,,81249,,1608810901,905951345,'',"[wheel_left_joint, wheel_right_joint]","[543.1863199272193, 571.7177419331856]","[4.386450257152319, 4.386450257152319]","[0.0, 0.0]"
1608810901931220143,,81250,,1608810901,925666806,'',"[wheel_left_joint, wheel_right_joint]","[543.2716120155528, 571.8054709383287]","[4.264604416675866, 4.386450257152319]","[0.0, 0.0]"
1608810901958426837,,81251,,1608810901,944930469,'',"[wheel_left_joint, wheel_right_joint]","[543.3593410206959, 571.8931999434717]","[4.386450257152319, 4.386450257152319]","[0.0, 0.0]"
1608810901962156504,,81252,,1608810901,964195882,'',"[wheel_left_joint, wheel_right_joint]","[543.4470700258389, 571.9833658654243]","[4.386450257152319, 4.508296097628772]","[0.0, 0.0]"
1608810901981197226,,81253,,1608810901,984105012,'',"[wheel_left_joint, wheel_right_joint]","[543.534799030982, 572.0735317873769]","[4.386450257152319, 4.508296097628772]","[0.0, 0.0]"
1608810902029447265,,81254,,1608810902,4119143,'',"[wheel_left_joint, wheel_right_joint]","[543.622528036125, 572.1612607925199]","[4.386450257152319, 4.386450257152319]","[0.0, 0.0]"
1608810902029453409,,81255,,1608810902,25132246,'',"[wheel_left_joint, wheel_right_joint]","[543.7126939580776, 572.253863631282]","[4.508296097628772, 4.630141938105226]","[0.0, 0.0]"
1608810902047362869,,81256,,1608810902,44990334,'',"[wheel_left_joint, wheel_right_joint]","[543.8004229632206, 572.341592636425]","[4.386450257152319, 4.386450257152319]","[0.0, 0.0]"
1608810902047366001,,81257,,1608810902,64970049,'',"[wheel_left_joint, wheel_right_joint]","[543.8905888851732, 572.4317585583776]","[4.508296097628772, 4.508296097628772]","[0.0, 0.0]"
1608810902079543700,,81258,,1608810902,84979514,'',"[wheel_left_joint, wheel_right_joint]","[543.9783178903162, 572.5219244803302]","[4.386450257152319, 4.508296097628772]","[0.0, 0.0]"
1608810902094322853,,81259,,1608810902,104084218,'',"[wheel_left_joint, wheel_right_joint]","[544.0636099786498, 572.6096534854732]","[4.264604416675866, 4.386450257152319]","[0.0, 0.0]"
1608810902117084311,,81260,,1608810902,124054599,'',"[wheel_left_joint, wheel_right_joint]","[544.1489020669833, 572.6973824906163]","[4.264604416675866, 4.386450257152319]","[0.0, 0.0]"
1608810902134211569,,81261,,1608810902,144313443,'',"[wheel_left_joint, wheel_right_joint]","[544.2390679889359, 572.7899853293784]","[4.508296097628772, 4.630141938105226]","[0.0, 0.0]"
1608810902154817095,,81262,,1608810902,164067113,'',"[wheel_left_joint, wheel_right_joint]","[544.331670827698, 572.8825881681405]","[4.630141938105226, 4.630141938105226]","[0.0, 0.0]"
1608810902169334536,,81263,,1608810902,183831283,'',"[wheel_left_joint, wheel_right_joint]","[544.419399832841, 572.9703171732835]","[4.386450257152319, 4.386450257152319]","[0.0, 0.0]"
1608810902188085320,,81264,,1608810902,203846290,'',"[wheel_left_joint, wheel_right_joint]","[544.507128837984, 573.0604830952361]","[4.386450257152319, 4.508296097628772]","[0.0, 0.0]"
1608810902207612563,,81265,,1608810902,225090396,'',"[wheel_left_joint, wheel_right_joint]","[544.5948578431271, 573.1506490171887]","[4.386450257152319, 4.508296097628772]","[0.0, 0.0]"
1608810902244020024,,81266,,1608810902,243913638,'',"[wheel_left_joint, wheel_right_joint]","[544.6825868482701, 573.2432518559508]","[4.386450257152319, 4.630141938105226]","[0.0, 0.0]"
1608810902263282431,,81267,,1608810902,263831810,'',"[wheel_left_joint, wheel_right_joint]","[544.7727527702227, 573.3334177779034]","[4.508296097628772, 4.508296097628772]","[0.0, 0.0]"
1608810902293497483,,81268,,1608810902,284799121,'',"[wheel_left_joint, wheel_right_joint]","[544.8604817753658, 573.4260206166655]","[4.386450257152319, 4.630141938105226]","[0.0, 0.0]"
1608810902293532043,,81269,,1608810902,305534846,'',"[wheel_left_joint, wheel_right_joint]","[544.9482107805088, 573.5186234554276]","[4.386450257152319, 4.630141938105226]","[0.0, 0.0]"
1608810902317526225,,81270,,1608810902,324403296,'',"[wheel_left_joint, wheel_right_joint]","[545.0359397856519, 573.6063524605706]","[4.386450257152319, 4.386450257152319]","[0.0, 0.0]"
1608810902348033025,,81271,,1608810902,344492096,'',"[wheel_left_joint, wheel_right_joint]","[545.1261057076044, 573.6940814657137]","[4.508296097628772, 4.386450257152319]","[0.0, 0.0]"
1608810902348113476,,81272,,1608810902,364451685,'',"[wheel_left_joint, wheel_right_joint]","[545.216271629557, 573.7842473876663]","[4.508296097628772, 4.508296097628772]","[0.0, 0.0]"
1608810902370296082,,81273,,1608810902,384401941,'',"[wheel_left_joint, wheel_right_joint]","[545.3064375515096, 573.8719763928093]","[4.508296097628772, 4.386450257152319]","[0.0, 0.0]"
1608810902389435841,,81274,,1608810902,403661230,'',"[wheel_left_joint, wheel_right_joint]","[545.3941665566526, 573.9621423147619]","[4.386450257152319, 4.508296097628772]","[0.0, 0.0]"
1608810902408382288,,81275,,1608810902,424769709,'',"[wheel_left_joint, wheel_right_joint]","[545.4843324786052, 574.054745153524]","[4.508296097628772, 4.630141938105226]","[0.0, 0.0]"
1608810902437804295,,81276,,1608810902,444514630,'',"[wheel_left_joint, wheel_right_joint]","[545.5744984005578, 574.1449110754766]","[4.508296097628772, 4.508296097628772]","[0.0, 0.0]"
1608810902457287587,,81277,,1608810902,463689626,'',"[wheel_left_joint, wheel_right_joint]","[545.6646643225104, 574.2375139142387]","[4.508296097628772, 4.630141938105226]","[0.0, 0.0]"
1608810902477916284,,81278,,1608810902,483732050,'',"[wheel_left_joint, wheel_right_joint]","[545.7548302444629, 574.3276798361912]","[4.508296097628772, 4.508296097628772]","[0.0, 0.0]"
1608810902500968393,,81279,,1608810902,503617555,'',"[wheel_left_joint, wheel_right_joint]","[545.8449961664155, 574.4178457581438]","[4.508296097628772, 4.508296097628772]","[0.0, 0.0]"
1608810902522012351,,81280,,1608810902,524072401,'',"[wheel_left_joint, wheel_right_joint]","[545.9327251715586, 574.5055747632869]","[4.386450257152319, 4.386450257152319]","[0.0, 0.0]"
1608810902543853195,,81281,,1608810902,543629485,'',"[wheel_left_joint, wheel_right_joint]","[546.0228910935111, 574.6006145188585]","[4.508296097628772, 4.751987778581679]","[0.0, 0.0]"
1608810902575393840,,81282,,1608810902,563598700,'',"[wheel_left_joint, wheel_right_joint]","[546.1130570154637, 574.6907804408111]","[4.508296097628772, 4.508296097628772]","[0.0, 0.0]"
1608810902575415172,,81283,,1608810902,583551289,'',"[wheel_left_joint, wheel_right_joint]","[546.2032229374163, 574.7809463627636]","[4.508296097628772, 4.508296097628772]","[0.0, 0.0]"
1608810902590049004,,81284,,1608810902,603617047,'',"[wheel_left_joint, wheel_right_joint]","[546.2958257761784, 574.8735492015257]","[4.630141938105226, 4.630141938105226]","[0.0, 0.0]"
1608810902603372105,,81285,,1608810902,625280283,'',"[wheel_left_joint, wheel_right_joint]","[546.385991698131, 574.9661520402879]","[4.508296097628772, 4.630141938105226]","[0.0, 0.0]"
1608810902620887537,,81286,,1608810902,645069246,'',"[wheel_left_joint, wheel_right_joint]","[546.4761576200835, 575.0611917958595]","[4.508296097628772, 4.751987778581679]","[0.0, 0.0]"
1608810902644372987,,81287,,1608810902,663688610,'',"[wheel_left_joint, wheel_right_joint]","[546.5687604588456, 575.1537946346216]","[4.630141938105226, 4.630141938105226]","[0.0, 0.0]"
1608810902663885579,,81288,,1608810902,683672699,'',"[wheel_left_joint, wheel_right_joint]","[546.6589263807982, 575.2415236397646]","[4.508296097628772, 4.386450257152319]","[0.0, 0.0]"
1608810902685678105,,81289,,1608810902,703498704,'',"[wheel_left_joint, wheel_right_joint]","[546.7490923027508, 575.3292526449077]","[4.508296097628772, 4.386450257152319]","[0.0, 0.0]"
1608810902714065613,,81290,,1608810902,723501461,'',"[wheel_left_joint, wheel_right_joint]","[546.8368213078938, 575.4218554836698]","[4.386450257152319, 4.630141938105226]","[0.0, 0.0]"
1608810902730535941,,81291,,1608810902,743524051,'',"[wheel_left_joint, wheel_right_joint]","[546.9245503130369, 575.5120214056224]","[4.386450257152319, 4.508296097628772]","[0.0, 0.0]"
1608810902751705874,,81292,,1608810902,763521558,'',"[wheel_left_joint, wheel_right_joint]","[547.0147162349895, 575.6046242443845]","[4.508296097628772, 4.630141938105226]","[0.0, 0.0]"
1608810902769775443,,81293,,1608810902,783597524,'',"[wheel_left_joint, wheel_right_joint]","[547.1073190737516, 575.6972270831466]","[4.630141938105226, 4.630141938105226]","[0.0, 0.0]"
1608810902787777788,,81294,,1608810902,803497029,'',"[wheel_left_joint, wheel_right_joint]","[547.1999219125137, 575.7898299219087]","[4.630141938105226, 4.630141938105226]","[0.0, 0.0]"
1608810902803580363,,81295,,1608810902,824579550,'',"[wheel_left_joint, wheel_right_joint]","[547.2925247512758, 575.8799958438613]","[4.630141938105226, 4.508296097628772]","[0.0, 0.0]"
1608810902824962691,,81296,,1608810902,843683670,'',"[wheel_left_joint, wheel_right_joint]","[547.3826906732284, 575.9725986826234]","[4.508296097628772, 4.630141938105226]","[0.0, 0.0]"
1608810902848195785,,81297,,1608810902,863701594,'',"[wheel_left_joint, wheel_right_joint]","[547.4728565951809, 576.0652015213855]","[4.508296097628772, 4.630141938105226]","[0.0, 0.0]"
1608810902867861947,,81298,,1608810902,883781935,'',"[wheel_left_joint, wheel_right_joint]","[547.565459433943, 576.1602412769571]","[4.630141938105226, 4.751987778581679]","[0.0, 0.0]"
1608810902894358317,,81299,,1608810902,903578189,'',"[wheel_left_joint, wheel_right_joint]","[547.6580622727051, 576.2552810325287]","[4.630141938105226, 4.751987778581679]","[0.0, 0.0]"
1608810902910465515,,81300,,1608810902,924373122,'',"[wheel_left_joint, wheel_right_joint]","[547.7506651114672, 576.3454469544813]","[4.630141938105226, 4.508296097628772]","[0.0, 0.0]"
1608810902930656789,,81301,,1608810902,943418325,'',"[wheel_left_joint, wheel_right_joint]","[547.8408310334198, 576.4356128764339]","[4.508296097628772, 4.508296097628772]","[0.0, 0.0]"
1608810902946996449,,81302,,1608810902,963398040,'',"[wheel_left_joint, wheel_right_joint]","[547.9309969553724, 576.528215715196]","[4.508296097628772, 4.630141938105226]","[0.0, 0.0]"
1608810902972707957,,81303,,1608810902,983610799,'',"[wheel_left_joint, wheel_right_joint]","[548.0235997941345, 576.6232554707676]","[4.630141938105226, 4.751987778581679]","[0.0, 0.0]"
1608810902996651723,,81304,,1608810903,3533347,'',"[wheel_left_joint, wheel_right_joint]","[548.1162026328966, 576.7134213927202]","[4.630141938105226, 4.508296097628772]","[0.0, 0.0]"
1608810903013821901,,81305,,1608810903,23686606,'',"[wheel_left_joint, wheel_right_joint]","[548.2063685548492, 576.8060242314823]","[4.508296097628772, 4.630141938105226]","[0.0, 0.0]"
1608810903029630847,,81306,,1608810903,44598209,'',"[wheel_left_joint, wheel_right_joint]","[548.3014083104208, 576.8986270702444]","[4.751987778581679, 4.630141938105226]","[0.0, 0.0]"
1608810903044213862,,81307,,1608810903,63412992,'',"[wheel_left_joint, wheel_right_joint]","[548.3940111491829, 576.993666825816]","[4.630141938105226, 4.751987778581679]","[0.0, 0.0]"
1608810903064560416,,81308,,1608810903,83336416,'',"[wheel_left_joint, wheel_right_joint]","[548.4841770711355, 577.0838327477686]","[4.508296097628772, 4.508296097628772]","[0.0, 0.0]"
1608810903085154666,,81309,,1608810903,103366590,'',"[wheel_left_joint, wheel_right_joint]","[548.5743429930881, 577.1788725033402]","[4.508296097628772, 4.751987778581679]","[0.0, 0.0]"
1608810903127546043,,81310,,1608810903,123519849,'',"[wheel_left_joint, wheel_right_joint]","[548.6693827486597, 577.2714753421023]","[4.751987778581679, 4.630141938105226]","[0.0, 0.0]"
1608810903146355430,,81311,,1608810903,143253103,'',"[wheel_left_joint, wheel_right_joint]","[548.7619855874218, 577.3640781808645]","[4.630141938105226, 4.630141938105226]","[0.0, 0.0]"
1608810903185606809,,81312,,1608810903,164383459,'',"[wheel_left_joint, wheel_right_joint]","[548.8545884261839, 577.4566810196266]","[4.630141938105226, 4.630141938105226]","[0.0, 0.0]"
1608810903185614923,,81313,,1608810903,183357203,'',"[wheel_left_joint, wheel_right_joint]","[548.9447543481365, 577.5492838583887]","[4.508296097628772, 4.630141938105226]","[0.0, 0.0]"
1608810903256634020,,81314,,1608810903,203244459,'',"[wheel_left_joint, wheel_right_joint]","[549.0397941037081, 577.6418866971508]","[4.751987778581679, 4.630141938105226]","[0.0, 0.0]"
1608810903256664891,,81315,,1608810903,223384593,'',"[wheel_left_joint, wheel_right_joint]","[549.1323969424702, 577.7369264527224]","[4.630141938105226, 4.751987778581679]","[0.0, 0.0]"
1608810903276301299,,81316,,1608810903,244365322,'',"[wheel_left_joint, wheel_right_joint]","[549.2274366980419, 577.831966208294]","[4.751987778581679, 4.751987778581679]","[0.0, 0.0]"
1608810903276316855,,81317,,1608810903,263032812,'',"[wheel_left_joint, wheel_right_joint]","[549.320039536804, 577.9221321302466]","[4.630141938105226, 4.508296097628772]","[0.0, 0.0]"
1608810903276356294,,81318,,1608810903,283089820,'',"[wheel_left_joint, wheel_right_joint]","[549.4150792923756, 578.0171718858182]","[4.751987778581679, 4.751987778581679]","[0.0, 0.0]"
1608810903304140499,,81319,,1608810903,304109341,'',"[wheel_left_joint, wheel_right_joint]","[549.5076821311377, 578.1073378077708]","[4.630141938105226, 4.508296097628772]","[0.0, 0.0]"
1608810903324896799,,81320,,1608810903,324355643,'',"[wheel_left_joint, wheel_right_joint]","[549.5978480530903, 578.1999406465329]","[4.508296097628772, 4.630141938105226]","[0.0, 0.0]"
1608810903324929059,,81321,,1608810903,344345859,'',"[wheel_left_joint, wheel_right_joint]","[549.6904508918524, 578.292543485295]","[4.630141938105226, 4.630141938105226]","[0.0, 0.0]"
1608810903349125439,,81322,,1608810903,365625257,'',"[wheel_left_joint, wheel_right_joint]","[549.785490647424, 578.3851463240571]","[4.751987778581679, 4.630141938105226]","[0.0, 0.0]"
1608810903373687417,,81323,,1608810903,384405916,'',"[wheel_left_joint, wheel_right_joint]","[549.8780934861861, 578.4777491628192]","[4.630141938105226, 4.630141938105226]","[0.0, 0.0]"
1608810903403166626,,81324,,1608810903,403928292,'',"[wheel_left_joint, wheel_right_joint]","[549.9731332417578, 578.5703520015813]","[4.751987778581679, 4.630141938105226]","[0.0, 0.0]"
1608810903453854508,,81325,,1608810903,424261512,'',"[wheel_left_joint, wheel_right_joint]","[550.0657360805199, 578.665391757153]","[4.630141938105226, 4.751987778581679]","[0.0, 0.0]"
1608810903453923960,,81326,,1608810903,445023488,'',"[wheel_left_joint, wheel_right_joint]","[550.158338919282, 578.7604315127246]","[4.630141938105226, 4.751987778581679]","[0.0, 0.0]"
1608810903475280549,,81327,,1608810903,463905356,'',"[wheel_left_joint, wheel_right_joint]","[550.2509417580441, 578.8554712682962]","[4.630141938105226, 4.751987778581679]","[0.0, 0.0]"
1608810903475539638,,81328,,1608810903,484158950,'',"[wheel_left_joint, wheel_right_joint]","[550.3435445968062, 578.9480741070583]","[4.630141938105226, 4.630141938105226]","[0.0, 0.0]"
1608810903505427153,,81329,,1608810903,503815203,'',"[wheel_left_joint, wheel_right_joint]","[550.4385843523778, 579.04311386263]","[4.751987778581679, 4.751987778581679]","[0.0, 0.0]"
1608810903522476815,,81330,,1608810903,524139381,'',"[wheel_left_joint, wheel_right_joint]","[550.5311871911399, 579.1405905350111]","[4.630141938105226, 4.873833619058132]","[0.0, 0.0]"
1608810903536914086,,81331,,1608810903,545648908,'',"[wheel_left_joint, wheel_right_joint]","[550.623790029902, 579.2307564569637]","[4.630141938105226, 4.508296097628772]","[0.0, 0.0]"
1608810903571885259,,81332,,1608810903,563714682,'',"[wheel_left_joint, wheel_right_joint]","[550.7163928686641, 579.3257962125354]","[4.630141938105226, 4.751987778581679]","[0.0, 0.0]"
1608810903571943671,,81333,,1608810903,583823024,'',"[wheel_left_joint, wheel_right_joint]","[550.8089957074262, 579.420835968107]","[4.630141938105226, 4.751987778581679]","[0.0, 0.0]"
1608810903599891551,,81334,,1608810903,603809448,'',"[wheel_left_joint, wheel_right_joint]","[550.9015985461883, 579.5134388068691]","[4.630141938105226, 4.630141938105226]","[0.0, 0.0]"
1608810903625328287,,81335,,1608810903,622882652,'',"[wheel_left_joint, wheel_right_joint]","[550.9917644681409, 579.6084785624407]","[4.508296097628772, 4.751987778581679]","[0.0, 0.0]"
1608810903649594120,,81336,,1608810903,644934103,'',"[wheel_left_joint, wheel_right_joint]","[551.084367306903, 579.7059552348219]","[4.630141938105226, 4.873833619058132]","[0.0, 0.0]"
1608810903649620276,,81337,,1608810903,662866000,'',"[wheel_left_joint, wheel_right_joint]","[551.1769701456651, 579.803431907203]","[4.630141938105226, 4.873833619058132]","[0.0, 0.0]"
1608810903695705693,,81338,,1608810903,682870216,'',"[wheel_left_joint, wheel_right_joint]","[551.2671360676177, 579.8984716627747]","[4.508296097628772, 4.751987778581679]","[0.0, 0.0]"
1608810903719577295,,81339,,1608810903,703533607,'',"[wheel_left_joint, wheel_right_joint]","[551.3621758231893, 579.9886375847273]","[4.751987778581679, 4.508296097628772]","[0.0, 0.0]"
1608810903719584878,,81340,,1608810903,723557365,'',"[wheel_left_joint, wheel_right_joint]","[551.46208941238, 580.0812404234894]","[4.9956794595345855, 4.630141938105226]","[0.0, 0.0]"
1608810903748492530,,81341,,1608810903,744323132,'',"[wheel_left_joint, wheel_right_joint]","[551.5522553343326, 580.176280179061]","[4.508296097628772, 4.751987778581679]","[0.0, 0.0]"
1608810903777560533,,81342,,1608810903,763876717,'',"[wheel_left_joint, wheel_right_joint]","[551.6448581730947, 580.2713199346326]","[4.630141938105226, 4.751987778581679]","[0.0, 0.0]"
1608810903777735371,,81343,,1608810903,783888516,'',"[wheel_left_joint, wheel_right_joint]","[551.7374610118568, 580.3639227733947]","[4.630141938105226, 4.630141938105226]","[0.0, 0.0]"
1608810903807572890,,81344,,1608810903,803671646,'',"[wheel_left_joint, wheel_right_joint]","[551.834937684238, 580.4589625289664]","[4.873833619058132, 4.751987778581679]","[0.0, 0.0]"
1608810903832905926,,81345,,1608810903,824549998,'',"[wheel_left_joint, wheel_right_joint]","[551.9299774398096, 580.554002284538]","[4.751987778581679, 4.751987778581679]","[0.0, 0.0]"
1608810903876622854,,81346,,1608810903,844934844,'',"[wheel_left_joint, wheel_right_joint]","[552.0250171953812, 580.6514789569192]","[4.751987778581679, 4.873833619058132]","[0.0, 0.0]"
1608810903876673235,,81347,,1608810903,863542250,'',"[wheel_left_joint, wheel_right_joint]","[552.1200569509529, 580.7440817956813]","[4.751987778581679, 4.630141938105226]","[0.0, 0.0]"
1608810903908006065,,81348,,1608810903,883922429,'',"[wheel_left_joint, wheel_right_joint]","[552.2150967065245, 580.8391215512529]","[4.751987778581679, 4.751987778581679]","[0.0, 0.0]"
1608810903908020326,,81349,,1608810903,903586265,'',"[wheel_left_joint, wheel_right_joint]","[552.3101364620961, 580.9341613068245]","[4.751987778581679, 4.751987778581679]","[0.0, 0.0]"
1608810903908043085,,81350,,1608810903,923562773,'',"[wheel_left_joint, wheel_right_joint]","[552.4027393008582, 581.0267641455866]","[4.630141938105226, 4.630141938105226]","[0.0, 0.0]"
1608810903931686989,,81351,,1608810903,943706115,'',"[wheel_left_joint, wheel_right_joint]","[552.4977790564299, 581.1193669843487]","[4.751987778581679, 4.630141938105226]","[0.0, 0.0]"
1608810903970881184,,81352,,1608810903,963551954,'',"[wheel_left_joint, wheel_right_joint]","[552.595255728811, 581.2168436567299]","[4.873833619058132, 4.873833619058132]","[0.0, 0.0]"
1608810903993225144,,81353,,1608810903,986062494,'',"[wheel_left_joint, wheel_right_joint]","[552.6902954843827, 581.3118834123015]","[4.751987778581679, 4.751987778581679]","[0.0, 0.0]"
1608810903993263233,,81354,,1608810904,3703304,'',"[wheel_left_joint, wheel_right_joint]","[552.7828983231448, 581.4044862510636]","[4.630141938105226, 4.630141938105226]","[0.0, 0.0]"
1608810904015965297,,81355,,1608810904,23419933,'',"[wheel_left_joint, wheel_right_joint]","[552.8779380787164, 581.4970890898257]","[4.751987778581679, 4.630141938105226]","[0.0, 0.0]"
1608810904040318633,,81356,,1608810904,44828835,'',"[wheel_left_joint, wheel_right_joint]","[552.972977834288, 581.5945657622069]","[4.751987778581679, 4.873833619058132]","[0.0, 0.0]"
1608810904076389405,,81357,,1608810904,65021179,'',"[wheel_left_joint, wheel_right_joint]","[553.0680175898597, 581.6896055177785]","[4.751987778581679, 4.751987778581679]","[0.0, 0.0]"
1608810904076424040,,81358,,1608810904,83420041,'',"[wheel_left_joint, wheel_right_joint]","[553.1581835118122, 581.7870821901597]","[4.508296097628772, 4.873833619058132]","[0.0, 0.0]"
1608810904099183266,,81359,,1608810904,104566731,'',"[wheel_left_joint, wheel_right_joint]","[553.2532232673839, 581.8821219457313]","[4.751987778581679, 4.751987778581679]","[0.0, 0.0]"
1608810904136934850,,81360,,1608810904,123308014,'',"[wheel_left_joint, wheel_right_joint]","[553.350699939765, 581.977161701303]","[4.873833619058132, 4.751987778581679]","[0.0, 0.0]"
1608810904145906508,,81361,,1608810904,143815946,'',"[wheel_left_joint, wheel_right_joint]","[553.4457396953367, 582.0722014568746]","[4.751987778581679, 4.751987778581679]","[0.0, 0.0]"
1608810904176689127,,81362,,1608810904,163513325,'',"[wheel_left_joint, wheel_right_joint]","[553.5407794509083, 582.1672412124462]","[4.751987778581679, 4.751987778581679]","[0.0, 0.0]"
1608810904176737530,,81363,,1608810904,183304914,'',"[wheel_left_joint, wheel_right_joint]","[553.6358192064799, 582.2622809680179]","[4.751987778581679, 4.751987778581679]","[0.0, 0.0]"
1608810904199889774,,81364,,1608810904,205580660,'',"[wheel_left_joint, wheel_right_joint]","[553.7332958788611, 582.3573207235895]","[4.873833619058132, 4.751987778581679]","[0.0, 0.0]"
1608810904219636413,,81365,,1608810904,223534141,'',"[wheel_left_joint, wheel_right_joint]","[553.8258987176232, 582.4547973959707]","[4.630141938105226, 4.873833619058132]","[0.0, 0.0]"
1608810904247389554,,81366,,1608810904,243929780,'',"[wheel_left_joint, wheel_right_joint]","[553.9209384731948, 582.5522740683518]","[4.751987778581679, 4.873833619058132]","[0.0, 0.0]"
1608810904275247099,,81367,,1608810904,263740035,'',"[wheel_left_joint, wheel_right_joint]","[554.018415145576, 582.649750740733]","[4.873833619058132, 4.873833619058132]","[0.0, 0.0]"
1608810904275464103,,81368,,1608810904,283309955,'',"[wheel_left_joint, wheel_right_joint]","[554.1158918179572, 582.7423535794951]","[4.873833619058132, 4.630141938105226]","[0.0, 0.0]"
1608810904313530740,,81369,,1608810904,303304254,'',"[wheel_left_joint, wheel_right_joint]","[554.2133684903383, 582.8373933350667]","[4.873833619058132, 4.751987778581679]","[0.0, 0.0]"
1608810904357578512,,81370,,1608810904,323384889,'',"[wheel_left_joint, wheel_right_joint]","[554.30840824591, 582.9348700074479]","[4.751987778581679, 4.873833619058132]","[0.0, 0.0]"
1608810904357897819,,81371,,1608810904,342270549,'',"[wheel_left_joint, wheel_right_joint]","[554.4010110846721, 583.02747284621]","[4.630141938105226, 4.630141938105226]","[0.0, 0.0]"
1608810904358024266,,81372,,1608810904,362267474,'',"[wheel_left_joint, wheel_right_joint]","[554.4984877570532, 583.1225126017816]","[4.873833619058132, 4.751987778581679]","[0.0, 0.0]"
1608810904403876832,,81373,,1608810904,382283066,'',"[wheel_left_joint, wheel_right_joint]","[554.5959644294344, 583.2199892741628]","[4.873833619058132, 4.873833619058132]","[0.0, 0.0]"
1608810904403946378,,81374,,1608810904,405666576,'',"[wheel_left_joint, wheel_right_joint]","[554.6934411018156, 583.3150290297344]","[4.873833619058132, 4.751987778581679]","[0.0, 0.0]"
1608810904449791752,,81375,,1608810904,423151051,'',"[wheel_left_joint, wheel_right_joint]","[554.7884808573872, 583.4100687853061]","[4.751987778581679, 4.751987778581679]","[0.0, 0.0]"
