rosbagTimestamp,header,seq,stamp,secs,nsecs,frame_id,pose,position,x,y,z,orientation,x,y,z,w
1608810897465553587,,17710,,1608810897,465344441,"""world""",,,4.58350133896,2.90582299232,0.479369699955,,0.00879681948572,0.00605987897143,-0.999661207199,0.0237361025065
1608810897465701182,,17711,,1608810897,465402508,"""world""",,,4.58349561691,2.90584468842,0.479375839233,,0.00884670950472,0.00594881316647,-0.999659240246,0.0238310862333
1608810897465723888,,17713,,1608810897,465455978,"""world""",,,4.58350610733,2.90583229065,0.479381680489,,0.00890272576362,0.00605072407052,-0.999658226967,0.023823088035
1608810897465832718,,17714,,1608810897,465503979,"""world""",,,4.58344984055,2.90580296516,0.479272902012,,0.00745443115011,0.00590348383412,-0.999672889709,0.0237436927855
1608810897616135448,,17715,,1608810897,615330612,"""world""",,,4.58344459534,2.90579605103,0.479271441698,,0.00753463804722,0.00589462276548,-0.999671280384,0.0237898882478
1608810897616150242,,17719,,1608810897,615525554,"""world""",,,4.58349561691,2.90584564209,0.479377537966,,0.00901892315596,0.00599193526432,-0.999657869339,0.0238096937537
1608810897675468181,,17720,,1608810897,675268180,"""world""",,,4.58344984055,2.90579247475,0.479277700186,,0.00752780027688,0.00591003429145,-0.999671697617,0.0237698033452
1608810897675487639,,17721,,1608810897,675298749,"""world""",,,4.58343696594,2.90579342842,0.479274213314,,0.00757397990674,0.00585921201855,-0.999672591686,0.0237309411168
1608810897675760515,,17722,,1608810897,675347119,"""world""",,,4.58344173431,2.90578913689,0.479286640882,,0.0073984162882,0.00594671815634,-0.999671638012,0.0238056778908
1608810897675805134,,17725,,1608810897,675415950,"""world""",,,4.58344984055,2.90578961372,0.479281395674,,0.00738229602575,0.00597116118297,-0.999672949314,0.0237480718642
1608810897696390086,,17726,,1608810897,695298474,"""world""",,,4.58349704742,2.9058368206,0.479390531778,,0.00892814714462,0.0060547045432,-0.99965775013,0.0238329749554
1608810897696400826,,17727,,1608810897,695353736,"""world""",,,4.58344554901,2.90577459335,0.479277819395,,0.00752401584759,0.00589511357248,-0.999671936035,0.0237624049187
1608810897696429565,,17730,,1608810897,695397218,"""world""",,,4.58349466324,2.90584135056,0.479375869036,,0.00892177224159,0.00600415328518,-0.999659001827,0.0237984545529
1608810897696444974,,17731,,1608810897,695433349,"""world""",,,4.58349466324,2.90583753586,0.479383438826,,0.00888493005186,0.00599864218384,-0.999657869339,0.0238589402288
1608810897696450707,,17738,,1608810897,695531891,"""world""",,,4.58348274231,2.90584588051,0.47933357954,,0.00813786126673,0.00519679673016,-0.999664366245,0.0240434613079
1608810897696525301,,17739,,1608810897,695572631,"""world""",,,4.58343982697,2.90578913689,0.479274064302,,0.00742703862488,0.00600596144795,-0.999671518803,0.0237828921527
1608810897696544890,,17744,,1608810897,695659657,"""world""",,,4.58344316483,2.90576815605,0.479275405407,,0.0074712256901,0.00589233264327,-0.999670743942,0.0238304659724
1608810897696553131,,17745,,1608810897,695733484,"""world""",,,4.5834403038,2.90579032898,0.479271352291,,0.00736619438976,0.00595476478338,-0.999672055244,0.0237945280969
1608810897696590016,,17751,,1608810897,695840597,"""world""",,,4.58349752426,2.90583920479,0.479377686977,,0.00884869508445,0.00592801114544,-0.999660491943,0.0237777698785
1608810897696603820,,17752,,1608810897,695888976,"""world""",,,4.58343696594,2.90578818321,0.479291021824,,0.00751032726839,0.00583403464407,-0.999671161175,0.0238167829812
1608810897696611276,,17754,,1608810897,695922530,"""world""",,,4.58342409134,2.90578866005,0.479277789593,,0.00722023099661,0.00610714266077,-0.999671459198,0.0238245427608
1608810897696656180,,17755,,1608810897,695968901,"""world""",,,4.5834903717,2.90582704544,0.479380220175,,0.00883714295924,0.00595240481198,-0.999659359455,0.0238285455853
1608810897705520193,,17756,,1608810897,705305294,"""world""",,,4.58343362808,2.90576934814,0.479279071093,,0.0074340258725,0.00592724047601,-0.999671816826,0.0237899087369
1608810897715572927,,17757,,1608810897,715308186,"""world""",,,4.58344173431,2.90578389168,0.479277640581,,0.00725603662431,0.00588490208611,-0.999673128128,0.0237989462912
1608810897715586621,,17758,,1608810897,715365469,"""world""",,,4.58343410492,2.90577578545,0.479273110628,,0.00735026039183,0.00599758187309,-0.999672949314,0.0237493831664
1608810897735867346,,17759,,1608810897,735329601,"""world""",,,4.58343839645,2.90577983856,0.479269236326,,0.00741053652018,0.00593532342464,-0.999670565128,0.0238456260413
1608810897735897889,,17760,,1608810897,735446430,"""world""",,,4.58343791962,2.90577149391,0.479273885489,,0.00742787029594,0.00595788331702,-0.999670624733,0.0238313209265
1608810897746008409,,17761,,1608810897,745414597,"""world""",,,4.58343744278,2.90577459335,0.479265004396,,0.00741534074768,0.00590139906853,-0.9996727705,0.0237629059702
1608810897755709635,,17762,,1608810897,755347877,"""world""",,,4.58350229263,2.90582442284,0.479390561581,,0.00887319352478,0.00605118647218,-0.999659061432,0.0238035991788
1608810897766160118,,17763,,1608810897,765288411,"""world""",,,4.58343791962,2.90577602386,0.479277968407,,0.00740825338289,0.00591040495783,-0.999673783779,0.0237196013331
1608810897775517614,,17764,,1608810897,775301616,"""world""",,,4.58343505859,2.90577077866,0.479265719652,,0.00748845515773,0.005884536542,-0.999671041965,0.0238167662174
1608810897775750507,,17765,,1608810897,775380328,"""world""",,,4.58343362808,2.90576815605,0.479275852442,,0.00752319209278,0.00593052618206,-0.999670982361,0.0237957071513
1608810897795459791,,17766,,1608810897,795296492,"""world""",,,4.58349561691,2.90582466125,0.479374527931,,0.00874863751233,0.00604269839823,-0.999659836292,0.023817954585
1608810897795467676,,17767,,1608810897,795343619,"""world""",,,4.58347463608,2.90583395958,0.479340672493,,0.00831110682338,0.00504359183833,-0.999662339687,0.0241011083126
1608810897825456236,,17768,,1608810897,825263339,"""world""",,,4.58348703384,2.90582299232,0.479378253222,,0.00875766202807,0.00598271377385,-0.999658942223,0.0238664150238
1608810897835471859,,17769,,1608810897,835269799,"""world""",,,4.5834980011,2.90582466125,0.479373395443,,0.00888832099736,0.00594553351402,-0.999658823013,0.0238326974213
1608810897835615678,,17770,,1608810897,835320923,"""world""",,,4.5834941864,2.90582633018,0.479381620884,,0.00878378842026,0.00606015603989,-0.999660432339,0.0237745419145
1608810897835628243,,17771,,1608810897,835344265,"""world""",,,4.5834403038,2.90577745438,0.479284346104,,0.00741505250335,0.00584557559341,-0.999671697617,0.0238218214363
1608810897835734759,,17772,,1608810897,835399719,"""world""",,,4.58348274231,2.90582871437,0.479372620583,,0.00873547140509,0.00609653769061,-0.999660372734,0.0237853862345
1608810897845508740,,17773,,1608810897,845337678,"""world""",,,4.58344268799,2.90577340126,0.479265213013,,0.00731882080436,0.00597620289773,-0.999672949314,0.0237636901438
1608810897855645840,,17774,,1608810897,855337630,"""world""",,,4.58343696594,2.90578937531,0.479272007942,,0.00739491684362,0.00596117554232,-0.999671280384,0.0238175895065
1608810897878963372,,17775,,1608810897,875315701,"""world""",,,4.58343696594,2.90577507019,0.479273796082,,0.00738348579034,0.00588905904442,-0.999673604965,0.023736609146
1608810897878984560,,17776,,1608810897,875400840,"""world""",,,4.58344554901,2.9057803154,0.479274779558,,0.0073678670451,0.00599225005135,-0.999673008919,0.0237440690398
1608810897885953473,,17777,,1608810897,885314735,"""world""",,,4.58343839645,2.90578269958,0.479272842407,,0.00741537613794,0.00592736015096,-0.99967199564,0.0237870067358
1608810897886044558,,17778,,1608810897,885359354,"""world""",,,4.58349990845,2.90583014488,0.479367733002,,0.00879176612943,0.00604039942846,-0.999657690525,0.0238931328058
1608810897905678967,,17779,,1608810897,905292094,"""world""",,,4.58350038528,2.90583705902,0.47937759757,,0.00880254339427,0.00603871187195,-0.999660730362,0.0237577483058
1608810897905695425,,17780,,1608810897,905327979,"""world""",,,4.58344841003,2.90578866005,0.479268819094,,0.00752485916018,0.00586168188602,-0.999672412872,0.0237533990294
1608810897915666428,,17781,,1608810897,915292153,"""world""",,,4.58343791962,2.9057803154,0.479263603687,,0.00738330604509,0.00600432837382,-0.999673247337,0.0237270519137
1608810897925760585,,17782,,1608810897,925264453,"""world""",,,4.58343791962,2.90579247475,0.47927236557,,0.00732140569016,0.00599058903754,-0.999671220779,0.0238347556442
1608810897935413788,,17783,,1608810897,935250710,"""world""",,,4.5834980011,2.9058368206,0.479366511106,,0.00873153284192,0.00611818721518,-0.999659657478,0.0238119941205
1608810897945530626,,17784,,1608810897,945283039,"""world""",,,4.58349657059,2.90582728386,0.479373306036,,0.00886796135455,0.00589956250042,-0.999659478664,0.0238261558115
1608810897945565169,,17785,,1608810897,945330684,"""world""",,,4.58349323273,2.90583777428,0.479375839233,,0.00880077108741,0.00608101906255,-0.999659478664,0.0238010641187
1608810897955461695,,17786,,1608810897,955285529,"""world""",,,4.58343458176,2.90579748154,0.479278326035,,0.00746244704351,0.00597554724663,-0.999670982361,0.0238020997494
1608810897965465428,,17787,,1608810897,965262054,"""world""",,,4.58343362808,2.90578699112,0.479255378246,,0.00742713315412,0.00594417797402,-0.999671816826,0.0237877648324
1608810897975540720,,17788,,1608810897,975369879,"""world""",,,4.58343696594,2.90578937531,0.479252755642,,0.00738221080974,0.00602055620402,-0.99967199564,0.0237774830312
1608810897975551323,,17789,,1608810897,975413065,"""world""",,,4.58343362808,2.90578651428,0.479262530804,,0.00725042587146,0.00604382809252,-0.999672472477,0.0237912088633
1608810897995530760,,17790,,1608810897,995320378,"""world""",,,4.58343553543,2.90577983856,0.47927314043,,0.00756545225158,0.0059140608646,-0.9996702075,0.0238209348172
1608810898005499248,,17791,,1608810898,5270740,"""world""",,,4.58344268799,2.9057970047,0.479274362326,,0.00731707876548,0.00605249311775,-0.999672174454,0.0237783510238
1608810898005555211,,17792,,1608810898,5322446,"""world""",,,4.58342790604,2.90578842163,0.479263544083,,0.00739806611091,0.00595056917518,-0.999671816826,0.0237962510437
1608810898015467964,,17793,,1608810898,15325233,"""world""",,,4.58344078064,2.90577888489,0.479260712862,,0.00731448968872,0.00597287714481,-0.999671757221,0.0238165482879
1608810898025559551,,17794,,1608810898,25286058,"""world""",,,4.58349609375,2.90583896637,0.479369431734,,0.00879204180092,0.00613015471026,-0.999658942223,0.0238182041794
1608810898035570773,,17795,,1608810898,35295345,"""world""",,,4.58344125748,2.90579128265,0.479261130095,,0.00748626096174,0.00589906144887,-0.999672412872,0.0237558558583
1608810898035655246,,17796,,1608810898,35376415,"""world""",,,4.58349847794,2.90583324432,0.479378372431,,0.00882890727371,0.0059414897114,-0.99965941906,0.0238297898322
1608810898045906217,,17797,,1608810898,45305096,"""world""",,,4.58349323273,2.90583324432,0.479368239641,,0.00892831757665,0.00603042449802,-0.999658703804,0.0238015335053
1608810898055570732,,17798,,1608810898,55305259,"""world""",,,4.58349895477,2.90583968163,0.479374915361,,0.00873798504472,0.00612540589646,-0.999660849571,0.0237575992942
1608810898065570105,,17799,,1608810898,65312621,"""world""",,,4.58344221115,2.90578818321,0.479274719954,,0.00732670165598,0.00602566218004,-0.999672234058,0.0237800255418
1608810898076191182,,17800,,1608810898,75362111,"""world""",,,4.58349609375,2.90584278107,0.479362279177,,0.00869927927852,0.00600708648562,-0.999660611153,0.0238094292581
1608810898076203571,,17801,,1608810898,75404840,"""world""",,,4.58349323273,2.90583729744,0.479369461536,,0.00874564237893,0.00612374441698,-0.999660491943,0.0237700268626
1608810898096274994,,17802,,1608810898,95315489,"""world""",,,4.58343887329,2.90578794479,0.479263722897,,0.00737074390054,0.00590891763568,-0.999672591686,0.023780208081
1608810898096296432,,17803,,1608810898,95359399,"""world""",,,4.58344173431,2.90578269958,0.479269444942,,0.00732783973217,0.00607577105984,-0.999671578407,0.0237939115614
1608810898105522477,,17804,,1608810898,105321817,"""world""",,,4.58344364166,2.90578937531,0.479269474745,,0.00741949910298,0.00596102979034,-0.999671399593,0.0238034036011
1608810898115463345,,17805,,1608810898,115304843,"""world""",,,4.5834980011,2.9058303833,0.479370802641,,0.00876178219914,0.00600105570629,-0.999660909176,0.0237796716392
1608810898145528024,,17806,,1608810898,145287564,"""world""",,,4.58349227905,2.90582823753,0.479379028082,,0.0088903401047,0.00605765916407,-0.99965775013,0.0238475911319
1608810898145756733,,17807,,1608810898,145354708,"""world""",,,4.58343172073,2.90578770638,0.479258447886,,0.00744729954749,0.00599999073893,-0.999672710896,0.0237294789404
1608810898145768195,,17809,,1608810898,145414841,"""world""",,,4.58348798752,2.90582871437,0.479366958141,,0.00889792945236,0.00607892731205,-0.999658048153,0.0238267425448
1608810898158242821,,17810,,1608810898,155293436,"""world""",,,4.58344268799,2.90579080582,0.479266285896,,0.00736141018569,0.00598883675411,-0.999673187733,0.023738771677
1608810898165479477,,17811,,1608810898,165289162,"""world""",,,4.58342981339,2.90579605103,0.479275733232,,0.00734782032669,0.00600952841341,-0.999670922756,0.023830793798
1608810898175497406,,17812,,1608810898,175319344,"""world""",,,4.58343219757,2.90578985214,0.479269504547,,0.00744366273284,0.00596243375912,-0.999672055244,0.0237695910037
1608810898185675230,,17813,,1608810898,185426358,"""world""",,,4.58343601227,2.90579771996,0.479268282652,,0.00737610226497,0.00612346921116,-0.999672412872,0.023734036833
1608810898226699975,,17814,,1608810898,225340562,"""world""",,,4.58343410492,2.90577602386,0.479254931211,,0.00733808334917,0.00595820508897,-0.999671578407,0.023822395131
1608810898226711747,,17815,,1608810898,225577758,"""world""",,,4.58343887329,2.90578079224,0.479268580675,,0.00749443378299,0.00600057560951,-0.999671041965,0.0237841680646
1608810898226749008,,17819,,1608810898,225728074,"""world""",,,4.58349561691,2.90583348274,0.479362368584,,0.00886897277087,0.00610747747123,-0.999657928944,0.0238335058093
1608810898255540445,,17820,,1608810898,255287544,"""world""",,,4.58343315125,2.90579676628,0.479262709618,,0.00744160497561,0.00596108287573,-0.999671578407,0.0237914212048
1608810898258273772,,17821,,1608810898,255398567,"""world""",,,4.58343982697,2.90579748154,0.479264676571,,0.00742730917409,0.00595795316622,-0.999671697617,0.0237862858921
1608810898258488913,,17822,,1608810898,255437770,"""world""",,,4.5834403038,2.90578794479,0.479258149862,,0.00737964874133,0.00600971514359,-0.999671816826,0.0237831231207
1608810898275674427,,17823,,1608810898,275316215,"""world""",,,4.58342266083,2.90579342842,0.479262828827,,0.00730201974511,0.00596969015896,-0.999671578407,0.0238299965858
1608810898275741144,,17824,,1608810898,275417599,"""world""",,,4.58344125748,2.90578532219,0.479263156652,,0.00737506104633,0.00598280411214,-0.999670684338,0.0238419994712
1608810898285637516,,17825,,1608810898,285304150,"""world""",,,4.58343219757,2.90578770638,0.479257255793,,0.00736912386492,0.00592653593048,-0.999673247337,0.0237520579249
1608810898285650989,,17826,,1608810898,285346939,"""world""",,,4.58342838287,2.90578794479,0.479266673326,,0.00729155074805,0.00607147300616,-0.999672710896,0.0237613264471
1608810898295470616,,17827,,1608810898,295290623,"""world""",,,4.58343458176,2.9057841301,0.479269355536,,0.00719203706831,0.00609285756946,-0.999672830105,0.0237760785967
1608810898306690860,,17828,,1608810898,305350902,"""world""",,,4.58343839645,2.90579605103,0.479258060455,,0.00733475433663,0.00601442577317,-0.999671161175,0.0238233823329
1608810898325606719,,17829,,1608810898,325306971,"""world""",,,4.58343696594,2.90578579903,0.479267388582,,0.0074248034507,0.00603049667552,-0.999670922756,0.0238054133952
1608810898325624140,,17830,,1608810898,325389380,"""world""",,,4.58343791962,2.90579724312,0.47926607728,,0.00732516078278,0.00602109543979,-0.999672591686,0.0237689744681
1608810898340747690,,17831,,1608810898,335351631,"""world""",,,4.58343935013,2.90579581261,0.47925645113,,0.00737031176686,0.00590091757476,-0.999673128128,0.0237621348351
1608810898340815027,,17832,,1608810898,335397003,"""world""",,,4.5834403038,2.90578198433,0.479259520769,,0.00727508449927,0.00600058026612,-0.999672949314,0.0237747654319
1608810898345678558,,17833,,1608810898,345310958,"""world""",,,4.58344125748,2.9057970047,0.479247182608,,0.00732856523246,0.00597223080695,-0.999674320221,0.0237068030983
1608810898356313985,,17834,,1608810898,355399109,"""world""",,,4.58343887329,2.90577983856,0.479258298874,,0.00747094769031,0.00595797225833,-0.999672293663,0.0237478986382
1608810898365621608,,17835,,1608810898,365311834,"""world""",,,4.58342647552,2.90579342842,0.479258298874,,0.00748277129605,0.00594166619703,-0.999671041965,0.0238026045263
1608810898379926316,,17836,,1608810898,375313966,"""world""",,,4.58343505859,2.9057738781,0.47925132513,,0.00745486700907,0.00597867881879,-0.9996727705,0.0237290970981
1608810898379962184,,17837,,1608810898,375357707,"""world""",,,4.58342647552,2.90578770638,0.479252249002,,0.00732260849327,0.0060845669359,-0.99967110157,0.023814426735
1608810898387745017,,17838,,1608810898,385303086,"""world""",,,4.58342504501,2.90577626228,0.479255765676,,0.00730452081189,0.00608655950055,-0.999670982361,0.0238248351961
1608810898405526211,,17839,,1608810898,405315665,"""world""",,,4.58349132538,2.90583586693,0.479366093874,,0.00870702695101,0.00617955205962,-0.999657332897,0.0238994695246
1608810898405611952,,17840,,1608810898,405390209,"""world""",,,4.58343505859,2.90579199791,0.479254454374,,0.00734686292708,0.00598565395921,-0.999674022198,0.0237108543515
1608810898425654876,,17841,,1608810898,425308816,"""world""",,,4.58343696594,2.90578174591,0.479264944792,,0.0072495858185,0.00608906894922,-0.999671757221,0.0238064937294
1608810898435625955,,17842,,1608810898,435277956,"""world""",,,4.58344078064,2.90579104424,0.479260146618,,0.00744224572554,0.00599574390799,-0.999671280384,0.0237937513739
1608810898435752362,,17843,,1608810898,435308204,"""world""",,,4.58343553543,2.90577983856,0.479256600142,,0.00738920923322,0.00598788866773,-0.999672234058,0.0237691700459
1608810898446475475,,17844,,1608810898,445367933,"""world""",,,4.58342933655,2.90577840805,0.479250073433,,0.00737223820761,0.00603251997381,-0.999672889709,0.023734357208
1608810898446540675,,17845,,1608810898,445454936,"""world""",,,4.5834312439,2.90577220917,0.479265779257,,0.00734840380028,0.00601434102282,-0.999671936035,0.0237881802022
1608810898455648011,,17846,,1608810898,455372756,"""world""",,,4.58343410492,2.90578794479,0.479251682758,,0.00729423621669,0.00605792133138,-0.99967032671,0.023863364011
1608810898475634738,,17847,,1608810898,475332533,"""world""",,,4.58349609375,2.90582990646,0.479365259409,,0.00883224327117,0.00605979608372,-0.999659240246,0.0238047018647
1608810898485690192,,17848,,1608810898,485297211,"""world""",,,4.58342313766,2.90577983856,0.479271829128,,0.00726674683392,0.00602225121111,-0.999672412872,0.0237909387797
1608810898485732481,,17849,,1608810898,485388321,"""world""",,,4.58343458176,2.90577769279,0.479260057211,,0.00735042523593,0.00609914818779,-0.999673008919,0.0237234737724
1608810898495898045,,17850,,1608810898,495291922,"""world""",,,4.58344078064,2.90579032898,0.479265987873,,0.00741478335112,0.00596633320674,-0.999671757221,0.0237878710032
1608810898496045844,,17851,,1608810898,495368805,"""world""",,,4.58343935013,2.90577554703,0.479255020618,,0.00739009166136,0.00596964359283,-0.999669909477,0.0238719340414
1608810898515651939,,17852,,1608810898,515315654,"""world""",,,4.58349752426,2.90584897995,0.479362517595,,0.00878854934126,0.00606157444417,-0.999657332897,0.0239004418254
1608810898515700361,,17853,,1608810898,515409452,"""world""",,,4.58349561691,2.90583872795,0.479365766048,,0.00873594265431,0.00604979181662,-0.999659895897,0.0238155443221
1608810898535593783,,17854,,1608810898,535318754,"""world""",,,4.58348846436,2.90584278107,0.47936680913,,0.0087628364563,0.00606563454494,-0.99965929985,0.0238269623369
1608810898535781931,,17855,,1608810898,535417816,"""world""",,,4.58343744278,2.90577411652,0.479256182909,,0.00730878440663,0.00607296032831,-0.999672949314,0.0237419996411
1608810898535805676,,17856,,1608810898,535459861,"""world""",,,4.58343553543,2.90578055382,0.479267269373,,0.00736563606188,0.00601525930688,-0.999671220779,0.0238156020641
1608810898545663139,,17857,,1608810898,545309319,"""world""",,,4.58343553543,2.90577936172,0.479268461466,,0.00741024501622,0.00603599753231,-0.999670684338,0.0238184668124
1608810898555720756,,17858,,1608810898,555314329,"""world""",,,4.58344268799,2.90578722954,0.479249566793,,0.00734674185514,0.00598253728822,-0.99967199564,0.0237942803651
1608810898555747921,,17859,,1608810898,555414225,"""world""",,,4.58343505859,2.90578484535,0.479249596596,,0.00737384986132,0.00593959493563,-0.999671041965,0.023839328438
1608810898566481095,,17860,,1608810898,566242645,"""world""",,,4.58343505859,2.90578866005,0.47926029563,,0.0074037509039,0.00603475933895,-0.999671816826,0.0237729623914
1608810898585745256,,17861,,1608810898,585309947,"""world""",,,4.58343553543,2.90577673912,0.479270666838,,0.00733476597816,0.00597506668419,-0.999671816826,0.0238077063113
1608810898585943461,,17862,,1608810898,585395074,"""world""",,,4.5834274292,2.90578246117,0.479251086712,,0.00742443976924,0.00597014371306,-0.999671876431,0.0237789712846
1608810898710625964,,17863,,1608810898,710243157,"""world""",,,4.58343887329,2.90578746796,0.479254633188,,0.00729005550966,0.00594864645973,-0.999672353268,0.0238044261932
1608810898721847679,,17864,,1608810898,715420463,"""world""",,,4.58342599869,2.90578150749,0.479257881641,,0.00740709900856,0.00591214280576,-0.999671280384,0.023825917393
1608810898721852117,,17865,,1608810898,715534941,"""world""",,,4.58342790604,2.90576696396,0.479249805212,,0.00731289992109,0.00589964538813,-0.999674677849,0.0237148888409
1608810898721856630,,17866,,1608810898,715584835,"""world""",,,4.58344173431,2.90578198433,0.479260772467,,0.00747110974044,0.0059427334927,-0.999671936035,0.0237709637731
1608810898721862128,,17867,,1608810898,715674817,"""world""",,,4.58343744278,2.905772686,0.479248076677,,0.00734160561115,0.00594777707011,-0.999671280384,0.0238323137164
1608810898721866972,,17868,,1608810898,715729556,"""world""",,,4.58342790604,2.90578317642,0.479251861572,,0.00744142848998,0.00604662997648,-0.999671041965,0.0237882193178
1608810898721872166,,17869,,1608810898,715874609,"""world""",,,4.58342885971,2.905772686,0.479258745909,,0.00739138200879,0.0060303658247,-0.999670028687,0.0238529536873
1608810898736669951,,17870,,1608810898,725819559,"""world""",,,4.58347845078,2.90583252907,0.479368567467,,0.00890208501369,0.00601613055915,-0.999657332897,0.0238714758307
1608810898736810456,,17878,,1608810898,726271052,"""world""",,,4.58347845078,2.90583705902,0.479333281517,,0.00810021720827,0.00521749723703,-0.999664187431,0.0240546558052
1608810898747435258,,17879,,1608810898,745329023,"""world""",,,4.58343219757,2.90577983856,0.479256719351,,0.00743005750701,0.00587715860456,-0.999672412872,0.023777006194
1608810898747454129,,17880,,1608810898,745380617,"""world""",,,4.58348226547,2.90583372116,0.47936719656,,0.0087858736515,0.00613633077592,-0.999660551548,0.0237501449883
1608810898755728930,,17881,,1608810898,755326475,"""world""",,,4.58343315125,2.90578889847,0.479266345501,,0.00743485148996,0.00600188365206,-0.999672174454,0.0237563382834
1608810898755752627,,17882,,1608810898,755426977,"""world""",,,4.58342790604,2.90577530861,0.479256749153,,0.00746260862797,0.00589055661112,-0.999672949314,0.0237435139716
1608810898765671497,,17883,,1608810898,765295400,"""world""",,,4.58342981339,2.90577793121,0.479265600443,,0.00742236338556,0.00591256143525,-0.999672114849,0.0237837284803
1608810898765720526,,17884,,1608810898,765405806,"""world""",,,4.58342599869,2.90578532219,0.479258298874,,0.00735188322142,0.00607048161328,-0.999671578407,0.0237897150218
1608810898785564248,,17885,,1608810898,785295872,"""world""",,,4.58348226547,2.90583753586,0.479326874018,,0.00811459310353,0.00520569272339,-0.999666571617,0.0239567570388
1608810898785595666,,17886,,1608810898,785360968,"""world""",,,4.58342790604,2.90578722954,0.479268908501,,0.0074018239975,0.00607748189941,-0.999670922756,0.0237969700247
1608810898795497595,,17887,,1608810898,795278889,"""world""",,,4.58342552185,2.90577411652,0.479263186455,,0.00734021142125,0.00600960664451,-0.9996727705,0.0237568821758
1608810898805472455,,17888,,1608810898,805294549,"""world""",,,4.58343219757,2.90578436852,0.479265868664,,0.00735215842724,0.00606795260683,-0.999673783779,0.0236939042807
1608810898815436522,,17889,,1608810898,815265898,"""world""",,,4.58343410492,2.90579223633,0.479259818792,,0.00742308748886,0.00605185562745,-0.999673247337,0.0237023383379
1608810898815505010,,17890,,1608810898,815356461,"""world""",,,4.58343029022,2.90578818321,0.479262381792,,0.00739134056494,0.00608320534229,-0.999671399593,0.0237790234387
1608810898825402502,,17891,,1608810898,825263519,"""world""",,,4.58343219757,2.90578126907,0.479264646769,,0.00733779696748,0.00599134480581,-0.999672830105,0.0237633083016
1608810898855619470,,17892,,1608810898,855355150,"""world""",,,4.58342599869,2.90578174591,0.479266941547,,0.00750246783718,0.00593302538618,-0.999670505524,0.0238208249211
1608810898926732068,,17893,,1608810898,925507490,"""world""",,,4.58342456818,2.90578603745,0.479279279709,,0.00744719523937,0.00596012268215,-0.999670803547,0.0238213371485
1608810898926893997,,17894,,1608810898,925542333,"""world""",,,4.58342790604,2.9057765007,0.479275643826,,0.00739083392546,0.00593647686765,-0.999670147896,0.0238701384515
1608810898926916217,,17895,,1608810898,925652891,"""world""",,,4.58343601227,2.9057803154,0.479269266129,,0.00741050904617,0.00597114674747,-0.999672234058,0.0237687155604
1608810898926941911,,17897,,1608810898,925715578,"""world""",,,4.58343267441,2.90577530861,0.479267537594,,0.00750884413719,0.00594191905111,-0.999671161175,0.0237920284271
1608810898926967651,,17898,,1608810898,925800521,"""world""",,,4.58343601227,2.90578389168,0.479269176722,,0.00744599942118,0.00596361653879,-0.999672293663,0.0237556584179
1608810898927010500,,17900,,1608810898,925861647,"""world""",,,4.58343362808,2.90576958656,0.479268193245,,0.00726270629093,0.00608024559915,-0.999673724174,0.0237262733281
1608810898927063391,,17901,,1608810898,925996746,"""world""",,,4.58343029022,2.90579319,0.479270547628,,0.00746143516153,0.00587677769363,-0.999670863152,0.0238341093063
1608810898927139099,,17902,,1608810898,926108174,"""world""",,,4.58342647552,2.90577220917,0.479269772768,,0.00734522379935,0.00597969163209,-0.999673187733,0.0237464532256
1608810898945569388,,17903,,1608810898,945323889,"""world""",,,4.58343553543,2.90578126907,0.479275226593,,0.00731637747958,0.00603018235415,-0.999673962593,0.0237093959004
1608810898945742442,,17904,,1608810898,945399284,"""world""",,,4.58343839645,2.90577626228,0.479268431664,,0.00723051186651,0.00608274945989,-0.999673366547,0.0237496513873
1608810898955759002,,17905,,1608810898,955322003,"""world""",,,4.58343553543,2.90578079224,0.47927570343,,0.00750105082989,0.00599252292886,-0.999670445919,0.0238118991256
1608810898955779413,,17906,,1608810898,955414577,"""world""",,,4.58342838287,2.90578007698,0.479258626699,,0.00758588686585,0.00587461097166,-0.999670803547,0.0237970799208
1608810898965599373,,17907,,1608810898,965315061,"""world""",,,4.5834312439,2.90579128265,0.479267269373,,0.00736467493698,0.0060021658428,-0.9996727705,0.0237524341792
1608810898975649540,,17908,,1608810898,975304611,"""world""",,,4.58343410492,2.90579080582,0.479261487722,,0.00744259078056,0.00596185401082,-0.999672412872,0.0237545389682
1608810898975666563,,17909,,1608810898,975396747,"""world""",,,4.58343935013,2.905772686,0.479276001453,,0.00734043028206,0.00595941906795,-0.999670088291,0.0238820947707
1608810898995568099,,17910,,1608810898,995285872,"""world""",,,4.58342981339,2.90578722954,0.479271531105,,0.00733797252178,0.00602121185511,-0.999672472477,0.0237671397626
1608810898995666344,,17911,,1608810898,995314510,"""world""",,,4.58342647552,2.90578103065,0.479267627001,,0.00745182298124,0.00592235289514,-0.999671220779,0.0238079670817
1608810899005623519,,17912,,1608810899,5306970,"""world""",,,4.58347082138,2.90584087372,0.479349881411,,0.00810013432056,0.00528146512806,-0.999664247036,0.0240429788828
1608810899015764369,,17913,,1608810899,15357072,"""world""",,,4.5834274292,2.9057662487,0.479272991419,,0.00730091100559,0.00608476996422,-0.999671518803,0.0238037724048
1608810899025653292,,17914,,1608810899,25382401,"""world""",,,4.58342838287,2.905782938,0.479269206524,,0.00741941248998,0.00603903178126,-0.999671459198,0.0237821415067
1608810899036526710,,17915,,1608810899,35309840,"""world""",,,4.58344221115,2.90579748154,0.479284614325,,0.00726545089856,0.0059517044574,-0.999673724174,0.023754639551
1608810899036544910,,17916,,1608810899,35587744,"""world""",,,4.58342790604,2.90576815605,0.479273349047,,0.00745414383709,0.00593349849805,-0.999671936035,0.023775909096
1608810899055533709,,17917,,1608810899,55279891,"""world""",,,4.58342933655,2.90577578545,0.479275166988,,0.00751371914521,0.00585655728355,-0.9996702075,0.023848252371
1608810899055914083,,17918,,1608810899,55355233,"""world""",,,4.58342885971,2.90577030182,0.479286521673,,0.00736606586725,0.00603213487193,-0.999672234058,0.0237694643438
1608810899055958241,,17919,,1608810899,55392979,"""world""",,,4.58342266083,2.90577578545,0.479262769222,,0.00744177820161,0.00586474174634,-0.999671638012,0.0238097775728
1608810899065909653,,17920,,1608810899,65290798,"""world""",,,4.58342599869,2.90578174591,0.479267090559,,0.00745891407132,0.00590261630714,-0.99967032671,0.0238491743803
1608810899075543785,,17921,,1608810899,75317135,"""world""",,,4.58342218399,2.90576887131,0.479272186756,,0.00741927139461,0.00588057562709,-0.99967110157,0.0238353349268
1608810899085652105,,17922,,1608810899,85318185,"""world""",,,4.58343219757,2.90578079224,0.479273915291,,0.00752060580999,0.00602845894173,-0.999671161175,0.0237630326301
1608810899115869101,,17923,,1608810899,115425522,"""world""",,,4.58341884613,2.90578508377,0.479268044233,,0.00744980340824,0.00603803060949,-0.999669909477,0.0238367803395
1608810899115898232,,17924,,1608810899,115462739,"""world""",,,4.58343410492,2.90577411652,0.47927737236,,0.00737630948424,0.00606795353815,-0.999671459198,0.0237846598029
1608810899115948798,,17925,,1608810899,115603665,"""world""",,,4.58346843719,2.90583777428,0.479353696108,,0.0082573434338,0.00522526167333,-0.999662995338,0.0240531694144
1608810899126112712,,17926,,1608810899,125321789,"""world""",,,4.58345746994,2.90582799911,0.479332029819,,0.00798697117716,0.00540879555047,-0.999664306641,0.0240477323532
1608810899387182847,,17927,,1608810899,385311838,"""world""",,,4.58343696594,2.90579104424,0.479271113873,,0.00739950407296,0.00602830480784,-0.999670147896,0.0238447207958
1608810899387219589,,17956,,1608810899,386255425,"""world""",,,4.58342933655,2.90577483177,0.479274302721,,0.00741583062336,0.0060595064424,-0.999672353268,0.0237408000976
1608810899455677094,,17957,,1608810899,455308046,"""world""",,,4.58343553543,2.90577745438,0.479268282652,,0.00730007747188,0.00619642995298,-0.999670147896,0.0238327141851
1608810899456313073,,17958,,1608810899,455614746,"""world""",,,4.58343887329,2.90578126907,0.479266941547,,0.00739125115797,0.00600439403206,-0.999671578407,0.0237928982824
1608810899456328101,,17965,,1608810899,455894886,"""world""",,,4.58344125748,2.90578603745,0.479282259941,,0.00727938488126,0.00620339764282,-0.999671041965,0.0237965546548
1608810899466499331,,17966,,1608810899,465341012,"""world""",,,4.58343744278,2.90578532219,0.479278624058,,0.00740963313729,0.00615967670456,-0.999671697617,0.0237412676215
1608810899466513775,,17967,,1608810899,465384403,"""world""",,,4.58346700668,2.90584373474,0.479337096214,,0.00813325680792,0.0053563141264,-0.999664545059,0.0240018013865
1608810899476043274,,17968,,1608810899,475308064,"""world""",,,4.58349561691,2.90583515167,0.479377150536,,0.0088152103126,0.00613213144243,-0.999660253525,0.0237529054284
1608810899510829682,,17969,,1608810899,505408324,"""world""",,,4.58343458176,2.9057867527,0.479276120663,,0.00740949157625,0.00597760966048,-0.999671816826,0.0237839911133
1608810899510937764,,17970,,1608810899,505505826,"""world""",,,4.58343887329,2.90578269958,0.479279458523,,0.00743070011958,0.00605366239324,-0.999671280384,0.0237793549895
1608810899510958429,,17972,,1608810899,505586444,"""world""",,,4.58349466324,2.90583086014,0.479380130768,,0.00871084630489,0.00612269854173,-0.99965929985,0.0238341987133
1608810899510977739,,17973,,1608810899,505670617,"""world""",,,4.5834403038,2.90578937531,0.479267984629,,0.00733226910233,0.00610296381637,-0.999672174454,0.0237591378391
1608810899525889558,,17974,,1608810899,525325708,"""world""",,,4.58342790604,2.90578842163,0.479273021221,,0.00737073644996,0.006111422088,-0.999671339989,0.0237823165953
1608810899525917579,,17975,,1608810899,525373657,"""world""",,,4.58347415924,2.90583777428,0.479347586632,,0.00805982854217,0.00540692266077,-0.999663233757,0.0240690652281
1608810899545611951,,17976,,1608810899,545318543,"""world""",,,4.58348655701,2.9058368206,0.479367464781,,0.00892304629087,0.0060087214224,-0.999658942223,0.0237989351153
1608810899555809407,,17977,,1608810899,555293760,"""world""",,,4.58344268799,2.90577864647,0.479275047779,,0.00735529419035,0.00607578642666,-0.99967199564,0.0237688627094
1608810899555878462,,17978,,1608810899,555369120,"""world""",,,4.58348608017,2.90584373474,0.479367613792,,0.00873141176999,0.00612888671458,-0.999658346176,0.0238646157086
1608810899566855964,,17979,,1608810899,565412185,"""world""",,,4.5834312439,2.90578937531,0.479272574186,,0.00743422936648,0.00613863952458,-0.999672114849,0.0237256195396
1608810899615503284,,17980,,1608810899,615295575,"""world""",,,4.5834403038,2.90579223633,0.479277580976,,0.00731254089624,0.00616323156282,-0.999671638012,0.0237776841968
1608810899615544331,,17981,,1608810899,615355754,"""world""",,,4.58343744278,2.90579748154,0.479259967804,,0.00731174414977,0.00608416832983,-0.999673306942,0.0237254854292
1608810899675993573,,17982,,1608810899,675299551,"""world""",,,4.58343982697,2.90578746796,0.479283034801,,0.00738782156259,0.00610134098679,-0.999670743942,0.0238018743694
1608810899676001867,,17992,,1608810899,675516036,"""world""",,,4.58344316483,2.9058098793,0.47926813364,,0.00750751886517,0.005916969385,-0.999670386314,0.0238274354488
1608810899695754461,,17993,,1608810899,695272352,"""world""",,,4.58343172073,2.9057970047,0.479270786047,,0.00746624683961,0.00585805997252,-0.999672472477,0.0237701330334
1608810899695769940,,17995,,1608810899,695321222,"""world""",,,4.58343267441,2.90579104424,0.47927621007,,0.00733181647956,0.00604136101902,-0.999672412872,0.023765552789
1608810899706007659,,17996,,1608810899,705293901,"""world""",,,4.58343553543,2.9057905674,0.479269266129,,0.00746275577694,0.00606038141996,-0.999669909477,0.023827938363
1608810899706011546,,17997,,1608810899,705320751,"""world""",,,4.58344268799,2.90579175949,0.479275286198,,0.00734926015139,0.00601419759914,-0.999671936035,0.0237887706608
1608810899715470080,,17998,,1608810899,715280971,"""world""",,,4.58343887329,2.90578913689,0.479280203581,,0.00735165178776,0.00603078259155,-0.999672591686,0.0237572733313
1608810899725595218,,17999,,1608810899,725285610,"""world""",,,4.58343982697,2.90579915047,0.479281693697,,0.00733191845939,0.00615550810471,-0.999671459198,0.0237756036222
1608810899735449091,,18000,,1608810899,735296588,"""world""",,,4.58344507217,2.90580916405,0.479272961617,,0.0073584956117,0.00608606822789,-0.999670386314,0.0238331239671
1608810899745467257,,18001,,1608810899,745304475,"""world""",,,4.58344078064,2.90578746796,0.479268729687,,0.00735243922099,0.00608041975647,-0.999670863152,0.0238139554858
1608810899765411778,,18002,,1608810899,765262041,"""world""",,,4.58347463608,2.90584778786,0.47934871912,,0.00817960407585,0.00530653446913,-0.999664247036,0.0240066479892
1608810899765448695,,18003,,1608810899,765307583,"""world""",,,4.58346939087,2.90584206581,0.479336798191,,0.00811050273478,0.00525005348027,-0.999665558338,0.0239904467016
1608810899765463625,,18004,,1608810899,765327467,"""world""",,,4.58343887329,2.90578246117,0.479287981987,,0.00741204898804,0.00605632178485,-0.999671757221,0.0237682498991
1608810899776873654,,18005,,1608810899,775716996,"""world""",,,4.58343744278,2.90578842163,0.479276925325,,0.00737774558365,0.00596718490124,-0.999671757221,0.0237984731793
1608810899806255287,,18006,,1608810899,806035916,"""world""",,,4.58343791962,2.90579819679,0.479269862175,,0.00748726679012,0.00600496027619,-0.999672174454,0.0237383618951
1608810899806463589,,18007,,1608810899,806098759,"""world""",,,4.58350038528,2.90583992004,0.479378521442,,0.00887448061258,0.00607068324462,-0.999657571316,0.023858467117
1608810899815627400,,18008,,1608810899,815283615,"""world""",,,4.58348894119,2.90583324432,0.479373306036,,0.00877065397799,0.00614635134116,-0.999660909176,0.0237361993641
1608810899815634141,,18009,,1608810899,815342695,"""world""",,,4.58344268799,2.90579891205,0.47927609086,,0.00757844699547,0.00605971598998,-0.999671339989,0.02373245731
1608810899825486725,,18010,,1608810899,825274327,"""world""",,,4.58343410492,2.90579867363,0.479278415442,,0.00745007768273,0.00601227860898,-0.999671041965,0.0237971507013
1608810899835441304,,18011,,1608810899,835258256,"""world""",,,4.58344364166,2.90580296516,0.479271262884,,0.00743240071461,0.00597157375887,-0.999672412872,0.0237550046295
1608810899835467637,,18012,,1608810899,835332926,"""world""",,,4.58347511292,2.90584039688,0.479330837727,,0.00819595064968,0.00519477715716,-0.99966531992,0.023982109502
1608810899845454377,,18013,,1608810899,845269410,"""world""",,,4.58343172073,2.90579652786,0.479273527861,,0.00749706290662,0.0058960551396,-0.999672174454,0.0237644873559
1608810899855513661,,18014,,1608810899,855329510,"""world""",,,4.58344697952,2.90579891205,0.479278326035,,0.00742595689371,0.00599728757516,-0.999671399593,0.0237917844206
1608810899875528030,,18015,,1608810899,875273523,"""world""",,,4.58344507217,2.90579652786,0.479271352291,,0.00739374058321,0.00605051871389,-0.999672174454,0.0237540435046
1608810899875713971,,18016,,1608810899,875318320,"""world""",,,4.58344650269,2.90580940247,0.479271024466,,0.00751067232341,0.00601409282535,-0.999672174454,0.0237289443612
1608810899875864959,,18017,,1608810899,875339580,"""world""",,,4.5834479332,2.90581083298,0.47927492857,,0.00740571180359,0.00597976054996,-0.999671518803,0.0237983800471
1608810899885559933,,18018,,1608810899,885373024,"""world""",,,4.58349561691,2.905834198,0.479374706745,,0.00881382357329,0.00601868983358,-0.999660313129,0.0237796846777
1608810899905542137,,18019,,1608810899,905283026,"""world""",,,4.58344078064,2.90579247475,0.47927108407,,0.00758036598563,0.00596324587241,-0.999669849873,0.0238154120743
1608810899905582266,,18020,,1608810899,905305413,"""world""",,,4.58344650269,2.90579319,0.479283332825,,0.00744912447408,0.00595409516245,-0.999672532082,0.0237460304052
1608810899916154123,,18021,,1608810899,915712609,"""world""",,,4.58343982697,2.90579366684,0.479277044535,,0.00747910281643,0.00595082109794,-0.999671876431,0.0237685050815
1608810899916232843,,18022,,1608810899,915736181,"""world""",,,4.58344936371,2.90577673912,0.479278802872,,0.00741935614496,0.00596730364487,-0.999672591686,0.0237520653754
1608810899935565467,,18023,,1608810899,935274998,"""world""",,,4.58343696594,2.90579462051,0.479275912046,,0.00750740524381,0.00581299047917,-0.999672234058,0.0237747989595
1608810899935578930,,18024,,1608810899,935297791,"""world""",,,4.58343601227,2.90578579903,0.479274153709,,0.0073775453493,0.00597177352756,-0.999672591686,0.0237623304129
1608810899965444946,,18025,,1608810899,965265382,"""world""",,,4.58343982697,2.90578842163,0.479268044233,,0.00747129414231,0.00596835417673,-0.999672055244,0.0237568598241
1608810899965451622,,18026,,1608810899,965327226,"""world""",,,4.58343744278,2.90580248833,0.479274570942,,0.00733413780108,0.0060005504638,-0.999670267105,0.0238652490079
1608810899965459389,,18027,,1608810899,965346824,"""world""",,,4.58343982697,2.90578436852,0.479275554419,,0.00750798825175,0.00593824870884,-0.999672055244,0.0237517729402
1608810899995412424,,18028,,1608810899,995259868,"""world""",,,4.58349180222,2.9058368206,0.479372143745,,0.0088098635897,0.00609364779666,-0.999658405781,0.0238399039954
1608810899995444959,,18029,,1608810899,995300694,"""world""",,,4.58343744278,2.90578436852,0.479264348745,,0.0074209747836,0.0059011420235,-0.999672055244,0.0237895045429
1608810899995488472,,18030,,1608810899,995319154,"""world""",,,4.58344125748,2.90578460693,0.479279279709,,0.00746882008389,0.00591259403154,-0.999673366547,0.0237140040845
1608810900005512621,,18031,,1608810900,5258882,"""world""",,,4.58343887329,2.90579867363,0.479267269373,,0.00739045022056,0.00601312099025,-0.999672234058,0.0237614009529
1608810900005520276,,18032,,1608810900,5303938,"""world""",,,4.58343553543,2.90578722954,0.479278713465,,0.00733905937523,0.00613055750728,-0.99967110157,0.0237963534892
1608810900015417671,,18033,,1608810900,15254596,"""world""",,,4.58350133896,2.90584015846,0.479379475117,,0.00893322564662,0.00607931893319,-0.999658226967,0.0238056220114
1608810900025443272,,18034,,1608810900,25274974,"""world""",,,4.58344221115,2.90577411652,0.47927454114,,0.0074220825918,0.00606732070446,-0.999671816826,0.023757122457
1608810900045390799,,18035,,1608810900,45269713,"""world""",,,4.58344554901,2.90579032898,0.479269355536,,0.00735739199445,0.0060390685685,-0.999670922756,0.0238217934966
1608810900045528481,,18036,,1608810900,45329562,"""world""",,,4.58349514008,2.90584206581,0.479385942221,,0.00885541178286,0.00618474883959,-0.999656975269,0.0238607097417
1608810900045537387,,18037,,1608810900,45351523,"""world""",,,4.58344364166,2.90578508377,0.479272663593,,0.0074419984594,0.00608706986532,-0.999670088291,0.0238180048764
1608810900055728779,,18038,,1608810900,55561752,"""world""",,,4.58349370956,2.90584754944,0.479369908571,,0.00889479834586,0.00615353602916,-0.999659121037,0.0237649604678
1608810900065402961,,18039,,1608810900,65261004,"""world""",,,4.58344268799,2.90578460693,0.479268968105,,0.00729497335851,0.00611776160076,-0.99967199564,0.0237778425217
1608810900065441509,,18040,,1608810900,65338454,"""world""",,,4.58344078064,2.90580296516,0.479268431664,,0.0074877794832,0.00598894618452,-0.999670028687,0.023831313476
1608810900085382795,,18041,,1608810900,85255722,"""world""",,,4.58346986771,2.90585708618,0.479333907366,,0.00824061501771,0.00525771407411,-0.999664068222,0.024006780237
1608810900095651041,,18042,,1608810900,95416467,"""world""",,,4.58343887329,2.90578842163,0.479257822037,,0.00745582999662,0.00599808990955,-0.99967199564,0.0237567890435
1608810900095684288,,18043,,1608810900,95434304,"""world""",,,4.58343696594,2.90578842163,0.479271918535,,0.0074476939626,0.00606916751713,-0.999671339989,0.0237669032067
1608810900125741338,,18044,,1608810900,125267227,"""world""",,,4.58344221115,2.90579771996,0.479254961014,,0.00738952541724,0.00607021525502,-0.999673068523,0.0237161386758
1608810900125750817,,18045,,1608810900,125314737,"""world""",,,4.58349514008,2.90584254265,0.479377061129,,0.00880903098732,0.00623683258891,-0.99965852499,0.0237992219627
1608810900125781705,,18046,,1608810900,125340262,"""world""",,,4.58344078064,2.90579652786,0.479258149862,,0.00754295196384,0.00590652273968,-0.999671638012,0.0237689875066
1608810900135783510,,18047,,1608810900,135302309,"""world""",,,4.58350372314,2.90583920479,0.479390740395,,0.00881443358958,0.00616956222802,-0.999658703804,0.0238064229488
1608810900145541475,,18048,,1608810900,145278594,"""world""",,,4.58343839645,2.90579032898,0.479269355536,,0.00746894348413,0.00602482166141,-0.999671638012,0.0237596668303
1608810900145547878,,18049,,1608810900,145333764,"""world""",,,4.58348941803,2.90585398674,0.479366213083,,0.00897165481001,0.00605706125498,-0.999658226967,0.0237984098494
1608810900165538686,,18050,,1608810900,165303653,"""world""",,,4.58349514008,2.90584826469,0.479373395443,,0.00882550701499,0.00621075974777,-0.999657869339,0.0238289963454
1608810900205730615,,18051,,1608810900,205365979,"""world""",,,4.58342981339,2.90579199791,0.479258865118,,0.00753705902025,0.00596956722438,-0.999672651291,0.0237111989409
1608810900206101797,,18052,,1608810900,205470583,"""world""",,,4.58344459534,2.90580749512,0.479255825281,,0.0074669662863,0.00606928998604,-0.99967110157,0.023775678128
1608810900206260868,,18055,,1608810900,205617259,"""world""",,,4.58344554901,2.90579271317,0.479264050722,,0.00741243502125,0.0059557473287,-0.999674379826,0.0236795768142
1608810900285535525,,18056,,1608810900,285295616,"""world""",,,4.58344554901,2.90579628944,0.479269087315,,0.00733580207452,0.0060475547798,-0.999672412872,0.0237658452243
1608810900295587469,,18057,,1608810900,295260125,"""world""",,,4.5834441185,2.90579342842,0.479264765978,,0.00745016662404,0.00597271416336,-0.999672293663,0.023754062131
1608810900295910431,,18058,,1608810900,295309621,"""world""",,,4.58343887329,2.90580201149,0.479260206223,,0.00746710831299,0.00605333922431,-0.999671876431,0.0237462129444
1608810900295995740,,18060,,1608810900,295343002,"""world""",,,4.58344221115,2.90578961372,0.479269593954,,0.0074647301808,0.00594699988142,-0.999670565128,0.0238284096122
1608810900305513009,,18061,,1608810900,305276144,"""world""",,,4.58350133896,2.90584015846,0.479371756315,,0.0089691998437,0.00605344492942,-0.999659240246,0.0237573087215
1608810900305805349,,18062,,1608810900,305422897,"""world""",,,4.58343458176,2.90579271317,0.479269564152,,0.00753923645243,0.00594215933233,-0.999671280384,0.0237763840705
1608810900305813405,,18066,,1608810900,305506421,"""world""",,,4.58343601227,2.90578889847,0.479274809361,,0.00751650845632,0.00595478061587,-0.999670505524,0.0238100085407
1608810900315503355,,18067,,1608810900,315262755,"""world""",,,4.58344888687,2.90579319,0.479269295931,,0.00742260273546,0.00611326284707,-0.999672591686,0.0237116962671
1608810900345661456,,18068,,1608810900,345268480,"""world""",,,4.58345031738,2.90578484535,0.479259163141,,0.00748531334102,0.00602498790249,-0.999671757221,0.0237511005253
1608810900345667812,,18069,,1608810900,345331757,"""world""",,,4.58343791962,2.90579915047,0.479276508093,,0.00748927239329,0.00604806328192,-0.999670565128,0.0237932093441
1608810900345674837,,18070,,1608810900,345450182,"""world""",,,4.58344125748,2.90579366684,0.479270607233,,0.00755781214684,0.00603620475158,-0.999670982361,0.0237574279308
1608810900345678360,,18073,,1608810900,345527866,"""world""",,,4.58344221115,2.90579319,0.479275256395,,0.00739148724824,0.0060478290543,-0.999672174454,0.0237552821636
1608810900355429074,,18074,,1608810900,355274805,"""world""",,,4.58344459534,2.90580511093,0.479269534349,,0.00743881380185,0.00612222170457,-0.999671876431,0.0237370412797
1608810900365393858,,18075,,1608810900,365260556,"""world""",,,4.58344221115,2.90577816963,0.479263335466,,0.00731241796166,0.00612413603812,-0.999669730663,0.0238664746284
1608810900396399669,,18076,,1608810900,395335556,"""world""",,,4.58350133896,2.90584945679,0.479372560978,,0.008794631809,0.00613967841491,-0.999657392502,0.0238801632077
1608810900396457138,,18079,,1608810900,395397271,"""world""",,,4.58344316483,2.90578532219,0.479269713163,,0.0073955655098,0.0061420048587,-0.999671459198,0.0237619001418
1608810900405493136,,18080,,1608810900,405253268,"""world""",,,4.5834403038,2.90578508377,0.47926530242,,0.00735199451447,0.00609678495675,-0.999672591686,0.0237386655062
1608810900415469042,,18081,,1608810900,415272885,"""world""",,,4.5834441185,2.90579390526,0.479268759489,,0.00741465575993,0.00596257252619,-0.999674379826,0.023680312559
1608810900435620580,,18082,,1608810900,435254392,"""world""",,,4.58344316483,2.90580153465,0.479268074036,,0.00736336316913,0.00607899203897,-0.999672114849,0.0237613823265
1608810900435644703,,18083,,1608810900,435312213,"""world""",,,4.58344459534,2.90579080582,0.479278206825,,0.00748857390136,0.00605365680531,-0.999671757221,0.0237403605133
1608810900435648076,,18084,,1608810900,435335954,"""world""",,,4.58344316483,2.90579104424,0.479274988174,,0.0074119810015,0.00608021533117,-0.999672293663,0.0237358193845
1608810900445496025,,18085,,1608810900,445264285,"""world""",,,4.58344554901,2.90579938889,0.479278981686,,0.00750838732347,0.00604671239853,-0.9996702075,0.0238016024232
1608810900455681166,,18086,,1608810900,455351649,"""world""",,,4.58349370956,2.90584182739,0.479382693768,,0.00898252893239,0.00612948415801,-0.999657392502,0.0238118320704
1608810900475824987,,18087,,1608810900,475288852,"""world""",,,4.58344697952,2.90579652786,0.479276239872,,0.00738090043887,0.00603066664189,-0.999672591686,0.0237467605621
1608810900476529724,,18088,,1608810900,476137135,"""world""",,,4.58343315125,2.9057867527,0.479268342257,,0.00748320948333,0.00599211314693,-0.99967110157,0.0237873084843
1608810900476536826,,18089,,1608810900,476170419,"""world""",,,4.58344268799,2.90579938889,0.479264080524,,0.00766214216128,0.00590203981847,-0.99966943264,0.0238240733743
1608810900485937010,,18090,,1608810900,485325343,"""world""",,,4.58343935013,2.90579652786,0.479274660349,,0.00736440718174,0.00600142078474,-0.999671816826,0.0237917751074
1608810900495835347,,18091,,1608810900,495312368,"""world""",,,4.58342933655,2.90579581261,0.479270339012,,0.00748808821663,0.00610359339043,-0.999671399593,0.0237435009331
1608810900505586189,,18092,,1608810900,505276905,"""world""",,,4.58342695236,2.90579676628,0.479263156652,,0.00749598862603,0.00600747903809,-0.999671459198,0.0237660631537
1608810900515757734,,18093,,1608810900,515264052,"""world""",,,4.58343982697,2.9057996273,0.479267239571,,0.00741853425279,0.00599894067273,-0.999672591686,0.023742320016
1608810900525687645,,18094,,1608810900,525327672,"""world""",,,4.58344984055,2.90579223633,0.479275107384,,0.00740721356124,0.00603868858889,-0.999671399593,0.0237872488797
1608810900625781147,,18095,,1608810900,625347800,"""world""",,,4.58344316483,2.90578722954,0.479267388582,,0.00742226652801,0.00607201457024,-0.999672353268,0.023732367903
1608810900626110341,,18096,,1608810900,625508778,"""world""",,,4.58343887329,2.90581250191,0.479272097349,,0.00735637173057,0.00603435514495,-0.999673187733,0.0237295143306
1608810900656098773,,18097,,1608810900,655320188,"""world""",,,4.58344697952,2.90579271317,0.479275137186,,0.00741979898885,0.00606589252129,-0.999671339989,0.0237794928253
1608810900656560257,,18098,,1608810900,655444935,"""world""",,,4.58344268799,2.90580511093,0.47927775979,,0.0073400256224,0.00610166275874,-0.999671518803,0.0237865783274
1608810900721263525,,18099,,1608810900,715331447,"""world""",,,4.58343410492,2.90579938889,0.479276925325,,0.00738529628143,0.00607706606388,-0.999671459198,0.0237820651382
1608810900721274114,,18100,,1608810900,715441672,"""world""",,,4.58343505859,2.90578508377,0.479276955128,,0.00743973953649,0.00610843207687,-0.999671339989,0.0237594470382
1608810900721281956,,18102,,1608810900,715522475,"""world""",,,4.58343839645,2.90579271317,0.479276180267,,0.007298855111,0.00610032770783,-0.999673366547,0.0237235613167
1608810900721290748,,18103,,1608810900,715624134,"""world""",,,4.58343791962,2.9057996273,0.479271620512,,0.00745679112151,0.00606233812869,-0.999671697617,0.02375334315
1608810900721298489,,18107,,1608810900,715802634,"""world""",,,4.58344650269,2.90581035614,0.479266881943,,0.00738094234839,0.0061738290824,-0.999672949314,0.023693792522
1608810900721304869,,18108,,1608810900,715904702,"""world""",,,4.58344459534,2.90579628944,0.479274868965,,0.00743960728869,0.00612831301987,-0.999671399593,0.0237527228892
1608810900721336188,,18110,,1608810900,716001945,"""world""",,,4.58343648911,2.90579605103,0.479277849197,,0.00731470761821,0.00617859186605,-0.999673008919,0.0237099006772
1608810900825707238,,18111,,1608810900,825334788,"""world""",,,4.58343935013,2.90579891205,0.479263186455,,0.00733373453841,0.00607843045145,-0.999671816826,0.0237844791263
1608810900826011282,,18112,,1608810900,825477505,"""world""",,,4.58344221115,2.90579462051,0.479269564152,,0.00738474726677,0.00608556997031,-0.999673724174,0.0236853566021
1608810900828322521,,18113,,1608810900,825954259,"""world""",,,4.58344364166,2.90579199791,0.479278951883,,0.00734355300665,0.00597088970244,-0.999671638012,0.0238122083247
1608810900828466483,,18131,,1608810900,826657981,"""world""",,,4.58345222473,2.90579843521,0.479265064001,,0.00740653742105,0.00590235553682,-0.999671936035,0.023798333481
1608810900850943749,,18132,,1608810900,836189496,"""world""",,,4.58345651627,2.90579247475,0.479276955128,,0.00756290275604,0.00585101637989,-0.99967199564,0.0237578563392
1608810900850967115,,18133,,1608810900,845305063,"""world""",,,4.58348608017,2.90584897995,0.479346007109,,0.00802122429013,0.00536293210462,-0.999664545059,0.0240368898958
1608810900856692535,,18134,,1608810900,855324463,"""world""",,,4.58344459534,2.90578913689,0.479269832373,,0.007323496975,0.00599169684574,-0.999669849873,0.0238890759647
1608810900869972610,,18135,,1608810900,865316140,"""world""",,,4.58344554901,2.905782938,0.479294270277,,0.00736190797761,0.00600071670488,-0.999671638012,0.0237999912351
1608810900875814334,,18136,,1608810900,875319544,"""world""",,,4.58343887329,2.90577507019,0.479275941849,,0.00738913938403,0.00593980681151,-0.999671638012,0.0238072872162
1608810900908404959,,18137,,1608810900,905326522,"""world""",,,4.58345222473,2.90578627586,0.479279726744,,0.00740956980735,0.005997012835,-0.999671161175,0.0238092243671
1608810900908411782,,18139,,1608810900,905429290,"""world""",,,4.58344554901,2.90580248833,0.479294866323,,0.0072688893415,0.00606452068314,-0.99967199564,0.0238003693521
1608810900955699390,,18140,,1608810900,955376486,"""world""",,,4.58349370956,2.9058008194,0.479398190975,,0.00709008099511,0.00606114976108,-0.999672710896,0.0238237306476
1608810900956124337,,18141,,1608810900,955477321,"""world""",,,4.58373069763,2.90587925911,0.479650735855,,0.00665203295648,0.00509558105841,-0.999678075314,0.0239494629204
1608810900956525009,,18145,,1608810900,955666259,"""world""",,,4.58344697952,2.90584445,0.479756355286,,0.00391206750646,0.0042384006083,-0.99968701601,0.0243462007493
1608810900971615174,,18146,,1608810900,965305097,"""world""",,,4.58253002167,2.90575909615,0.479803800583,,0.00424758857116,0.00538753718138,-0.999678492546,0.0244087930769
1608810900971637463,,18148,,1608810900,965376812,"""world""",,,4.57871198654,2.90478157997,0.479298084974,,-0.0106674125418,0.0128810079768,-0.999639332294,0.0210117977113
1608810900975757241,,18149,,1608810900,975311086,"""world""",,,4.57618141174,2.90469789505,0.478851020336,,-0.0100858137012,0.00872176978737,-0.999669492245,0.0219838283956
1608810900985841316,,18150,,1608810900,985319164,"""world""",,,4.5740647316,2.9051823616,0.479530692101,,0.00652317423373,0.00660896673799,-0.999677062035,0.0236562713981
1608810900995676337,,18151,,1608810900,995288349,"""world""",,,4.57151651382,2.90507268906,0.479366928339,,0.00823905970901,0.00660886615515,-0.999668419361,0.0234843976796
1608810901005556852,,18152,,1608810901,5285265,"""world""",,,4.56898260117,2.90502977371,0.47937899828,,0.00814020354301,0.00691625475883,-0.99969214201,0.0223963093013
1608810901015671741,,18153,,1608810901,15385535,"""world""",,,4.56658697128,2.9048974514,0.479209035635,,0.0115335024893,0.00869635306299,-0.99964261055,0.0224953070283
1608810901025702633,,18154,,1608810901,25300229,"""world""",,,4.56459712982,2.9049642086,0.479563444853,,0.00954660773277,0.0093346554786,-0.999651253223,0.0227841753513
1608810901035532218,,18155,,1608810901,35290862,"""world""",,,4.56250905991,2.90499258041,0.479105681181,,0.0164823476225,0.00491639878601,-0.999552190304,0.0244882088155
1608810901035870434,,18156,,1608810901,35410776,"""world""",,,4.56053447723,2.90442609787,0.479309499264,,0.013957916759,0.00878015253693,-0.999514639378,0.0264321025461
1608810901045658847,,18157,,1608810901,45315826,"""world""",,,4.55872774124,2.90419697762,0.479105174541,,0.0111441221088,0.00965677574277,-0.999552369118,0.0260307192802
1608810901055887776,,18158,,1608810901,55314936,"""world""",,,4.55693817139,2.90390253067,0.479095160961,,0.0104413554072,0.0090603698045,-0.999594926834,0.0248799882829
1608810901055911052,,18159,,1608810901,55436251,"""world""",,,4.55544757843,2.90414881706,0.479152619839,,0.0103892302141,0.0127286808565,-0.999558150768,0.0247724205256
1608810901075547486,,18160,,1608810901,75285937,"""world""",,,4.55386352539,2.90415215492,0.47929751873,,0.012947043404,0.0122859422117,-0.999524235725,0.0251559577882
1608810901085643975,,18161,,1608810901,85281397,"""world""",,,4.55160140991,2.90346384048,0.47838512063,,0.00285275955684,0.00685596046969,-0.999646782875,0.0255189370364
1608810901085714655,,18162,,1608810901,85360126,"""world""",,,4.55035591125,2.90382170677,0.478987902403,,0.0139031270519,0.00882989354432,-0.999504983425,0.0268072970212
1608810901097433097,,18163,,1608810901,95351918,"""world""",,,4.54890966415,2.90385055542,0.479017615318,,0.0148474602029,0.012325912714,-0.999500393867,0.0250327531248
1608810901105776758,,18164,,1608810901,105335188,"""world""",,,4.54734516144,2.90370941162,0.479066759348,,0.0123365810141,0.0139287598431,-0.99955111742,0.0234815794975
1608810901125941742,,18165,,1608810901,125305218,"""world""",,,4.54558229446,2.90383625031,0.478693574667,,0.0154873207211,0.00761610269547,-0.999555885792,0.0242948904634
1608810901125972361,,18166,,1608810901,125389686,"""world""",,,4.54409980774,2.90371584892,0.478843986988,,0.0155903324485,0.00761896604672,-0.999562382698,0.0239575784653
1608810901135607893,,18167,,1608810901,135290430,"""world""",,,4.54259300232,2.90357327461,0.478879541159,,0.0148643571883,0.00778401689604,-0.999574482441,0.0238638631999
1608810901135675190,,18168,,1608810901,135318291,"""world""",,,4.54135465622,2.90338635445,0.478921085596,,0.0131443645805,0.0103292129934,-0.999582648277,0.0235632266849
1608810901145621041,,18169,,1608810901,145290931,"""world""",,,4.54010534286,2.90314459801,0.478791475296,,0.0145476395264,0.0109535101801,-0.99955278635,0.023721953854
1608810901155867772,,18170,,1608810901,155348093,"""world""",,,4.53900051117,2.90306663513,0.478767901659,,0.0142450323328,0.0100217210129,-0.999559521675,0.0240292120725
1608810901166545945,,18171,,1608810901,165312572,"""world""",,,4.53791379929,2.90301299095,0.478851258755,,0.0146485427395,0.00998360849917,-0.999541401863,0.0245515350252
1608810901175795212,,18172,,1608810901,175371442,"""world""",,,4.53678607941,2.9028570652,0.478730410337,,0.0148216169327,0.00764691038057,-0.999555289745,0.0247197747231
1608810901175811779,,18173,,1608810901,175409582,"""world""",,,4.53591012955,2.90275621414,0.478877484798,,0.0141108203679,0.00787746347487,-0.999563515186,0.0247315317392
1608810901196582809,,18174,,1608810901,195337444,"""world""",,,4.53499317169,2.90260314941,0.478886842728,,0.0138831147924,0.00862073525786,-0.999555051327,0.0249565672129
