rosbagTimestamp,header,seq,stamp,secs,nsecs,frame_id,time_stamp,bumper,wheel_drop,cliff,left_encoder,right_encoder,left_pwm,right_pwm,buttons,charger,battery,bottom,current,over_current,digital_input,analog_input
1608810897575505280,,52276,,1608810897,593307773,'',18772,0,0,0,965,63077,0,0,0,0,158,"[1602, 1758, 1491]","[0, 0]",0,0,"[4095, 4095, 4095, 4095]"
1608810897575527860,,52277,,1608810897,609475271,'',18792,0,0,0,965,63077,0,0,0,0,159,"[1589, 1755, 1493]","[0, 0]",0,0,"[4095, 4095, 4095, 4095]"
1608810897609264671,,52278,,1608810897,630591347,'',18812,0,0,0,965,63077,0,0,0,0,159,"[1589, 1761, 1493]","[0, 0]",0,0,"[4095, 4095, 4095, 4095]"
1608810897654754476,,52279,,1608810897,650449617,'',18832,0,0,0,965,63077,0,0,0,0,159,"[1611, 1761, 1497]","[0, 0]",0,0,"[4095, 4095, 4095, 4095]"
1608810897654774692,,52280,,1608810897,673581337,'',18852,0,0,0,965,63077,0,0,0,0,158,"[1611, 1756, 1497]","[0, 0]",0,0,"[4095, 4095, 4095, 4095]"
1608810897686045597,,52281,,1608810897,690486814,'',18872,0,0,0,965,63077,0,0,0,0,158,"[1582, 1760, 1494]","[0, 0]",0,0,"[4095, 4095, 4095, 4095]"
1608810897686052151,,52282,,1608810897,710692901,'',18892,0,0,0,965,63077,0,0,0,0,158,"[1600, 1760, 1495]","[0, 0]",0,0,"[4095, 4095, 4095, 4095]"
1608810897706725529,,52283,,1608810897,731467001,'',18912,0,0,0,965,63077,0,0,0,0,158,"[1600, 1760, 1495]","[0, 0]",0,0,"[4095, 4095, 4095, 4095]"
1608810897706735561,,52284,,1608810897,751233571,'',18932,0,0,0,965,63077,0,0,0,0,158,"[1600, 1763, 1495]","[0, 0]",0,0,"[4095, 4095, 4095, 4095]"
1608810897730225329,,52285,,1608810897,771743084,'',18952,0,0,0,965,63077,0,0,0,0,158,"[1588, 1763, 1492]","[0, 0]",0,0,"[4095, 4095, 4095, 4095]"
1608810897747845421,,52286,,1608810897,790344716,'',18972,0,0,0,965,63077,0,0,0,0,158,"[1583, 1760, 1493]","[0, 0]",0,0,"[4095, 4095, 4095, 4095]"
1608810897768063838,,52287,,1608810897,810220216,'',18992,0,0,0,965,63077,0,0,0,0,158,"[1603, 1760, 1494]","[0, 0]",0,0,"[4095, 4095, 4095, 4095]"
1608810897789963141,,52288,,1608810897,831493408,'',19012,0,0,0,965,63077,0,0,0,0,158,"[1603, 1759, 1494]","[0, 0]",0,0,"[4095, 4095, 4095, 4095]"
1608810897804818707,,52289,,1608810897,850449574,'',19032,0,0,0,965,63077,0,0,0,0,158,"[1597, 1759, 1494]","[0, 0]",0,0,"[4095, 4095, 4095, 4095]"
1608810897830753726,,52290,,1608810897,870316897,'',19052,0,0,0,965,63077,0,0,0,0,158,"[1618, 1759, 1491]","[0, 0]",0,0,"[4095, 4095, 4095, 4095]"
1608810897852640457,,52291,,1608810897,890372876,'',19072,0,0,0,965,63077,0,0,0,0,158,"[1618, 1755, 1491]","[0, 0]",0,0,"[4095, 4095, 4095, 4095]"
1608810897869175509,,52292,,1608810897,910371616,'',19092,0,0,0,965,63077,0,0,0,0,158,"[1595, 1761, 1493]","[0, 0]",0,0,"[4095, 4095, 4095, 4095]"
1608810897898327502,,52293,,1608810897,931660286,'',19112,0,0,0,965,63077,0,0,0,0,158,"[1580, 1761, 1493]","[0, 0]",0,0,"[4095, 4095, 4095, 4095]"
1608810897929473099,,52294,,1608810897,950306892,'',19132,0,0,0,965,63077,0,0,0,0,158,"[1600, 1761, 1493]","[0, 0]",0,0,"[4095, 4095, 4095, 4095]"
1608810897947948777,,52295,,1608810897,970377181,'',19152,0,0,0,965,63077,0,0,0,0,158,"[1600, 1760, 1490]","[0, 0]",0,0,"[4095, 4095, 4095, 4095]"
1608810897947985030,,52296,,1608810897,990384974,'',19172,0,0,0,965,63077,0,0,0,0,158,"[1600, 1760, 1490]","[0, 0]",0,0,"[4095, 4095, 4095, 4095]"
1608810897971314617,,52297,,1608810898,10365977,'',19192,0,0,0,965,63077,0,0,0,0,158,"[1609, 1753, 1493]","[0, 0]",0,0,"[4095, 4095, 4095, 4095]"
1608810897997213636,,52298,,1608810898,31598221,'',19212,0,0,0,965,63077,0,0,0,0,158,"[1609, 1760, 1493]","[0, 0]",0,0,"[4095, 4095, 4095, 4095]"
1608810898021375317,,52299,,1608810898,50424367,'',19232,0,0,0,965,63077,0,0,0,0,158,"[1606, 1760, 1492]","[0, 0]",0,0,"[4095, 4095, 4095, 4095]"
1608810898068900593,,52300,,1608810898,70540028,'',19252,0,0,0,965,63077,0,0,0,0,158,"[1582, 1760, 1492]","[0, 0]",0,0,"[4095, 4095, 4095, 4095]"
1608810898091281186,,52301,,1608810898,90487198,'',19272,0,0,0,965,63077,0,0,0,0,158,"[1582, 1760, 1492]","[0, 0]",0,0,"[4095, 4095, 4095, 4095]"
1608810898091297989,,52302,,1608810898,110535696,'',19292,0,0,0,965,63077,0,0,0,0,158,"[1609, 1760, 1491]","[0, 0]",0,0,"[4095, 4095, 4095, 4095]"
1608810898091406428,,52303,,1608810898,135509811,'',19312,0,0,0,965,63077,0,0,0,0,158,"[1616, 1761, 1496]","[0, 0]",0,0,"[4095, 4095, 4095, 4095]"
1608810898121843260,,52304,,1608810898,151433675,'',19332,0,0,0,965,63077,0,0,0,0,158,"[1616, 1761, 1496]","[0, 0]",0,0,"[4095, 4095, 4095, 4095]"
1608810898158620325,,52305,,1608810898,171486553,'',19352,0,0,0,965,63077,0,0,0,0,158,"[1602, 1755, 1492]","[0, 0]",0,0,"[4095, 4095, 4095, 4095]"
1608810898158651869,,52306,,1608810898,194107947,'',19372,0,0,0,965,63077,0,0,0,0,158,"[1602, 1760, 1492]","[0, 0]",0,0,"[4095, 4095, 4095, 4095]"
1608810898179700456,,52307,,1608810898,210614954,'',19392,0,0,0,965,63077,0,0,0,0,158,"[1596, 1760, 1469]","[0, 0]",0,0,"[4095, 4095, 4095, 4095]"
1608810898211495862,,52308,,1608810898,230975902,'',19412,0,0,0,965,63077,0,0,0,0,158,"[1580, 1759, 1495]","[0, 0]",0,0,"[4095, 4095, 4095, 4095]"
1608810898235208769,,52309,,1608810898,250653840,'',19432,0,0,0,965,63077,0,0,0,0,158,"[1608, 1757, 1495]","[0, 0]",0,0,"[4095, 4095, 4095, 4095]"
1608810898235361152,,52310,,1608810898,269676801,'',19452,0,0,0,965,63077,0,0,0,0,158,"[1608, 1758, 1492]","[0, 0]",0,0,"[4095, 4095, 4095, 4095]"
1608810898273967653,,52311,,1608810898,290660898,'',19472,0,0,0,965,63077,0,0,0,0,158,"[1601, 1758, 1492]","[0, 0]",0,0,"[4095, 4095, 4095, 4095]"
1608810898305336725,,52312,,1608810898,311856409,'',19492,0,0,0,965,63077,0,0,0,0,158,"[1604, 1737, 1492]","[0, 0]",0,0,"[4095, 4095, 4095, 4095]"
1608810898305354599,,52313,,1608810898,331958053,'',19512,0,0,0,965,63077,0,0,0,0,158,"[1604, 1736, 1493]","[0, 0]",0,0,"[4095, 4095, 4095, 4095]"
1608810898330504240,,52314,,1608810898,351673952,'',19532,0,0,0,965,63077,0,0,0,0,158,"[1599, 1760, 1494]","[0, 0]",0,0,"[4095, 4095, 4095, 4095]"
1608810898330589543,,52315,,1608810898,370706257,'',19552,0,0,0,965,63077,0,0,0,0,158,"[1595, 1762, 1495]","[0, 0]",0,0,"[4095, 4095, 4095, 4095]"
1608810898358857224,,52316,,1608810898,390635032,'',19572,0,0,0,965,63077,0,0,0,0,158,"[1595, 1762, 1495]","[0, 0]",0,0,"[4095, 4095, 4095, 4095]"
1608810898386752103,,52317,,1608810898,411688042,'',19592,0,0,0,965,63077,0,0,0,0,158,"[1608, 1759, 1493]","[0, 0]",0,0,"[4095, 4095, 4095, 4095]"
1608810898411486375,,52318,,1608810898,432030886,'',19612,0,0,0,965,63077,0,0,0,0,158,"[1608, 1760, 1495]","[0, 0]",0,0,"[4095, 4095, 4095, 4095]"
1608810898438065523,,52319,,1608810898,451784747,'',19632,0,0,0,965,63077,0,0,0,0,158,"[1600, 1760, 1495]","[0, 0]",0,0,"[4095, 4095, 4095, 4095]"
1608810898438167840,,52320,,1608810898,470510150,'',19652,0,0,0,965,63077,0,0,0,0,158,"[1601, 1761, 1492]","[0, 0]",0,0,"[4095, 4095, 4095, 4095]"
1608810898459274766,,52321,,1608810898,490744950,'',19672,0,0,0,965,63077,0,0,0,0,158,"[1601, 1761, 1492]","[0, 0]",0,0,"[4095, 4095, 4095, 4095]"
1608810898496527162,,52322,,1608810898,512094350,'',19692,0,0,0,965,63077,0,0,0,0,158,"[1598, 1716, 1492]","[0, 0]",0,0,"[4095, 4095, 4095, 4095]"
1608810898496817623,,52323,,1608810898,531280544,'',19712,0,0,0,965,63077,0,0,0,0,158,"[1581, 1763, 1488]","[0, 0]",0,0,"[4095, 4095, 4095, 4095]"
1608810898546878568,,52324,,1608810898,550820362,'',19732,0,0,0,965,63077,0,0,0,0,158,"[1602, 1763, 1488]","[0, 0]",0,0,"[4095, 4095, 4095, 4095]"
1608810898579686113,,52325,,1608810898,572076028,'',19752,0,0,0,965,63077,0,0,0,0,158,"[1609, 1756, 1491]","[0, 0]",0,0,"[4095, 4095, 4095, 4095]"
1608810898579727829,,52326,,1608810898,590865089,'',19772,0,0,0,965,63077,0,0,0,0,158,"[1609, 1758, 1493]","[0, 0]",0,0,"[4095, 4095, 4095, 4095]"
1608810898579849708,,52327,,1608810898,611862618,'',19792,0,0,0,965,63077,0,0,0,0,158,"[1612, 1758, 1493]","[0, 0]",0,0,"[4095, 4095, 4095, 4095]"
1608810898605905252,,52328,,1608810898,630908647,'',19812,0,0,0,965,63077,0,0,0,0,158,"[1612, 1761, 1489]","[0, 0]",0,0,"[4095, 4095, 4095, 4095]"
1608810898643144802,,52329,,1608810898,651846898,'',19832,0,0,0,965,63077,0,0,0,0,158,"[1612, 1761, 1492]","[0, 0]",0,0,"[4095, 4095, 4095, 4095]"
1608810898643192947,,52330,,1608810898,671243339,'',19852,0,0,0,965,63077,0,0,0,0,158,"[1608, 1761, 1492]","[0, 0]",0,0,"[4095, 4095, 4095, 4095]"
1608810898668719696,,52331,,1608810898,691321914,'',19872,0,0,0,965,63077,0,0,0,0,158,"[1604, 1756, 1494]","[0, 0]",0,0,"[4095, 4095, 4095, 4095]"
1608810898704000497,,52332,,1608810898,711128921,'',19892,0,0,0,965,63077,0,0,0,0,158,"[1604, 1763, 1494]","[0, 0]",0,0,"[4095, 4095, 4095, 4095]"
1608810898704295441,,52333,,1608810898,730993745,'',19912,0,0,0,965,63077,0,0,0,0,158,"[1604, 1763, 1494]","[0, 0]",0,0,"[4095, 4095, 4095, 4095]"
1608810898744540896,,52334,,1608810898,751125758,'',19932,0,0,0,965,63077,0,0,0,0,158,"[1603, 1737, 1494]","[0, 0]",0,0,"[4095, 4095, 4095, 4095]"
1608810898744585178,,52335,,1608810898,771229445,'',19952,0,0,0,965,63077,0,0,0,0,158,"[1605, 1737, 1494]","[0, 0]",0,0,"[4095, 4095, 4095, 4095]"
1608810898768716678,,52336,,1608810898,791139531,'',19972,0,0,0,965,63077,0,0,0,0,158,"[1605, 1737, 1493]","[0, 0]",0,0,"[4095, 4095, 4095, 4095]"
1608810898790611120,,52337,,1608810898,812103479,'',19992,0,0,0,965,63077,0,0,0,0,158,"[1605, 1759, 1493]","[0, 0]",0,0,"[4095, 4095, 4095, 4095]"
1608810898809080879,,52338,,1608810898,831129944,'',20012,0,0,0,965,63077,0,0,0,0,158,"[1578, 1759, 1471]","[0, 0]",0,0,"[4095, 4095, 4095, 4095]"
1608810898809127489,,52339,,1608810898,851053462,'',20032,0,0,0,965,63077,0,0,0,0,158,"[1600, 1761, 1493]","[0, 0]",0,0,"[4095, 4095, 4095, 4095]"
1608810898835082773,,52340,,1608810898,871125029,'',20052,0,0,0,965,63077,0,0,0,0,158,"[1611, 1761, 1493]","[0, 0]",0,0,"[4095, 4095, 4095, 4095]"
1608810898865285509,,52341,,1608810898,890085207,'',20072,0,0,0,965,63077,0,0,0,0,158,"[1611, 1761, 1493]","[0, 0]",0,0,"[4095, 4095, 4095, 4095]"
1608810898883262157,,52342,,1608810898,912185949,'',20092,0,0,0,965,63077,0,0,0,0,158,"[1602, 1738, 1493]","[0, 0]",0,0,"[4095, 4095, 4095, 4095]"
1608810898908707357,,52343,,1608810898,932385124,'',20112,0,0,0,965,63077,0,0,0,0,158,"[1600, 1759, 1493]","[0, 0]",0,0,"[4095, 4095, 4095, 4095]"
1608810898938454386,,52344,,1608810898,951384724,'',20132,0,0,0,965,63077,0,0,0,0,158,"[1600, 1759, 1493]","[0, 0]",0,0,"[4095, 4095, 4095, 4095]"
1608810898938618283,,52345,,1608810898,970162980,'',20152,0,0,0,965,63077,0,0,0,0,158,"[1600, 1736, 1493]","[0, 0]",0,0,"[4095, 4095, 4095, 4095]"
1608810898962772147,,52346,,1608810898,991052466,'',20172,0,0,0,965,63077,0,0,0,0,158,"[1610, 1760, 1496]","[0, 0]",0,0,"[4095, 4095, 4095, 4095]"
1608810898980643399,,52347,,1608810899,11681101,'',20192,0,0,0,965,63077,0,0,0,0,158,"[1612, 1760, 1496]","[0, 0]",0,0,"[4095, 4095, 4095, 4095]"
1608810899005572273,,52348,,1608810899,32149236,'',20212,0,0,0,965,63077,0,0,0,0,158,"[1612, 1765, 1493]","[0, 0]",0,0,"[4095, 4095, 4095, 4095]"
1608810899033072363,,52349,,1608810899,52532994,'',20232,0,0,0,965,63077,0,0,0,0,158,"[1607, 1765, 1494]","[0, 0]",0,0,"[4095, 4095, 4095, 4095]"
1608810899065484835,,52350,,1608810899,70389914,'',20252,0,0,0,965,63077,0,0,0,0,158,"[1585, 1765, 1495]","[0, 0]",0,0,"[4095, 4095, 4095, 4095]"
1608810899065537035,,52351,,1608810899,90304744,'',20272,0,0,0,965,63077,0,0,0,0,158,"[1603, 1760, 1497]","[0, 0]",0,0,"[4095, 4095, 4095, 4095]"
1608810899092019296,,52352,,1608810899,111464306,'',20292,0,0,0,965,63077,0,0,0,0,158,"[1603, 1762, 1497]","[0, 0]",0,0,"[4095, 4095, 4095, 4095]"
1608810899121926951,,52353,,1608810899,130334414,'',20312,0,0,0,965,63077,0,0,0,0,158,"[1598, 1762, 1493]","[0, 0]",0,0,"[4095, 4095, 4095, 4095]"
1608810899121981500,,52354,,1608810899,150411879,'',20332,0,0,0,965,63077,0,0,0,0,158,"[1600, 1736, 1493]","[0, 0]",0,0,"[4095, 4095, 4095, 4095]"
1608810899140204650,,52355,,1608810899,170407005,'',20352,0,0,0,965,63077,0,0,0,0,158,"[1600, 1738, 1493]","[0, 0]",0,0,"[4095, 4095, 4095, 4095]"
1608810899153702820,,52356,,1608810899,190449141,'',20372,0,0,0,965,63077,0,0,0,0,158,"[1600, 1760, 1494]","[0, 0]",0,0,"[4095, 4095, 4095, 4095]"
1608810899186890472,,52357,,1608810899,211448987,'',20392,0,0,0,965,63077,0,0,0,0,158,"[1595, 1760, 1494]","[0, 0]",0,0,"[4095, 4095, 4095, 4095]"
1608810899210688634,,52358,,1608810899,230324350,'',20412,0,0,0,965,63077,0,0,0,0,158,"[1586, 1760, 1494]","[0, 0]",0,0,"[4095, 4095, 4095, 4095]"
1608810899210751796,,52359,,1608810899,250462549,'',20432,0,0,0,965,63077,0,0,0,0,158,"[1605, 1761, 1492]","[0, 0]",0,0,"[4095, 4095, 4095, 4095]"
1608810899235676929,,52360,,1608810899,270485121,'',20452,0,0,0,965,63077,0,0,0,0,158,"[1605, 1764, 1491]","[0, 0]",0,0,"[4095, 4095, 4095, 4095]"
1608810899265573836,,52361,,1608810899,290545360,'',20472,0,0,0,965,63077,0,0,0,0,158,"[1605, 1764, 1493]","[0, 0]",0,0,"[4095, 4095, 4095, 4095]"
1608810899288535815,,52362,,1608810899,313747940,'',20492,0,0,0,965,63077,0,0,0,0,158,"[1605, 1736, 1493]","[0, 0]",0,0,"[4095, 4095, 4095, 4095]"
1608810899321342516,,52363,,1608810899,331366893,'',20512,0,0,0,965,63077,0,0,0,0,158,"[1605, 1759, 1493]","[0, 0]",0,0,"[4095, 4095, 4095, 4095]"
1608810899321379182,,52364,,1608810899,350584171,'',20532,0,0,0,965,63077,0,0,0,0,158,"[1597, 1762, 1489]","[0, 0]",0,0,"[4095, 4095, 4095, 4095]"
1608810899344909703,,52365,,1608810899,370607035,'',20552,0,0,0,965,63077,0,0,0,0,158,"[1592, 1762, 1489]","[0, 0]",0,0,"[4095, 4095, 4095, 4095]"
1608810899381226115,,52366,,1608810899,391560456,'',20572,0,0,0,965,63077,0,0,0,0,158,"[1620, 1762, 1489]","[0, 0]",0,0,"[4095, 4095, 4095, 4095]"
1608810899381344354,,52367,,1608810899,411374843,'',20592,0,0,0,965,63077,0,0,0,0,158,"[1620, 1761, 1469]","[0, 0]",0,0,"[4095, 4095, 4095, 4095]"
1608810899412242786,,52368,,1608810899,430745997,'',20612,0,0,0,965,63077,0,0,0,0,158,"[1604, 1761, 1494]","[0, 0]",0,0,"[4095, 4095, 4095, 4095]"
1608810899435618426,,52369,,1608810899,452652164,'',20632,0,0,0,965,63077,0,0,0,0,158,"[1602, 1761, 1495]","[0, 0]",0,0,"[4095, 4095, 4095, 4095]"
1608810899435649798,,52370,,1608810899,470191697,'',20652,0,0,0,965,63077,0,0,0,0,158,"[1601, 1738, 1495]","[0, 0]",0,0,"[4095, 4095, 4095, 4095]"
1608810899475354710,,52371,,1608810899,490814299,'',20672,0,0,0,965,63077,0,0,0,0,158,"[1601, 1759, 1491]","[0, 0]",0,0,"[4095, 4095, 4095, 4095]"
1608810899491789257,,52372,,1608810899,510680659,'',20692,0,0,0,965,63077,0,0,0,0,158,"[1596, 1759, 1493]","[0, 0]",0,0,"[4095, 4095, 4095, 4095]"
1608810899491829526,,52373,,1608810899,530636367,'',20712,0,0,0,965,63077,0,0,0,0,158,"[1588, 1759, 1493]","[0, 0]",0,0,"[4095, 4095, 4095, 4095]"
1608810899513184544,,52374,,1608810899,549679914,'',20732,0,0,0,965,63077,0,0,0,0,158,"[1601, 1759, 1493]","[0, 0]",0,0,"[4095, 4095, 4095, 4095]"
1608810899533150843,,52375,,1608810899,569696355,'',20752,0,0,0,965,63077,0,0,0,0,158,"[1601, 1759, 1491]","[0, 0]",0,0,"[4095, 4095, 4095, 4095]"
1608810899551363539,,52376,,1608810899,590748758,'',20772,0,0,0,965,63077,0,0,0,0,158,"[1601, 1759, 1491]","[0, 0]",0,0,"[4095, 4095, 4095, 4095]"
1608810899574821651,,52377,,1608810899,611982192,'',20792,0,0,0,965,63077,0,0,0,0,158,"[1611, 1759, 1488]","[0, 0]",0,0,"[4095, 4095, 4095, 4095]"
1608810899592221341,,52378,,1608810899,630741930,'',20812,0,0,0,965,63077,0,0,0,0,158,"[1611, 1757, 1470]","[0, 0]",0,0,"[4095, 4095, 4095, 4095]"
1608810899654562398,,52379,,1608810899,649795112,'',20832,0,0,0,965,63077,0,0,0,0,158,"[1611, 1761, 1470]","[0, 0]",0,0,"[4095, 4095, 4095, 4095]"
1608810899675121484,,52380,,1608810899,670229968,'',20852,0,0,0,965,63077,0,0,0,0,158,"[1581, 1761, 1491]","[0, 0]",0,0,"[4095, 4095, 4095, 4095]"
1608810899675138687,,52381,,1608810899,690985422,'',20872,0,0,0,965,63077,0,0,0,0,158,"[1599, 1761, 1491]","[0, 0]",0,0,"[4095, 4095, 4095, 4095]"
1608810899675169347,,52382,,1608810899,709984588,'',20892,0,0,0,965,63077,0,0,0,0,158,"[1599, 1761, 1495]","[0, 0]",0,0,"[4095, 4095, 4095, 4095]"
1608810899698354125,,52383,,1608810899,729919273,'',20912,0,0,0,965,63077,0,0,0,0,158,"[1599, 1761, 1495]","[0, 0]",0,0,"[4095, 4095, 4095, 4095]"
1608810899717852030,,52384,,1608810899,749978051,'',20932,0,0,0,965,63077,0,0,0,0,158,"[1613, 1761, 1495]","[0, 0]",0,0,"[4095, 4095, 4095, 4095]"
1608810899736883835,,52385,,1608810899,769995952,'',20952,0,0,0,965,63077,0,0,0,0,158,"[1613, 1760, 1495]","[0, 0]",0,0,"[4095, 4095, 4095, 4095]"
1608810899759160854,,52386,,1608810899,789935017,'',20972,0,0,0,965,63077,0,0,0,0,158,"[1613, 1760, 1495]","[0, 0]",0,0,"[4095, 4095, 4095, 4095]"
1608810899773722483,,52387,,1608810899,808961921,'',20992,0,0,0,965,63077,0,0,0,0,158,"[1606, 1759, 1495]","[0, 0]",0,0,"[4095, 4095, 4095, 4095]"
1608810899795955025,,52388,,1608810899,829189759,'',21012,0,0,0,965,63077,0,0,0,0,158,"[1579, 1761, 1494]","[0, 0]",0,0,"[4095, 4095, 4095, 4095]"
1608810899820327907,,52389,,1608810899,849031592,'',21032,0,0,0,965,63077,0,0,0,0,158,"[1605, 1761, 1494]","[0, 0]",0,0,"[4095, 4095, 4095, 4095]"
1608810899851274930,,52390,,1608810899,869065844,'',21052,0,0,0,965,63077,0,0,0,0,158,"[1611, 1756, 1492]","[0, 0]",0,0,"[4095, 4095, 4095, 4095]"
1608810899874227474,,52391,,1608810899,890030068,'',21072,0,0,0,965,63077,0,0,0,0,158,"[1611, 1759, 1492]","[0, 0]",0,0,"[4095, 4095, 4095, 4095]"
1608810899874235347,,52392,,1608810899,909157123,'',21092,0,0,0,965,63077,0,0,0,0,158,"[1611, 1759, 1491]","[0, 0]",0,0,"[4095, 4095, 4095, 4095]"
1608810899896690184,,52393,,1608810899,929221741,'',21112,0,0,0,965,63077,0,0,0,0,158,"[1605, 1759, 1492]","[0, 0]",0,0,"[4095, 4095, 4095, 4095]"
1608810899915001212,,52394,,1608810899,949208983,'',21132,0,0,0,965,63077,0,0,0,0,158,"[1605, 1759, 1492]","[0, 0]",0,0,"[4095, 4095, 4095, 4095]"
1608810899937252420,,52395,,1608810899,969223088,'',21152,0,0,0,965,63077,0,0,0,0,158,"[1580, 1757, 1492]","[0, 0]",0,0,"[4095, 4095, 4095, 4095]"
1608810899954445679,,52396,,1608810899,989303474,'',21172,0,0,0,965,63077,0,0,0,0,158,"[1614, 1758, 1493]","[0, 0]",0,0,"[4095, 4095, 4095, 4095]"
1608810899979783801,,52397,,1608810900,9261075,'',21192,0,0,0,965,63077,0,0,0,0,158,"[1614, 1760, 1493]","[0, 0]",0,0,"[4095, 4095, 4095, 4095]"
1608810899995830153,,52398,,1608810900,29265740,'',21212,0,0,0,965,63077,0,0,0,0,158,"[1614, 1760, 1494]","[0, 0]",0,0,"[4095, 4095, 4095, 4095]"
1608810900022358509,,52399,,1608810900,48302913,'',21232,0,0,0,965,63077,0,0,0,0,158,"[1605, 1746, 1494]","[0, 0]",0,0,"[4095, 4095, 4095, 4095]"
1608810900058052937,,52400,,1608810900,68322547,'',21252,0,0,0,965,63077,0,0,0,0,158,"[1602, 1735, 1493]","[0, 0]",0,0,"[4095, 4095, 4095, 4095]"
1608810900058102868,,52401,,1608810900,89372521,'',21272,0,0,0,965,63077,0,0,0,0,158,"[1602, 1759, 1493]","[0, 0]",0,0,"[4095, 4095, 4095, 4095]"
1608810900080374464,,52402,,1608810900,109384856,'',21292,0,0,0,965,63077,0,0,0,0,158,"[1602, 1760, 1493]","[0, 0]",0,0,"[4095, 4095, 4095, 4095]"
1608810900103113703,,52403,,1608810900,129543174,'',21312,0,0,0,965,63077,0,0,0,0,158,"[1600, 1760, 1449]","[0, 0]",0,0,"[4095, 4095, 4095, 4095]"
1608810900120614197,,52404,,1608810900,148393496,'',21332,0,0,0,965,63077,0,0,0,0,158,"[1603, 1762, 1493]","[0, 0]",0,0,"[4095, 4095, 4095, 4095]"
1608810900135677876,,52405,,1608810900,168381306,'',21352,0,0,0,965,63077,0,0,0,0,158,"[1603, 1762, 1493]","[0, 0]",0,0,"[4095, 4095, 4095, 4095]"
1608810900159377032,,52406,,1608810900,189543686,'',21372,0,0,0,965,63077,0,0,0,0,158,"[1603, 1758, 1494]","[0, 0]",0,0,"[4095, 4095, 4095, 4095]"
1608810900245791775,,52407,,1608810900,209342888,'',21392,0,0,0,965,63077,0,0,0,0,158,"[1602, 1762, 1494]","[0, 0]",0,0,"[4095, 4095, 4095, 4095]"
1608810900245873448,,52408,,1608810900,228455101,'',21412,0,0,0,965,63077,0,0,0,0,158,"[1602, 1762, 1490]","[0, 0]",0,0,"[4095, 4095, 4095, 4095]"
1608810900245896648,,52409,,1608810900,248529625,'',21432,0,0,0,965,63077,0,0,0,0,158,"[1599, 1762, 1473]","[0, 0]",0,0,"[4095, 4095, 4095, 4095]"
1608810900245943555,,52410,,1608810900,268426636,'',21452,0,0,0,965,63077,0,0,0,0,158,"[1585, 1758, 1473]","[0, 0]",0,0,"[4095, 4095, 4095, 4095]"
1608810900456119964,,52411,,1608810900,290409432,'',21472,0,0,0,965,63077,0,0,0,0,158,"[1598, 1758, 1493]","[0, 0]",0,0,"[4095, 4095, 4095, 4095]"
1608810900456139508,,52412,,1608810900,309337124,'',21492,0,0,0,965,63077,0,0,0,0,158,"[1601, 1735, 1493]","[0, 0]",0,0,"[4095, 4095, 4095, 4095]"
1608810900493484596,,52413,,1608810900,330776577,'',21512,0,0,0,965,63077,0,0,0,0,158,"[1601, 1760, 1493]","[0, 0]",0,0,"[4095, 4095, 4095, 4095]"
1608810900493638918,,52414,,1608810900,349133188,'',21532,0,0,0,965,63077,0,0,0,0,158,"[1601, 1760, 1494]","[0, 0]",0,0,"[4095, 4095, 4095, 4095]"
1608810900493660071,,52415,,1608810900,369365664,'',21552,0,0,0,965,63077,0,0,0,0,158,"[1623, 1758, 1494]","[0, 0]",0,0,"[4095, 4095, 4095, 4095]"
1608810900493673005,,52416,,1608810900,390508774,'',21572,0,0,0,965,63077,0,0,0,0,158,"[1623, 1760, 1493]","[0, 0]",0,0,"[4095, 4095, 4095, 4095]"
1608810900493684505,,52417,,1608810900,410178053,'',21592,0,0,0,965,63077,0,0,0,0,158,"[1623, 1760, 1493]","[0, 0]",0,0,"[4095, 4095, 4095, 4095]"
1608810900493695079,,52418,,1608810900,428580503,'',21612,0,0,0,965,63077,0,0,0,0,158,"[1581, 1760, 1472]","[0, 0]",0,0,"[4095, 4095, 4095, 4095]"
1608810900493716600,,52419,,1608810900,448660866,'',21632,0,0,0,965,63077,0,0,0,0,158,"[1599, 1759, 1467]","[0, 0]",0,0,"[4095, 4095, 4095, 4095]"
1608810900493735819,,52420,,1608810900,468894802,'',21652,0,0,0,965,63077,0,0,0,0,158,"[1603, 1759, 1467]","[0, 0]",0,0,"[4095, 4095, 4095, 4095]"
1608810900493749902,,52421,,1608810900,490730741,'',21672,0,0,0,965,63077,0,0,0,0,158,"[1603, 1760, 1497]","[0, 0]",0,0,"[4095, 4095, 4095, 4095]"
1608810900493921739,,52422,,1608810900,509362674,'',21692,0,0,0,965,63077,0,0,0,0,158,"[1597, 1760, 1500]","[0, 0]",0,0,"[4095, 4095, 4095, 4095]"
1608810900493966288,,52423,,1608810900,529524495,'',21712,0,0,0,965,63077,0,0,0,0,158,"[1598, 1757, 1500]","[0, 0]",0,0,"[4095, 4095, 4095, 4095]"
1608810900521713028,,52424,,1608810900,549524277,'',21732,0,0,0,965,63077,0,0,0,0,158,"[1598, 1756, 1491]","[0, 0]",0,0,"[4095, 4095, 4095, 4095]"
1608810900547656183,,52425,,1608810900,569453987,'',21752,0,0,0,965,63077,0,0,0,0,158,"[1598, 1762, 1494]","[0, 0]",0,0,"[4095, 4095, 4095, 4095]"
1608810900588733725,,52426,,1608810900,590451407,'',21772,0,0,0,965,63077,0,0,0,0,158,"[1625, 1762, 1494]","[0, 0]",0,0,"[4095, 4095, 4095, 4095]"
1608810900589015263,,52427,,1608810900,609620553,'',21792,0,0,0,965,63077,0,0,0,0,158,"[1625, 1760, 1492]","[0, 0]",0,0,"[4095, 4095, 4095, 4095]"
1608810900621816463,,52428,,1608810900,630114044,'',21812,0,0,0,965,63077,0,0,0,0,158,"[1625, 1760, 1490]","[0, 0]",0,0,"[4095, 4095, 4095, 4095]"
1608810900621848942,,52429,,1608810900,648920863,'',21832,0,0,0,965,63077,0,0,0,0,158,"[1612, 1740, 1492]","[0, 0]",0,0,"[4095, 4095, 4095, 4095]"
1608810900651905150,,52430,,1608810900,672996453,'',21852,0,0,0,965,63077,0,0,0,0,158,"[1591, 1760, 1492]","[0, 0]",0,0,"[4095, 4095, 4095, 4095]"
1608810900696375963,,52431,,1608810900,689685662,'',21872,0,0,0,965,63077,0,0,0,0,158,"[1606, 1760, 1491]","[0, 0]",0,0,"[4095, 4095, 4095, 4095]"
1608810900696583541,,52432,,1608810900,709656539,'',21892,0,0,0,965,63077,0,0,0,0,158,"[1619, 1718, 1493]","[0, 0]",0,0,"[4095, 4095, 4095, 4095]"
1608810900696677280,,52433,,1608810900,728642916,'',21912,0,0,0,965,63077,0,0,0,0,158,"[1619, 1760, 1493]","[0, 0]",0,0,"[4095, 4095, 4095, 4095]"
1608810900726527428,,52434,,1608810900,748796562,'',21932,0,0,0,965,63077,0,0,0,0,158,"[1610, 1760, 1492]","[0, 0]",0,0,"[4095, 4095, 4095, 4095]"
1608810900854036333,,52435,,1608810900,770459366,'',21952,0,0,0,965,63077,0,0,0,0,158,"[1615, 1759, 1491]","[0, 0]",0,0,"[4095, 4095, 4095, 4095]"
1608810900854114567,,52436,,1608810900,790995776,'',21972,0,0,0,965,63077,0,0,0,0,158,"[1615, 1759, 1492]","[0, 0]",0,0,"[4095, 4095, 4095, 4095]"
1608810900889452703,,52437,,1608810900,810020692,'',21992,0,0,0,965,63077,0,0,0,0,158,"[1615, 1752, 1492]","[0, 0]",0,0,"[4095, 4095, 4095, 4095]"
1608810900889462196,,52438,,1608810900,827927972,'',22012,0,0,0,965,63077,72,74,0,0,158,"[1600, 1759, 1492]","[0, 0]",0,0,"[4095, 4095, 4095, 4095]"
1608810900889469557,,52439,,1608810900,847915783,'',22032,0,0,0,965,63077,72,74,0,0,158,"[1614, 1759, 1491]","[0, 0]",0,0,"[4095, 4095, 4095, 4095]"
1608810900889486969,,52440,,1608810900,868926341,'',22052,0,0,0,965,63077,72,74,0,0,158,"[1614, 1759, 1496]","[0, 0]",0,0,"[4095, 4095, 4095, 4095]"
1608810900889498610,,52441,,1608810900,888801454,'',22072,0,0,0,965,63077,72,74,0,0,158,"[1601, 1762, 1496]","[0, 0]",0,0,"[4095, 4095, 4095, 4095]"
1608810900889511060,,52442,,1608810900,909328814,'',22092,0,0,0,965,63077,72,74,0,0,158,"[1606, 1762, 1468]","[0, 0]",0,0,"[4095, 4095, 4095, 4095]"
1608810900917096728,,52443,,1608810900,929855005,'',22112,0,0,0,965,63077,71,73,0,0,158,"[1606, 1758, 1493]","[0, 0]",0,0,"[4095, 4095, 4095, 4095]"
1608810900917213130,,52444,,1608810900,948918752,'',22132,0,0,0,1003,63114,53,56,0,0,158,"[1606, 1767, 1493]","[25, 23]",0,0,"[4095, 4095, 4095, 4095]"
1608810900948685644,,52445,,1608810900,969972521,'',22152,0,0,0,1065,63170,24,30,0,0,158,"[1585, 1767, 1498]","[14, 15]",0,0,"[4095, 4095, 4095, 4095]"
1608810900948750701,,52446,,1608810900,988936124,'',22172,0,0,0,1108,63211,4,10,0,0,158,"[1585, 1759, 1498]","[6, 6]",0,0,"[4095, 4095, 4095, 4095]"
1608810900973669604,,52447,,1608810901,8998261,'',22192,0,0,0,1130,63233,12,18,0,0,158,"[1589, 1713, 1476]","[2, 2]",0,0,"[4095, 4095, 4095, 4095]"
1608810901007338395,,52448,,1608810901,28978641,'',22212,0,0,0,1148,63255,32,34,0,0,158,"[1589, 1713, 1476]","[3, 3]",0,0,"[4095, 4095, 4095, 4095]"
1608810901045053529,,52449,,1608810901,49877749,'',22232,0,0,0,1184,63289,36,37,0,0,158,"[1599, 1743, 1470]","[6, 5]",0,0,"[4095, 4095, 4095, 4095]"
1608810901045072297,,52450,,1608810901,70057827,'',22252,0,0,0,1223,63330,28,29,0,0,158,"[1608, 1762, 1493]","[6, 5]",0,0,"[4095, 4095, 4095, 4095]"
1608810901067444202,,52451,,1608810901,88826355,'',22272,0,0,0,1262,63371,18,20,0,0,158,"[1608, 1762, 1493]","[3, 3]",0,0,"[4095, 4095, 4095, 4095]"
1608810901067483354,,52452,,1608810901,108917975,'',22292,0,0,0,1299,63410,18,17,0,0,158,"[1580, 1735, 1492]","[1, 1]",0,0,"[4095, 4095, 4095, 4095]"
1608810901098997078,,52453,,1608810901,128965803,'',22312,0,0,0,1335,63445,19,20,0,0,158,"[1597, 1737, 1492]","[1, 1]",0,0,"[4095, 4095, 4095, 4095]"
1608810901121590848,,52454,,1608810901,148769566,'',22332,0,0,0,1371,63481,21,23,0,0,158,"[1608, 1760, 1492]","[1, 1]",0,0,"[4095, 4095, 4095, 4095]"
1608810901140971975,,52455,,1608810901,169391649,'',22352,0,0,0,1405,63516,22,25,0,0,158,"[1608, 1760, 1469]","[1, 1]",0,0,"[4095, 4095, 4095, 4095]"
1608810901168630252,,52456,,1608810901,190668564,'',22372,0,0,0,1438,63549,24,26,0,0,158,"[1608, 1760, 1469]","[1, 2]",0,0,"[4095, 4095, 4095, 4095]"
1608810901168699917,,52457,,1608810901,209074496,'',22392,0,0,0,1473,63585,24,26,0,0,158,"[1605, 1738, 1470]","[2, 2]",0,0,"[4095, 4095, 4095, 4095]"
1608810901193040580,,52458,,1608810901,228064610,'',22412,0,0,0,1510,63624,23,24,0,0,158,"[1605, 1763, 1490]","[1, 2]",0,0,"[4095, 4095, 4095, 4095]"
1608810901223069665,,52459,,1608810901,248117401,'',22432,0,0,0,1548,63663,20,21,0,0,158,"[1601, 1763, 1490]","[1, 1]",0,0,"[4095, 4095, 4095, 4095]"
1608810901274378109,,52460,,1608810901,270413494,'',22452,0,0,0,1582,63698,21,22,0,0,158,"[1604, 1736, 1490]","[1, 1]",0,0,"[4095, 4095, 4095, 4095]"
1608810901274434289,,52461,,1608810901,289066412,'',22472,0,0,0,1614,63730,23,25,0,0,158,"[1604, 1738, 1492]","[1, 1]",0,0,"[4095, 4095, 4095, 4095]"
1608810901303232975,,52462,,1608810901,309075411,'',22492,0,0,0,1648,63763,25,28,0,0,158,"[1579, 1738, 1493]","[2, 2]",0,0,"[4095, 4095, 4095, 4095]"
1608810901303283067,,52463,,1608810901,327976774,'',22512,0,0,0,1683,63798,25,28,0,0,158,"[1579, 1737, 1493]","[2, 2]",0,0,"[4095, 4095, 4095, 4095]"
1608810901333737311,,52464,,1608810901,348386905,'',22532,0,0,0,1720,63836,23,25,0,0,158,"[1602, 1736, 1489]","[2, 2]",0,0,"[4095, 4095, 4095, 4095]"
1608810901333857568,,52465,,1608810901,369003149,'',22552,0,0,0,1756,63874,22,23,0,0,158,"[1613, 1736, 1493]","[2, 2]",0,0,"[4095, 4095, 4095, 4095]"
1608810901352538307,,52466,,1608810901,388556424,'',22572,0,0,0,1791,63912,22,21,0,0,158,"[1615, 1735, 1493]","[1, 1]",0,0,"[4095, 4095, 4095, 4095]"
1608810901380891541,,52467,,1608810901,408097728,'',22592,0,0,0,1826,63947,23,23,0,0,158,"[1615, 1739, 1489]","[1, 1]",0,0,"[4095, 4095, 4095, 4095]"
1608810901406298521,,52468,,1608810901,427080251,'',22612,0,0,0,1863,63981,22,25,0,0,158,"[1597, 1739, 1488]","[1, 1]",0,0,"[4095, 4095, 4095, 4095]"
1608810901406338446,,52469,,1608810901,447138298,'',22632,0,0,0,1899,64017,22,26,0,0,158,"[1601, 1758, 1488]","[1, 2]",0,0,"[4095, 4095, 4095, 4095]"
1608810901442265748,,52470,,1608810901,468158009,'',22652,0,0,0,1935,64054,22,25,0,0,158,"[1601, 1763, 1488]","[1, 2]",0,0,"[4095, 4095, 4095, 4095]"
1608810901460972964,,52471,,1608810901,487134401,'',22672,0,0,0,1970,64090,23,24,0,0,158,"[1600, 1763, 1491]","[1, 2]",0,0,"[4095, 4095, 4095, 4095]"
1608810901461012249,,52472,,1608810901,507196827,'',22692,0,0,0,2005,64127,23,24,0,0,158,"[1611, 1737, 1491]","[1, 1]",0,0,"[4095, 4095, 4095, 4095]"
1608810901497857708,,52473,,1608810901,527168750,'',22712,0,0,0,2040,64163,24,24,0,0,158,"[1611, 1735, 1495]","[1, 1]",0,0,"[4095, 4095, 4095, 4095]"
1608810901517901899,,52474,,1608810901,547212199,'',22732,0,0,0,2076,64200,23,24,0,0,158,"[1611, 1732, 1495]","[1, 1]",0,0,"[4095, 4095, 4095, 4095]"
1608810901539506211,,52475,,1608810901,569141026,'',22752,0,0,0,2113,64236,22,24,0,0,158,"[1575, 1737, 1488]","[1, 1]",0,0,"[4095, 4095, 4095, 4095]"
1608810901563893581,,52476,,1608810901,588376372,'',22772,0,0,0,2148,64272,22,24,0,0,158,"[1606, 1737, 1468]","[1, 1]",0,0,"[4095, 4095, 4095, 4095]"
1608810901586535718,,52477,,1608810901,608203783,'',22792,0,0,0,2184,64308,23,24,0,0,158,"[1606, 1736, 1468]","[1, 2]",0,0,"[4095, 4095, 4095, 4095]"
1608810901624194920,,52478,,1608810901,628250443,'',22812,0,0,0,2221,64344,23,25,0,0,158,"[1606, 1739, 1444]","[1, 1]",0,0,"[4095, 4095, 4095, 4095]"
1608810901624208380,,52479,,1608810901,649161551,'',22832,0,0,0,2257,64381,22,24,0,0,158,"[1606, 1739, 1463]","[1, 2]",0,0,"[4095, 4095, 4095, 4095]"
1608810901659771923,,52480,,1608810901,669078589,'',22852,0,0,0,2293,64418,22,24,0,0,158,"[1605, 1743, 1470]","[1, 2]",0,0,"[4095, 4095, 4095, 4095]"
1608810901659799902,,52481,,1608810901,688527055,'',22872,0,0,0,2329,64454,23,24,0,0,158,"[1605, 1743, 1470]","[1, 1]",0,0,"[4095, 4095, 4095, 4095]"
1608810901682546890,,52482,,1608810901,708289654,'',22892,0,0,0,2365,64490,23,24,0,0,158,"[1580, 1743, 1470]","[1, 1]",0,0,"[4095, 4095, 4095, 4095]"
1608810901717653228,,52483,,1608810901,728247855,'',22912,0,0,0,2401,64526,23,25,0,0,158,"[1596, 1735, 1465]","[1, 2]",0,0,"[4095, 4095, 4095, 4095]"
1608810901717670637,,52484,,1608810901,748372173,'',22932,0,0,0,2438,64562,23,25,0,0,158,"[1611, 1736, 1470]","[1, 2]",0,0,"[4095, 4095, 4095, 4095]"
1608810901740356726,,52485,,1608810901,768374166,'',22952,0,0,0,2474,64598,23,25,0,0,158,"[1611, 1736, 1470]","[1, 2]",0,0,"[4095, 4095, 4095, 4095]"
1608810901762825427,,52486,,1608810901,788693502,'',22972,0,0,0,2510,64634,23,25,0,0,158,"[1611, 1741, 1466]","[1, 2]",0,0,"[4095, 4095, 4095, 4095]"
1608810901796990729,,52487,,1608810901,810046615,'',22992,0,0,0,2547,64672,23,24,0,0,158,"[1626, 1741, 1466]","[1, 2]",0,0,"[4095, 4095, 4095, 4095]"
1608810901797034395,,52488,,1608810901,828277089,'',23012,0,0,0,2583,64710,23,23,0,0,158,"[1626, 1741, 1457]","[1, 1]",0,0,"[4095, 4095, 4095, 4095]"
1608810901819441725,,52489,,1608810901,849239871,'',23032,0,0,0,2619,64747,23,23,0,0,158,"[1626, 1736, 1469]","[1, 1]",0,0,"[4095, 4095, 4095, 4095]"
1608810901843470438,,52490,,1608810901,868472590,'',23052,0,0,0,2656,64783,22,24,0,0,158,"[1591, 1736, 1469]","[1, 1]",0,0,"[4095, 4095, 4095, 4095]"
1608810901870253379,,52491,,1608810901,888565962,'',23072,0,0,0,2693,64820,22,25,0,0,158,"[1600, 1737, 1470]","[1, 1]",0,0,"[4095, 4095, 4095, 4095]"
1608810901870274904,,52492,,1608810901,908360966,'',23092,0,0,0,2728,64855,22,26,0,0,158,"[1604, 1737, 1470]","[1, 1]",0,0,"[4095, 4095, 4095, 4095]"
1608810901901198512,,52493,,1608810901,927396623,'',23112,0,0,0,2765,64892,23,25,0,0,158,"[1604, 1734, 1448]","[1, 2]",0,0,"[4095, 4095, 4095, 4095]"
1608810901930862022,,52494,,1608810901,948597632,'',23132,0,0,0,2802,64929,23,25,0,0,158,"[1604, 1737, 1471]","[1, 2]",0,0,"[4095, 4095, 4095, 4095]"
1608810901955287536,,52495,,1608810901,968453945,'',23152,0,0,0,2838,64965,22,25,0,0,158,"[1600, 1737, 1471]","[1, 2]",0,0,"[4095, 4095, 4095, 4095]"
1608810901955324541,,52496,,1608810901,988434918,'',23172,0,0,0,2874,65003,23,24,0,0,158,"[1598, 1737, 1466]","[1, 2]",0,0,"[4095, 4095, 4095, 4095]"
1608810901996161487,,52497,,1608810902,7477290,'',23192,0,0,0,2910,65041,23,24,0,0,158,"[1598, 1737, 1469]","[1, 2]",0,0,"[4095, 4095, 4095, 4095]"
1608810901996254281,,52498,,1608810902,27456022,'',23212,0,0,0,2947,65077,23,24,0,0,158,"[1620, 1741, 1469]","[1, 2]",0,0,"[4095, 4095, 4095, 4095]"
1608810902028696052,,52499,,1608810902,50042253,'',23232,0,0,0,2985,65115,22,24,0,0,158,"[1630, 1741, 1470]","[1, 1]",0,0,"[4095, 4095, 4095, 4095]"
1608810902060071383,,52500,,1608810902,67496042,'',23252,0,0,0,3022,65153,21,24,0,0,158,"[1630, 1737, 1470]","[1, 1]",0,0,"[4095, 4095, 4095, 4095]"
1608810902060082557,,52501,,1608810902,87485521,'',23272,0,0,0,3058,65189,22,24,0,0,158,"[1602, 1737, 1491]","[1, 1]",0,0,"[4095, 4095, 4095, 4095]"
1608810902084792026,,52502,,1608810902,107545061,'',23292,0,0,0,3094,65225,23,25,0,0,158,"[1600, 1735, 1491]","[1, 2]",0,0,"[4095, 4095, 4095, 4095]"
1608810902084866781,,52503,,1608810902,128409447,'',23312,0,0,0,3131,65263,23,26,0,0,158,"[1601, 1738, 1487]","[1, 2]",0,0,"[4095, 4095, 4095, 4095]"
1608810902116903585,,52504,,1608810902,148557149,'',23332,0,0,0,3168,65301,23,25,0,0,158,"[1607, 1738, 1470]","[1, 2]",0,0,"[4095, 4095, 4095, 4095]"
1608810902142357660,,52505,,1608810902,167653911,'',23352,0,0,0,3205,65338,22,24,0,0,158,"[1607, 1734, 1470]","[1, 2]",0,0,"[4095, 4095, 4095, 4095]"
1608810902164890268,,52506,,1608810902,187927142,'',23372,0,0,0,3242,65375,22,25,0,0,158,"[1604, 1741, 1465]","[1, 1]",0,0,"[4095, 4095, 4095, 4095]"
1608810902164935863,,52507,,1608810902,206692566,'',23392,0,0,0,3279,65411,23,26,0,0,158,"[1604, 1741, 1492]","[1, 2]",0,0,"[4095, 4095, 4095, 4095]"
1608810902182765515,,52508,,1608810902,226889312,'',23412,0,0,0,3316,65448,23,26,0,0,158,"[1604, 1761, 1492]","[1, 2]",0,0,"[4095, 4095, 4095, 4095]"
1608810902206547601,,52509,,1608810902,247665535,'',23432,0,0,0,3353,65486,23,26,0,0,158,"[1602, 1761, 1466]","[1, 2]",0,0,"[4095, 4095, 4095, 4095]"
1608810902243518007,,52510,,1608810902,266726974,'',23452,0,0,0,3389,65523,23,25,0,0,158,"[1593, 1760, 1468]","[1, 2]",0,0,"[4095, 4095, 4095, 4095]"
1608810902284382115,,52511,,1608810902,286761992,'',23472,0,0,0,3427,25,23,25,0,0,158,"[1601, 1738, 1489]","[1, 1]",0,0,"[4095, 4095, 4095, 4095]"
1608810902284411475,,52512,,1608810902,306625648,'',23492,0,0,0,3463,63,23,25,0,0,158,"[1605, 1738, 1490]","[1, 1]",0,0,"[4095, 4095, 4095, 4095]"
1608810902310643079,,52513,,1608810902,326648406,'',23512,0,0,0,3500,101,23,24,0,0,158,"[1605, 1733, 1490]","[1, 1]",0,0,"[4095, 4095, 4095, 4095]"
1608810902310656595,,52514,,1608810902,346820338,'',23532,0,0,0,3538,139,23,25,0,0,158,"[1602, 1740, 1469]","[1, 1]",0,0,"[4095, 4095, 4095, 4095]"
1608810902354188256,,52515,,1608810902,366549708,'',23552,0,0,0,3576,177,22,25,0,0,158,"[1613, 1740, 1493]","[1, 1]",0,0,"[4095, 4095, 4095, 4095]"
1608810902371125028,,52516,,1608810902,386662087,'',23572,0,0,0,3613,215,22,25,0,0,158,"[1613, 1740, 1493]","[1, 1]",0,0,"[4095, 4095, 4095, 4095]"
1608810902371189784,,52517,,1608810902,406661490,'',23592,0,0,0,3650,251,23,26,0,0,158,"[1608, 1761, 1470]","[1, 2]",0,0,"[4095, 4095, 4095, 4095]"
1608810902389374220,,52518,,1608810902,426632868,'',23612,0,0,0,3687,289,23,26,0,0,158,"[1608, 1761, 1470]","[1, 2]",0,0,"[4095, 4095, 4095, 4095]"
1608810902408468174,,52519,,1608810902,447134387,'',23632,0,0,0,3725,328,23,25,0,0,158,"[1604, 1737, 1466]","[1, 1]",0,0,"[4095, 4095, 4095, 4095]"
1608810902456436448,,52520,,1608810902,466798365,'',23652,0,0,0,3763,366,22,24,0,0,158,"[1604, 1738, 1466]","[1, 2]",0,0,"[4095, 4095, 4095, 4095]"
1608810902456542620,,52521,,1608810902,486805942,'',23672,0,0,0,3800,404,22,24,0,0,158,"[1626, 1738, 1466]","[1, 2]",0,0,"[4095, 4095, 4095, 4095]"
1608810902475343569,,52522,,1608810902,505853659,'',23692,0,0,0,3836,440,23,26,0,0,158,"[1631, 1732, 1468]","[1, 2]",0,0,"[4095, 4095, 4095, 4095]"
1608810902501578990,,52523,,1608810902,526727970,'',23712,0,0,0,3873,478,24,26,0,0,158,"[1631, 1735, 1493]","[1, 2]",0,0,"[4095, 4095, 4095, 4095]"
1608810902501606029,,52524,,1608810902,546768827,'',23732,0,0,0,3911,516,23,26,0,0,158,"[1608, 1735, 1493]","[2, 2]",0,0,"[4095, 4095, 4095, 4095]"
1608810902538571741,,52525,,1608810902,566745168,'',23752,0,0,0,3949,553,23,26,0,0,158,"[1585, 1739, 1488]","[1, 2]",0,0,"[4095, 4095, 4095, 4095]"
1608810902575766585,,52526,,1608810902,585799308,'',23772,0,0,0,3985,592,23,25,0,0,158,"[1602, 1739, 1488]","[1, 2]",0,0,"[4095, 4095, 4095, 4095]"
1608810902575801002,,52527,,1608810902,605864687,'',23792,0,0,0,4022,630,24,25,0,0,158,"[1608, 1715, 1488]","[1, 1]",0,0,"[4095, 4095, 4095, 4095]"
1608810902598801306,,52528,,1608810902,626171782,'',23812,0,0,0,4060,670,23,23,0,0,158,"[1608, 1737, 1471]","[1, 1]",0,0,"[4095, 4095, 4095, 4095]"
1608810902624295126,,52529,,1608810902,647878672,'',23832,0,0,0,4099,708,22,24,0,0,158,"[1612, 1738, 1471]","[1, 1]",0,0,"[4095, 4095, 4095, 4095]"
1608810902656309438,,52530,,1608810902,667364573,'',23852,0,0,0,4136,744,22,25,0,0,158,"[1612, 1738, 1472]","[1, 1]",0,0,"[4095, 4095, 4095, 4095]"
1608810902656367231,,52531,,1608810902,686907109,'',23872,0,0,0,4172,781,23,26,0,0,158,"[1605, 1739, 1472]","[1, 2]",0,0,"[4095, 4095, 4095, 4095]"
1608810902684108661,,52532,,1608810902,706974239,'',23892,0,0,0,4209,819,24,27,0,0,158,"[1581, 1741, 1473]","[1, 2]",0,0,"[4095, 4095, 4095, 4095]"
1608810902716441950,,52533,,1608810902,726827970,'',23912,0,0,0,4247,859,24,25,0,0,158,"[1604, 1741, 1473]","[1, 2]",0,0,"[4095, 4095, 4095, 4095]"
1608810902716449152,,52534,,1608810902,747892910,'',23932,0,0,0,4286,898,22,24,0,0,158,"[1633, 1737, 1468]","[1, 1]",0,0,"[4095, 4095, 4095, 4095]"
1608810902736641669,,52535,,1608810902,766699496,'',23952,0,0,0,4323,936,22,24,0,0,158,"[1633, 1737, 1468]","[1, 1]",0,0,"[4095, 4095, 4095, 4095]"
1608810902782275226,,52536,,1608810902,787031988,'',23972,0,0,0,4361,974,22,25,0,0,158,"[1633, 1738, 1469]","[1, 1]",0,0,"[4095, 4095, 4095, 4095]"
1608810902802826630,,52537,,1608810902,806997528,'',23992,0,0,0,4398,1012,23,25,0,0,158,"[1624, 1738, 1469]","[1, 1]",0,0,"[4095, 4095, 4095, 4095]"
1608810902802970980,,52538,,1608810902,829411175,'',24012,0,0,0,4436,1050,23,25,0,0,158,"[1624, 1737, 1469]","[1, 2]",0,0,"[4095, 4095, 4095, 4095]"
1608810902803013370,,52539,,1608810902,846091357,'',24032,0,0,0,4474,1088,23,25,0,0,158,"[1600, 1715, 1468]","[1, 2]",0,0,"[4095, 4095, 4095, 4095]"
1608810902818837195,,52540,,1608810902,866044635,'',24052,0,0,0,4512,1128,23,25,0,0,158,"[1589, 1734, 1470]","[1, 1]",0,0,"[4095, 4095, 4095, 4095]"
1608810902839036715,,52541,,1608810902,886048709,'',24072,0,0,0,4549,1166,23,25,0,0,158,"[1604, 1734, 1470]","[1, 2]",0,0,"[4095, 4095, 4095, 4095]"
1608810902863683177,,52542,,1608810902,906095405,'',24092,0,0,0,4587,1204,23,25,0,0,158,"[1607, 1735, 1466]","[1, 1]",0,0,"[4095, 4095, 4095, 4095]"
1608810902890728869,,52543,,1608810902,926143851,'',24112,0,0,0,4625,1244,24,24,0,0,158,"[1607, 1735, 1465]","[1, 1]",0,0,"[4095, 4095, 4095, 4095]"
1608810902904536578,,52544,,1608810902,946121068,'',24132,0,0,0,4663,1282,23,24,0,0,158,"[1603, 1757, 1471]","[1, 1]",0,0,"[4095, 4095, 4095, 4095]"
1608810902934840457,,52545,,1608810902,966131272,'',24152,0,0,0,4702,1320,23,25,0,0,158,"[1603, 1759, 1492]","[1, 1]",0,0,"[4095, 4095, 4095, 4095]"
1608810902953810480,,52546,,1608810902,986057985,'',24172,0,0,0,4740,1358,23,26,0,0,158,"[1598, 1759, 1492]","[1, 1]",0,0,"[4095, 4095, 4095, 4095]"
1608810902973100265,,52547,,1608810903,5994624,'',24192,0,0,0,4778,1396,23,26,0,0,158,"[1588, 1738, 1490]","[1, 1]",0,0,"[4095, 4095, 4095, 4095]"
1608810902997632750,,52548,,1608810903,26444612,'',24212,0,0,0,4816,1435,23,25,0,0,158,"[1626, 1763, 1490]","[1, 1]",0,0,"[4095, 4095, 4095, 4095]"
1608810903014332824,,52549,,1608810903,46144417,'',24232,0,0,0,4854,1474,23,25,0,0,158,"[1626, 1763, 1490]","[1, 1]",0,0,"[4095, 4095, 4095, 4095]"
1608810903040269710,,52550,,1608810903,66176401,'',24252,0,0,0,4892,1513,24,24,0,0,158,"[1626, 1743, 1489]","[1, 1]",0,0,"[4095, 4095, 4095, 4095]"
1608810903067721549,,52551,,1608810903,86389663,'',24272,0,0,0,4930,1551,24,25,0,0,158,"[1602, 1735, 1493]","[1, 1]",0,0,"[4095, 4095, 4095, 4095]"
1608810903067738385,,52552,,1608810903,105287271,'',24292,0,0,0,4969,1590,23,25,0,0,158,"[1601, 1735, 1493]","[1, 1]",0,0,"[4095, 4095, 4095, 4095]"
1608810903108583082,,52553,,1608810903,126266515,'',24312,0,0,0,5008,1628,23,25,0,0,158,"[1612, 1762, 1472]","[1, 1]",0,0,"[4095, 4095, 4095, 4095]"
1608810903133209002,,52554,,1608810903,146158089,'',24332,0,0,0,5046,1666,23,25,0,0,158,"[1612, 1762, 1489]","[1, 2]",0,0,"[4095, 4095, 4095, 4095]"
1608810903133246946,,52555,,1608810903,166142199,'',24352,0,0,0,5085,1704,23,26,0,0,158,"[1583, 1761, 1489]","[1, 2]",0,0,"[4095, 4095, 4095, 4095]"
1608810903164745995,,52556,,1608810903,185312454,'',24372,0,0,0,5123,1743,23,26,0,0,158,"[1603, 1761, 1487]","[1, 2]",0,0,"[4095, 4095, 4095, 4095]"
1608810903186523936,,52557,,1608810903,205437850,'',24392,0,0,0,5161,1782,24,25,0,0,158,"[1603, 1761, 1487]","[1, 1]",0,0,"[4095, 4095, 4095, 4095]"
1608810903186537433,,52558,,1608810903,226225890,'',24412,0,0,0,5200,1821,24,25,0,0,158,"[1602, 1761, 1467]","[1, 2]",0,0,"[4095, 4095, 4095, 4095]"
1608810903210104817,,52559,,1608810903,245447231,'',24432,0,0,0,5239,1860,23,25,0,0,158,"[1598, 1738, 1492]","[1, 1]",0,0,"[4095, 4095, 4095, 4095]"
1608810903233496092,,52560,,1608810903,265313991,'',24452,0,0,0,5278,1899,23,25,0,0,158,"[1610, 1738, 1492]","[1, 1]",0,0,"[4095, 4095, 4095, 4095]"
1608810903251431612,,52561,,1608810903,285346559,'',24472,0,0,0,5316,1938,23,25,0,0,158,"[1610, 1761, 1491]","[1, 2]",0,0,"[4095, 4095, 4095, 4095]"
1608810903270731174,,52562,,1608810903,305361320,'',24492,0,0,0,5355,1976,23,26,0,0,158,"[1585, 1761, 1492]","[1, 2]",0,0,"[4095, 4095, 4095, 4095]"
1608810903296659518,,52563,,1608810903,326355160,'',24512,0,0,0,5393,2015,24,26,0,0,158,"[1579, 1761, 1492]","[1, 2]",0,0,"[4095, 4095, 4095, 4095]"
1608810903309391973,,52564,,1608810903,345981092,'',24532,0,0,0,5432,2053,23,26,0,0,158,"[1609, 1758, 1490]","[1, 2]",0,0,"[4095, 4095, 4095, 4095]"
1608810903330424585,,52565,,1608810903,365902441,'',24552,0,0,0,5471,2093,23,25,0,0,158,"[1609, 1765, 1490]","[1, 2]",0,0,"[4095, 4095, 4095, 4095]"
1608810903352503076,,52566,,1608810903,385369572,'',24572,0,0,0,5510,2132,23,25,0,0,158,"[1602, 1765, 1492]","[1, 2]",0,0,"[4095, 4095, 4095, 4095]"
1608810903372162273,,52567,,1608810903,405497304,'',24592,0,0,0,5549,2172,23,24,0,0,158,"[1592, 1741, 1492]","[1, 1]",0,0,"[4095, 4095, 4095, 4095]"
1608810903391002968,,52568,,1608810903,426443853,'',24612,0,0,0,5588,2212,23,25,0,0,158,"[1606, 1761, 1484]","[1, 1]",0,0,"[4095, 4095, 4095, 4095]"
1608810903422539909,,52569,,1608810903,445627536,'',24632,0,0,0,5627,2250,23,25,0,0,158,"[1606, 1761, 1494]","[1, 1]",0,0,"[4095, 4095, 4095, 4095]"
1608810903422583115,,52570,,1608810903,465833501,'',24652,0,0,0,5665,2288,24,26,0,0,158,"[1580, 1759, 1494]","[1, 2]",0,0,"[4095, 4095, 4095, 4095]"
1608810903549295285,,52571,,1608810903,485567441,'',24672,0,0,0,5704,2329,24,25,0,0,158,"[1614, 1759, 1511]","[1, 1]",0,0,"[4095, 4095, 4095, 4095]"
1608810903549374594,,52572,,1608810903,505503677,'',24692,0,0,0,5743,2369,24,24,0,0,158,"[1614, 1757, 1511]","[1, 1]",0,0,"[4095, 4095, 4095, 4095]"
1608810903579819474,,52573,,1608810903,525606888,'',24712,0,0,0,5782,2407,23,24,0,0,158,"[1610, 1760, 1511]","[1, 1]",0,0,"[4095, 4095, 4095, 4095]"
1608810903579978762,,52574,,1608810903,545673318,'',24732,0,0,0,5821,2446,23,25,0,0,158,"[1606, 1760, 1493]","[1, 2]",0,0,"[4095, 4095, 4095, 4095]"
1608810903579993041,,52575,,1608810903,566557106,'',24752,0,0,0,5860,2485,23,26,0,0,158,"[1598, 1760, 1492]","[1, 2]",0,0,"[4095, 4095, 4095, 4095]"
1608810903580004233,,52576,,1608810903,586428829,'',24772,0,0,0,5899,2524,24,26,0,0,158,"[1598, 1737, 1493]","[1, 2]",0,0,"[4095, 4095, 4095, 4095]"
1608810903580057720,,52577,,1608810903,605719645,'',24792,0,0,0,5937,2562,24,26,0,0,158,"[1598, 1737, 1493]","[1, 2]",0,0,"[4095, 4095, 4095, 4095]"
1608810903608845170,,52578,,1608810903,627390723,'',24812,0,0,0,5976,2602,24,26,0,0,158,"[1591, 1763, 1489]","[1, 2]",0,0,"[4095, 4095, 4095, 4095]"
1608810903608938290,,52579,,1608810903,646812608,'',24832,0,0,0,6015,2642,24,25,0,0,158,"[1622, 1763, 1481]","[2, 2]",0,0,"[4095, 4095, 4095, 4095]"
1608810903628378132,,52580,,1608810903,665703210,'',24852,0,0,0,6054,2682,24,24,0,0,158,"[1622, 1759, 1491]","[1, 1]",0,0,"[4095, 4095, 4095, 4095]"
1608810903668894857,,52581,,1608810903,685757380,'',24872,0,0,0,6094,2722,23,24,0,0,158,"[1606, 1761, 1491]","[1, 1]",0,0,"[4095, 4095, 4095, 4095]"
1608810903668948252,,52582,,1608810903,705723099,'',24892,0,0,0,6134,2760,23,25,0,0,158,"[1580, 1762, 1490]","[1, 1]",0,0,"[4095, 4095, 4095, 4095]"
1608810903709385450,,52583,,1608810903,726655637,'',24912,0,0,0,6173,2800,23,25,0,0,158,"[1606, 1762, 1490]","[1, 1]",0,0,"[4095, 4095, 4095, 4095]"
1608810903709482739,,52584,,1608810903,745841363,'',24932,0,0,0,6212,2840,23,25,0,0,158,"[1606, 1739, 1490]","[1, 2]",0,0,"[4095, 4095, 4095, 4095]"
1608810903742864281,,52585,,1608810903,765662878,'',24952,0,0,0,6250,2879,24,25,0,0,158,"[1606, 1739, 1490]","[1, 1]",0,0,"[4095, 4095, 4095, 4095]"
1608810903768354100,,52586,,1608810903,787208433,'',24972,0,0,0,6290,2918,24,25,0,0,158,"[1604, 1739, 1489]","[1, 1]",0,0,"[4095, 4095, 4095, 4095]"
1608810903768419019,,52587,,1608810903,805685394,'',24992,0,0,0,6329,2958,24,25,0,0,158,"[1604, 1737, 1491]","[1, 1]",0,0,"[4095, 4095, 4095, 4095]"
1608810903807602804,,52588,,1608810903,826716014,'',25012,0,0,0,6368,2999,24,24,0,0,158,"[1603, 1737, 1491]","[2, 1]",0,0,"[4095, 4095, 4095, 4095]"
1608810903807686697,,52589,,1608810903,846522057,'',25032,0,0,0,6408,3038,24,24,0,0,158,"[1581, 1735, 1487]","[1, 1]",0,0,"[4095, 4095, 4095, 4095]"
1608810903834844262,,52590,,1608810903,865788644,'',25052,0,0,0,6447,3076,24,25,0,0,158,"[1575, 1759, 1489]","[1, 1]",0,0,"[4095, 4095, 4095, 4095]"
1608810903874245001,,52591,,1608810903,886065835,'',25072,0,0,0,6487,3115,23,26,0,0,158,"[1613, 1759, 1489]","[1, 1]",0,0,"[4095, 4095, 4095, 4095]"
1608810903901851763,,52592,,1608810903,905720667,'',25092,0,0,0,6526,3155,24,26,0,0,158,"[1613, 1755, 1491]","[1, 1]",0,0,"[4095, 4095, 4095, 4095]"
1608810903901877971,,52593,,1608810903,926401867,'',25112,0,0,0,6565,3196,24,24,0,0,158,"[1607, 1738, 1491]","[1, 2]",0,0,"[4095, 4095, 4095, 4095]"
1608810903901952565,,52594,,1608810903,946148943,'',25132,0,0,0,6604,3236,24,24,0,0,158,"[1603, 1738, 1466]","[1, 1]",0,0,"[4095, 4095, 4095, 4095]"
1608810903925546365,,52595,,1608810903,966918885,'',25152,0,0,0,6643,3275,25,25,0,0,158,"[1605, 1733, 1469]","[1, 1]",0,0,"[4095, 4095, 4095, 4095]"
1608810903948537571,,52596,,1608810903,988195880,'',25172,0,0,0,6683,3315,24,25,0,0,158,"[1605, 1716, 1469]","[1, 1]",0,0,"[4095, 4095, 4095, 4095]"
1608810903974921913,,52597,,1608810904,8541671,'',25192,0,0,0,6722,3354,24,26,0,0,158,"[1588, 1715, 1467]","[1, 1]",0,0,"[4095, 4095, 4095, 4095]"
1608810904008972119,,52598,,1608810904,27843851,'',25212,0,0,0,6761,3394,24,25,0,0,158,"[1603, 1714, 1470]","[2, 1]",0,0,"[4095, 4095, 4095, 4095]"
1608810904008999503,,52599,,1608810904,46362931,'',25232,0,0,0,6801,3435,24,25,0,0,158,"[1605, 1714, 1470]","[1, 2]",0,0,"[4095, 4095, 4095, 4095]"
1608810904028540571,,52600,,1608810904,65899568,'',25252,0,0,0,6841,3474,24,25,0,0,158,"[1605, 1710, 1467]","[1, 2]",0,0,"[4095, 4095, 4095, 4095]"
1608810904051306674,,52601,,1608810904,86809307,'',25272,0,0,0,6880,3515,24,24,0,0,158,"[1602, 1737, 1467]","[1, 1]",0,0,"[4095, 4095, 4095, 4095]"
1608810904083182828,,52602,,1608810904,105899044,'',25292,0,0,0,6920,3555,24,25,0,0,158,"[1602, 1737, 1467]","[1, 1]",0,0,"[4095, 4095, 4095, 4095]"
1608810904083306204,,52603,,1608810904,125781875,'',25312,0,0,0,6960,3594,24,25,0,0,158,"[1600, 1736, 1467]","[1, 1]",0,0,"[4095, 4095, 4095, 4095]"
1608810904114171932,,52604,,1608810904,145865534,'',25332,0,0,0,7000,3634,24,25,0,0,158,"[1576, 1714, 1466]","[1, 1]",0,0,"[4095, 4095, 4095, 4095]"
1608810904142803276,,52605,,1608810904,165856369,'',25352,0,0,0,7039,3673,24,26,0,0,158,"[1581, 1714, 1468]","[1, 1]",0,0,"[4095, 4095, 4095, 4095]"
1608810904168577745,,52606,,1608810904,186650224,'',25372,0,0,0,7079,3714,24,25,0,0,158,"[1605, 1714, 1468]","[1, 1]",0,0,"[4095, 4095, 4095, 4095]"
1608810904170104146,,52607,,1608810904,204895491,'',25392,0,0,0,7118,3754,25,25,0,0,158,"[1605, 1715, 1462]","[1, 1]",0,0,"[4095, 4095, 4095, 4095]"
1608810904192421780,,52608,,1608810904,224921354,'',25412,0,0,0,7157,3793,25,25,0,0,158,"[1581, 1715, 1465]","[2, 1]",0,0,"[4095, 4095, 4095, 4095]"
1608810904219860590,,52609,,1608810904,244874825,'',25432,0,0,0,7197,3834,25,25,0,0,158,"[1602, 1713, 1468]","[1, 1]",0,0,"[4095, 4095, 4095, 4095]"
1608810904219871508,,52610,,1608810904,264738391,'',25452,0,0,0,7236,3875,25,25,0,0,158,"[1611, 1716, 1470]","[2, 1]",0,0,"[4095, 4095, 4095, 4095]"
1608810904239661690,,52611,,1608810904,284005020,'',25472,0,0,0,7277,3914,24,25,0,0,158,"[1611, 1716, 1470]","[1, 1]",0,0,"[4095, 4095, 4095, 4095]"
1608810904254752320,,52612,,1608810904,304908629,'',25492,0,0,0,7317,3954,24,25,0,0,158,"[1562, 1712, 1465]","[1, 1]",0,0,"[4095, 4095, 4095, 4095]"
1608810904282221816,,52613,,1608810904,324873777,'',25512,0,0,0,7358,3995,23,25,0,0,158,"[1577, 1713, 1468]","[1, 1]",0,0,"[4095, 4095, 4095, 4095]"
1608810904301182007,,52614,,1608810904,344875120,'',25532,0,0,0,7397,4035,24,25,0,0,158,"[1612, 1713, 1468]","[1, 1]",0,0,"[4095, 4095, 4095, 4095]"
1608810904336319469,,52615,,1608810904,364089206,'',25552,0,0,0,7437,4076,24,24,0,0,158,"[1612, 1714, 1464]","[1, 1]",0,0,"[4095, 4095, 4095, 4095]"
1608810904356070886,,52616,,1608810904,383941096,'',25572,0,0,0,7477,4116,24,25,0,0,158,"[1611, 1714, 1463]","[1, 1]",0,0,"[4095, 4095, 4095, 4095]"
1608810904401545845,,52617,,1608810904,404933443,'',25592,0,0,0,7517,4156,24,25,0,0,158,"[1611, 1695, 1463]","[1, 1]",0,0,"[4095, 4095, 4095, 4095]"
1608810904401628087,,52618,,1608810904,423850375,'',25612,0,0,0,7558,4197,24,25,0,0,158,"[1611, 1715, 1460]","[1, 1]",0,0,"[4095, 4095, 4095, 4095]"
1608810904444467229,,52619,,1608810904,444168139,'',25632,0,0,0,7598,4238,24,25,0,0,158,"[1601, 1715, 1469]","[1, 1]",0,0,"[4095, 4095, 4095, 4095]"
1608810904444483227,,52620,,1608810904,463863278,'',25652,0,0,0,7638,4277,24,25,0,0,158,"[1560, 1712, 1469]","[1, 1]",0,0,"[4095, 4095, 4095, 4095]"
1608810904444863343,,52621,,1608810904,483861410,'',25672,0,0,0,7677,4316,25,26,0,0,158,"[1600, 1737, 1465]","[1, 2]",0,0,"[4095, 4095, 4095, 4095]"
1608810904458827993,,52622,,1608810904,504965555,'',25692,0,0,0,7718,4358,24,26,0,0,158,"[1600, 1737, 1468]","[1, 1]",0,0,"[4095, 4095, 4095, 4095]"
1608810904486316229,,52623,,1608810904,523806300,'',25712,0,0,0,7758,4398,24,25,0,0,158,"[1580, 1737, 1486]","[1, 1]",0,0,"[4095, 4095, 4095, 4095]"
1608810904520590730,,52624,,1608810904,544080279,'',25732,0,0,0,7799,4439,24,24,0,0,158,"[1607, 1736, 1488]","[1, 1]",0,0,"[4095, 4095, 4095, 4095]"
1608810904520687140,,52625,,1608810904,563799646,'',25752,0,0,0,7840,4478,24,25,0,0,158,"[1607, 1713, 1488]","[1, 1]",0,0,"[4095, 4095, 4095, 4095]"
1608810904566478046,,52626,,1608810904,583840980,'',25772,0,0,0,7881,4518,24,25,0,0,158,"[1607, 1715, 1496]","[1, 1]",0,0,"[4095, 4095, 4095, 4095]"
1608810904614635490,,52627,,1608810904,604872149,'',25792,0,0,0,7921,4559,24,25,0,0,158,"[1563, 1735, 1496]","[1, 1]",0,0,"[4095, 4095, 4095, 4095]"
1608810904614895335,,52628,,1608810904,623862056,'',25812,0,0,0,7961,4598,25,25,0,0,158,"[1565, 1735, 1494]","[1, 2]",0,0,"[4095, 4095, 4095, 4095]"
1608810904641959860,,52629,,1608810904,643935791,'',25832,0,0,0,8001,4637,25,26,0,0,158,"[1589, 1736, 1494]","[2, 2]",0,0,"[4095, 4095, 4095, 4095]"
1608810904641973890,,52630,,1608810904,665104154,'',25852,0,0,0,8041,4677,25,26,0,0,158,"[1589, 1738, 1491]","[2, 2]",0,0,"[4095, 4095, 4095, 4095]"
1608810904642011602,,52631,,1608810904,684822061,'',25872,0,0,0,8081,4718,25,25,0,0,158,"[1587, 1738, 1491]","[1, 1]",0,0,"[4095, 4095, 4095, 4095]"
1608810904667922949,,52632,,1608810904,706127034,'',25892,0,0,0,8123,4761,24,23,0,0,158,"[1606, 1733, 1491]","[1, 1]",0,0,"[4095, 4095, 4095, 4095]"
1608810904699765071,,52633,,1608810904,725090670,'',25912,0,0,0,8165,4801,23,24,0,0,158,"[1606, 1714, 1464]","[1, 1]",0,0,"[4095, 4095, 4095, 4095]"
1608810904737619229,,52634,,1608810904,745173453,'',25932,0,0,0,8205,4842,23,24,0,0,158,"[1595, 1713, 1489]","[1, 1]",0,0,"[4095, 4095, 4095, 4095]"
1608810904737631597,,52635,,1608810904,765147942,'',25952,0,0,0,8245,4882,24,25,0,0,158,"[1568, 1738, 1489]","[1, 1]",0,0,"[4095, 4095, 4095, 4095]"
1608810904765886325,,52636,,1608810904,784970058,'',25972,0,0,0,8285,4923,25,25,0,0,158,"[1606, 1738, 1494]","[1, 1]",0,0,"[4095, 4095, 4095, 4095]"
1608810904765894686,,52637,,1608810904,805093708,'',25992,0,0,0,8326,4964,25,25,0,0,158,"[1606, 1692, 1494]","[1, 2]",0,0,"[4095, 4095, 4095, 4095]"
1608810904798294040,,52638,,1608810904,825092132,'',26012,0,0,0,8368,5004,24,25,0,0,158,"[1591, 1738, 1487]","[1, 1]",0,0,"[4095, 4095, 4095, 4095]"
1608810904821659375,,52639,,1608810904,845164699,'',26032,0,0,0,8409,5044,24,25,0,0,158,"[1581, 1738, 1469]","[1, 1]",0,0,"[4095, 4095, 4095, 4095]"
1608810904821707809,,52640,,1608810904,863939766,'',26052,0,0,0,8449,5085,24,25,0,0,158,"[1601, 1733, 1469]","[1, 1]",0,0,"[4095, 4095, 4095, 4095]"
1608810904843831018,,52641,,1608810904,883930017,'',26072,0,0,0,8489,5126,25,25,0,0,158,"[1601, 1714, 1492]","[2, 1]",0,0,"[4095, 4095, 4095, 4095]"
1608810904881447022,,52642,,1608810904,903973103,'',26092,0,0,0,8530,5167,25,24,0,0,158,"[1601, 1714, 1492]","[2, 1]",0,0,"[4095, 4095, 4095, 4095]"
1608810904904652960,,52643,,1608810904,928644569,'',26112,0,0,0,8570,5207,25,25,0,0,158,"[1566, 1737, 1486]","[1, 1]",0,0,"[4095, 4095, 4095, 4095]"
1608810904932899961,,52644,,1608810904,944025704,'',26132,0,0,0,8611,5247,25,25,0,0,158,"[1578, 1737, 1493]","[1, 1]",0,0,"[4095, 4095, 4095, 4095]"
1608810904932985677,,52645,,1608810904,971213940,'',26152,0,0,0,8651,5289,25,25,0,0,158,"[1578, 1716, 1501]","[1, 1]",0,0,"[4095, 4095, 4095, 4095]"
1608810904968478523,,52646,,1608810904,983142180,'',26172,0,0,0,8693,5330,24,24,0,0,158,"[1578, 1741, 1501]","[1, 1]",0,0,"[4095, 4095, 4095, 4095]"
1608810904968581288,,52647,,1608810905,3836788,'',26192,0,0,0,8735,5372,24,24,0,0,158,"[1562, 1741, 1495]","[1, 1]",0,0,"[4095, 4095, 4095, 4095]"
1608810905004247045,,52648,,1608810905,22690286,'',26212,0,0,0,8777,5412,23,24,0,0,158,"[1590, 1737, 1495]","[1, 1]",0,0,"[4095, 4095, 4095, 4095]"
1608810905004428179,,52649,,1608810905,42443067,'',26232,0,0,0,8817,5452,24,25,0,0,158,"[1590, 1735, 1495]","[1, 1]",0,0,"[4095, 4095, 4095, 4095]"
1608810905026693561,,52650,,1608810905,62426725,'',26252,0,0,0,8857,5494,25,25,0,0,158,"[1583, 1735, 1495]","[1, 1]",0,0,"[4095, 4095, 4095, 4095]"
1608810905062181932,,52651,,1608810905,82484521,'',26272,0,0,0,8898,5536,25,24,0,0,158,"[1607, 1737, 1499]","[1, 1]",0,0,"[4095, 4095, 4095, 4095]"
1608810905087311439,,52652,,1608810905,105439032,'',26292,0,0,0,8940,5578,24,23,0,0,158,"[1607, 1738, 1499]","[1, 1]",0,0,"[4095, 4095, 4095, 4095]"
1608810905087383860,,52653,,1608810905,123800365,'',26312,0,0,0,8981,5618,24,24,0,0,158,"[1601, 1738, 1492]","[1, 1]",0,0,"[4095, 4095, 4095, 4095]"
1608810905110408970,,52654,,1608810905,143694411,'',26332,0,0,0,9022,5658,24,25,0,0,158,"[1586, 1716, 1490]","[1, 1]",0,0,"[4095, 4095, 4095, 4095]"
1608810905141457986,,52655,,1608810905,163790153,'',26352,0,0,0,9062,5699,25,26,0,0,158,"[1586, 1736, 1491]","[1, 1]",0,0,"[4095, 4095, 4095, 4095]"
1608810905166981774,,52656,,1608810905,187740009,'',26372,0,0,0,9104,5739,25,26,0,0,158,"[1606, 1736, 1494]","[2, 1]",0,0,"[4095, 4095, 4095, 4095]"
1608810905167090636,,52657,,1608810905,203064227,'',26392,0,0,0,9145,5781,25,25,0,0,158,"[1606, 1715, 1494]","[2, 1]",0,0,"[4095, 4095, 4095, 4095]"
1608810905192235746,,52658,,1608810905,223081451,'',26412,0,0,0,9186,5823,24,24,0,0,158,"[1577, 1736, 1489]","[2, 1]",0,0,"[4095, 4095, 4095, 4095]"
1608810905192381638,,52659,,1608810905,243130198,'',26432,0,0,0,9227,5864,25,24,0,0,158,"[1600, 1756, 1469]","[2, 1]",0,0,"[4095, 4095, 4095, 4095]"
1608810905218587264,,52660,,1608810905,263244330,'',26452,0,0,0,9267,5905,25,24,0,0,158,"[1606, 1757, 1468]","[2, 1]",0,0,"[4095, 4095, 4095, 4095]"
1608810905297193180,,52661,,1608810905,284407221,'',26472,0,0,0,9309,5946,25,25,0,0,158,"[1606, 1757, 1465]","[1, 1]",0,0,"[4095, 4095, 4095, 4095]"
1608810905320814986,,52662,,1608810905,303136335,'',26492,0,0,0,9349,5986,25,25,0,0,158,"[1570, 1733, 1491]","[2, 1]",0,0,"[4095, 4095, 4095, 4095]"
1608810905320864316,,52663,,1608810905,323226239,'',26512,0,0,0,9390,6028,25,25,0,0,158,"[1579, 1735, 1491]","[2, 1]",0,0,"[4095, 4095, 4095, 4095]"
1608810905320894233,,52664,,1608810905,346506499,'',26532,0,0,0,9431,6069,25,25,0,0,158,"[1602, 1735, 1487]","[2, 1]",0,0,"[4095, 4095, 4095, 4095]"
1608810905321110453,,52665,,1608810905,364716049,'',26552,0,0,0,9471,6111,25,24,0,0,158,"[1602, 1735, 1489]","[2, 1]",0,0,"[4095, 4095, 4095, 4095]"
1608810905357897286,,52666,,1608810905,382913047,'',26572,0,0,0,9513,6152,25,25,0,0,158,"[1606, 1737, 1489]","[1, 1]",0,0,"[4095, 4095, 4095, 4095]"
1608810905384845569,,52667,,1608810905,402673700,'',26592,0,0,0,9555,6194,24,24,0,0,158,"[1611, 1737, 1492]","[1, 1]",0,0,"[4095, 4095, 4095, 4095]"
1608810905384892307,,52668,,1608810905,422717194,'',26612,0,0,0,9597,6235,24,25,0,0,158,"[1611, 1741, 1492]","[1, 1]",0,0,"[4095, 4095, 4095, 4095]"
1608810905423223393,,52669,,1608810905,441645376,'',26632,0,0,0,9638,6276,24,25,0,0,158,"[1601, 1741, 1489]","[1, 1]",0,0,"[4095, 4095, 4095, 4095]"
1608810905423300639,,52670,,1608810905,461645670,'',26652,0,0,0,9679,6317,25,25,0,0,158,"[1581, 1741, 1491]","[1, 1]",0,0,"[4095, 4095, 4095, 4095]"
1608810905455478103,,52671,,1608810905,482698227,'',26672,0,0,0,9720,6359,25,25,0,0,158,"[1599, 1739, 1491]","[1, 1]",0,0,"[4095, 4095, 4095, 4095]"
1608810905472541896,,52672,,1608810905,502496242,'',26692,0,0,0,9761,6400,25,25,0,0,158,"[1602, 1739, 1472]","[1, 1]",0,0,"[4095, 4095, 4095, 4095]"
1608810905489863190,,52673,,1608810905,521741416,'',26712,0,0,0,9802,6441,25,25,0,0,158,"[1602, 1739, 1472]","[1, 1]",0,0,"[4095, 4095, 4095, 4095]"
1608810905504280526,,52674,,1608810905,541683332,'',26732,0,0,0,9843,6482,25,25,0,0,158,"[1609, 1739, 1488]","[1, 1]",0,0,"[4095, 4095, 4095, 4095]"
1608810905528155658,,52675,,1608810905,561500903,'',26752,0,0,0,9885,6524,25,25,0,0,158,"[1609, 1739, 1491]","[1, 2]",0,0,"[4095, 4095, 4095, 4095]"
