rosbagTimestamp,header,seq,stamp,secs,nsecs,frame_id,name,position,velocity,effort
1608810897789052017,,114883,,1608810897,572933042,'',"[wheel_left_joint, wheel_right_joint]","[763.0912559023127, 898.6252580978908]","[0.0, 0.0]","[0.0, 0.0]"
1608810897789058476,,114884,,1608810897,591889242,'',"[wheel_left_joint, wheel_right_joint]","[763.0912559023127, 898.6252580978908]","[0.0, 0.0]","[0.0, 0.0]"
1608810897789066828,,114885,,1608810897,613559264,'',"[wheel_left_joint, wheel_right_joint]","[763.0912559023127, 898.6252580978908]","[0.0, 0.0]","[0.0, 0.0]"
1608810897789078928,,114886,,1608810897,633438450,'',"[wheel_left_joint, wheel_right_joint]","[763.0912559023127, 898.6252580978908]","[0.0, 0.0]","[0.0, 0.0]"
1608810897789096923,,114887,,1608810897,655962029,'',"[wheel_left_joint, wheel_right_joint]","[763.0912559023127, 898.6252580978908]","[0.0, 0.0]","[0.0, 0.0]"
1608810897817099890,,114888,,1608810897,675443608,'',"[wheel_left_joint, wheel_right_joint]","[763.0912559023127, 898.6252580978908]","[0.0, 0.0]","[0.0, 0.0]"
1608810897817107855,,114889,,1608810897,694177231,'',"[wheel_left_joint, wheel_right_joint]","[763.0912559023127, 898.6252580978908]","[0.0, 0.0]","[0.0, 0.0]"
1608810897817114548,,114890,,1608810897,714190605,'',"[wheel_left_joint, wheel_right_joint]","[763.0912559023127, 898.6252580978908]","[0.0, 0.0]","[0.0, 0.0]"
1608810897817134742,,114891,,1608810897,734355963,'',"[wheel_left_joint, wheel_right_joint]","[763.0912559023127, 898.6252580978908]","[0.0, 0.0]","[0.0, 0.0]"
1608810897817142238,,114892,,1608810897,754387716,'',"[wheel_left_joint, wheel_right_joint]","[763.0912559023127, 898.6252580978908]","[0.0, 0.0]","[0.0, 0.0]"
1608810897817151929,,114893,,1608810897,775630376,'',"[wheel_left_joint, wheel_right_joint]","[763.0912559023127, 898.6252580978908]","[0.0, 0.0]","[0.0, 0.0]"
1608810897817184906,,114894,,1608810897,794568199,'',"[wheel_left_joint, wheel_right_joint]","[763.0912559023127, 898.6252580978908]","[0.0, 0.0]","[0.0, 0.0]"
1608810897817193273,,114895,,1608810897,815168503,'',"[wheel_left_joint, wheel_right_joint]","[763.0912559023127, 898.6252580978908]","[0.0, 0.0]","[0.0, 0.0]"
1608810897846926710,,114896,,1608810897,836797102,'',"[wheel_left_joint, wheel_right_joint]","[763.0912559023127, 898.6252580978908]","[0.0, 0.0]","[0.0, 0.0]"
1608810897846957672,,114897,,1608810897,854059607,'',"[wheel_left_joint, wheel_right_joint]","[763.0912559023127, 898.6252580978908]","[0.0, 0.0]","[0.0, 0.0]"
1608810897878659070,,114898,,1608810897,874193752,'',"[wheel_left_joint, wheel_right_joint]","[763.0912559023127, 898.6252580978908]","[0.0, 0.0]","[0.0, 0.0]"
1608810897901709145,,114899,,1608810897,895079353,'',"[wheel_left_joint, wheel_right_joint]","[763.0912559023127, 898.6252580978908]","[0.0, 0.0]","[0.0, 0.0]"
1608810897926353176,,114900,,1608810897,916373063,'',"[wheel_left_joint, wheel_right_joint]","[763.0912559023127, 898.6252580978908]","[0.0, 0.0]","[0.0, 0.0]"
1608810897926360216,,114901,,1608810897,935787548,'',"[wheel_left_joint, wheel_right_joint]","[763.0912559023127, 898.6252580978908]","[0.0, 0.0]","[0.0, 0.0]"
1608810897959489004,,114902,,1608810897,954941531,'',"[wheel_left_joint, wheel_right_joint]","[763.0912559023127, 898.6252580978908]","[0.0, 0.0]","[0.0, 0.0]"
1608810897983810757,,114903,,1608810897,977289206,'',"[wheel_left_joint, wheel_right_joint]","[763.0912559023127, 898.6252580978908]","[0.0, 0.0]","[0.0, 0.0]"
1608810897983819513,,114904,,1608810897,994069799,'',"[wheel_left_joint, wheel_right_joint]","[763.0912559023127, 898.6252580978908]","[0.0, 0.0]","[0.0, 0.0]"
1608810897998974126,,114905,,1608810898,14059541,'',"[wheel_left_joint, wheel_right_joint]","[763.0912559023127, 898.6252580978908]","[0.0, 0.0]","[0.0, 0.0]"
1608810898031431533,,114906,,1608810898,35180254,'',"[wheel_left_joint, wheel_right_joint]","[763.0912559023127, 898.6252580978908]","[0.0, 0.0]","[0.0, 0.0]"
1608810898045620997,,114907,,1608810898,54130611,'',"[wheel_left_joint, wheel_right_joint]","[763.0912559023127, 898.6252580978908]","[0.0, 0.0]","[0.0, 0.0]"
1608810898061163024,,114908,,1608810898,74117138,'',"[wheel_left_joint, wheel_right_joint]","[763.0912559023127, 898.6252580978908]","[0.0, 0.0]","[0.0, 0.0]"
1608810898075551749,,114909,,1608810898,94061950,'',"[wheel_left_joint, wheel_right_joint]","[763.0912559023127, 898.6252580978908]","[0.0, 0.0]","[0.0, 0.0]"
1608810898095949042,,114910,,1608810898,114095735,'',"[wheel_left_joint, wheel_right_joint]","[763.0912559023127, 898.6252580978908]","[0.0, 0.0]","[0.0, 0.0]"
1608810898120673832,,114911,,1608810898,134099765,'',"[wheel_left_joint, wheel_right_joint]","[763.0912559023127, 898.6252580978908]","[0.0, 0.0]","[0.0, 0.0]"
1608810898141797606,,114912,,1608810898,155094457,'',"[wheel_left_joint, wheel_right_joint]","[763.0912559023127, 898.6252580978908]","[0.0, 0.0]","[0.0, 0.0]"
1608810898159390090,,114913,,1608810898,175258055,'',"[wheel_left_joint, wheel_right_joint]","[763.0912559023127, 898.6252580978908]","[0.0, 0.0]","[0.0, 0.0]"
1608810898192697339,,114914,,1608810898,195147441,'',"[wheel_left_joint, wheel_right_joint]","[763.0912559023127, 898.6252580978908]","[0.0, 0.0]","[0.0, 0.0]"
1608810898226312340,,114915,,1608810898,215172766,'',"[wheel_left_joint, wheel_right_joint]","[763.0912559023127, 898.6252580978908]","[0.0, 0.0]","[0.0, 0.0]"
1608810898252423826,,114916,,1608810898,236358531,'',"[wheel_left_joint, wheel_right_joint]","[763.0912559023127, 898.6252580978908]","[0.0, 0.0]","[0.0, 0.0]"
1608810898252515139,,114917,,1608810898,255865188,'',"[wheel_left_joint, wheel_right_joint]","[763.0912559023127, 898.6252580978908]","[0.0, 0.0]","[0.0, 0.0]"
1608810898285277892,,114918,,1608810898,276753988,'',"[wheel_left_joint, wheel_right_joint]","[763.0912559023127, 898.6252580978908]","[0.0, 0.0]","[0.0, 0.0]"
1608810898285310229,,114919,,1608810898,295870914,'',"[wheel_left_joint, wheel_right_joint]","[763.0912559023127, 898.6252580978908]","[0.0, 0.0]","[0.0, 0.0]"
1608810898316469422,,114920,,1608810898,315926577,'',"[wheel_left_joint, wheel_right_joint]","[763.0912559023127, 898.6252580978908]","[0.0, 0.0]","[0.0, 0.0]"
1608810898343911804,,114921,,1608810898,335908728,'',"[wheel_left_joint, wheel_right_joint]","[763.0912559023127, 898.6252580978908]","[0.0, 0.0]","[0.0, 0.0]"
1608810898369826137,,114922,,1608810898,356098581,'',"[wheel_left_joint, wheel_right_joint]","[763.0912559023127, 898.6252580978908]","[0.0, 0.0]","[0.0, 0.0]"
1608810898369879113,,114923,,1608810898,375885867,'',"[wheel_left_joint, wheel_right_joint]","[763.0912559023127, 898.6252580978908]","[0.0, 0.0]","[0.0, 0.0]"
1608810898399604827,,114924,,1608810898,395863059,'',"[wheel_left_joint, wheel_right_joint]","[763.0912559023127, 898.6252580978908]","[0.0, 0.0]","[0.0, 0.0]"
1608810898423172996,,114925,,1608810898,416750108,'',"[wheel_left_joint, wheel_right_joint]","[763.0912559023127, 898.6252580978908]","[0.0, 0.0]","[0.0, 0.0]"
1608810898456481045,,114926,,1608810898,437488384,'',"[wheel_left_joint, wheel_right_joint]","[763.0912559023127, 898.6252580978908]","[0.0, 0.0]","[0.0, 0.0]"
1608810898456503292,,114927,,1608810898,456797841,'',"[wheel_left_joint, wheel_right_joint]","[763.0912559023127, 898.6252580978908]","[0.0, 0.0]","[0.0, 0.0]"
1608810898476503763,,114928,,1608810898,475940438,'',"[wheel_left_joint, wheel_right_joint]","[763.0912559023127, 898.6252580978908]","[0.0, 0.0]","[0.0, 0.0]"
1608810898517020154,,114929,,1608810898,495851703,'',"[wheel_left_joint, wheel_right_joint]","[763.0912559023127, 898.6252580978908]","[0.0, 0.0]","[0.0, 0.0]"
1608810898517069410,,114930,,1608810898,515751883,'',"[wheel_left_joint, wheel_right_joint]","[763.0912559023127, 898.6252580978908]","[0.0, 0.0]","[0.0, 0.0]"
1608810898536532621,,114931,,1608810898,536827380,'',"[wheel_left_joint, wheel_right_joint]","[763.0912559023127, 898.6252580978908]","[0.0, 0.0]","[0.0, 0.0]"
1608810898565186634,,114932,,1608810898,556852121,'',"[wheel_left_joint, wheel_right_joint]","[763.0912559023127, 898.6252580978908]","[0.0, 0.0]","[0.0, 0.0]"
1608810898594582218,,114933,,1608810898,578179952,'',"[wheel_left_joint, wheel_right_joint]","[763.0912559023127, 898.6252580978908]","[0.0, 0.0]","[0.0, 0.0]"
1608810898594743281,,114934,,1608810898,596662107,'',"[wheel_left_joint, wheel_right_joint]","[763.0912559023127, 898.6252580978908]","[0.0, 0.0]","[0.0, 0.0]"
1608810898613583870,,114935,,1608810898,616670804,'',"[wheel_left_joint, wheel_right_joint]","[763.0912559023127, 898.6252580978908]","[0.0, 0.0]","[0.0, 0.0]"
1608810898637451686,,114936,,1608810898,638377572,'',"[wheel_left_joint, wheel_right_joint]","[763.0912559023127, 898.6252580978908]","[0.0, 0.0]","[0.0, 0.0]"
1608810898668094254,,114937,,1608810898,659456278,'',"[wheel_left_joint, wheel_right_joint]","[763.0912559023127, 898.6252580978908]","[0.0, 0.0]","[0.0, 0.0]"
1608810898686221564,,114938,,1608810898,678353543,'',"[wheel_left_joint, wheel_right_joint]","[763.0912559023127, 898.6252580978908]","[0.0, 0.0]","[0.0, 0.0]"
1608810898686251324,,114939,,1608810898,696629748,'',"[wheel_left_joint, wheel_right_joint]","[763.0912559023127, 898.6252580978908]","[0.0, 0.0]","[0.0, 0.0]"
1608810898737456085,,114940,,1608810898,716667908,'',"[wheel_left_joint, wheel_right_joint]","[763.0912559023127, 898.6252580978908]","[0.0, 0.0]","[0.0, 0.0]"
1608810898737471130,,114941,,1608810898,736671938,'',"[wheel_left_joint, wheel_right_joint]","[763.0912559023127, 898.6252580978908]","[0.0, 0.0]","[0.0, 0.0]"
1608810898761333335,,114942,,1608810898,756701347,'',"[wheel_left_joint, wheel_right_joint]","[763.0912559023127, 898.6252580978908]","[0.0, 0.0]","[0.0, 0.0]"
1608810898778786279,,114943,,1608810898,776770138,'',"[wheel_left_joint, wheel_right_joint]","[763.0912559023127, 898.6252580978908]","[0.0, 0.0]","[0.0, 0.0]"
1608810898794293395,,114944,,1608810898,799895221,'',"[wheel_left_joint, wheel_right_joint]","[763.0912559023127, 898.6252580978908]","[0.0, 0.0]","[0.0, 0.0]"
1608810898823100631,,114945,,1608810898,817757192,'',"[wheel_left_joint, wheel_right_joint]","[763.0912559023127, 898.6252580978908]","[0.0, 0.0]","[0.0, 0.0]"
1608810898865797241,,114946,,1608810898,838274347,'',"[wheel_left_joint, wheel_right_joint]","[763.0912559023127, 898.6252580978908]","[0.0, 0.0]","[0.0, 0.0]"
1608810898865854839,,114947,,1608810898,859265831,'',"[wheel_left_joint, wheel_right_joint]","[763.0912559023127, 898.6252580978908]","[0.0, 0.0]","[0.0, 0.0]"
1608810898865875590,,114948,,1608810898,877542327,'',"[wheel_left_joint, wheel_right_joint]","[763.0912559023127, 898.6252580978908]","[0.0, 0.0]","[0.0, 0.0]"
1608810898883180294,,114949,,1608810898,898922375,'',"[wheel_left_joint, wheel_right_joint]","[763.0912559023127, 898.6252580978908]","[0.0, 0.0]","[0.0, 0.0]"
1608810898908633764,,114950,,1608810898,918629731,'',"[wheel_left_joint, wheel_right_joint]","[763.0912559023127, 898.6252580978908]","[0.0, 0.0]","[0.0, 0.0]"
1608810898939784160,,114951,,1608810898,937580963,'',"[wheel_left_joint, wheel_right_joint]","[763.0912559023127, 898.6252580978908]","[0.0, 0.0]","[0.0, 0.0]"
1608810898962437295,,114952,,1608810898,958055528,'',"[wheel_left_joint, wheel_right_joint]","[763.0912559023127, 898.6252580978908]","[0.0, 0.0]","[0.0, 0.0]"
1608810898983741659,,114953,,1608810898,977681788,'',"[wheel_left_joint, wheel_right_joint]","[763.0912559023127, 898.6252580978908]","[0.0, 0.0]","[0.0, 0.0]"
1608810898983860340,,114954,,1608810898,998245035,'',"[wheel_left_joint, wheel_right_joint]","[763.0912559023127, 898.6252580978908]","[0.0, 0.0]","[0.0, 0.0]"
1608810899003593667,,114955,,1608810899,17466096,'',"[wheel_left_joint, wheel_right_joint]","[763.0912559023127, 898.6252580978908]","[0.0, 0.0]","[0.0, 0.0]"
1608810899036361027,,114956,,1608810899,39903598,'',"[wheel_left_joint, wheel_right_joint]","[763.0912559023127, 898.6252580978908]","[0.0, 0.0]","[0.0, 0.0]"
1608810899055096525,,114957,,1608810899,58681835,'',"[wheel_left_joint, wheel_right_joint]","[763.0912559023127, 898.6252580978908]","[0.0, 0.0]","[0.0, 0.0]"
1608810899081593479,,114958,,1608810899,78518411,'',"[wheel_left_joint, wheel_right_joint]","[763.0912559023127, 898.6252580978908]","[0.0, 0.0]","[0.0, 0.0]"
1608810899106260933,,114959,,1608810899,98941041,'',"[wheel_left_joint, wheel_right_joint]","[763.0912559023127, 898.6252580978908]","[0.0, 0.0]","[0.0, 0.0]"
1608810899106318360,,114960,,1608810899,117151893,'',"[wheel_left_joint, wheel_right_joint]","[763.0912559023127, 898.6252580978908]","[0.0, 0.0]","[0.0, 0.0]"
1608810899123160692,,114961,,1608810899,136871783,'',"[wheel_left_joint, wheel_right_joint]","[763.0912559023127, 898.6252580978908]","[0.0, 0.0]","[0.0, 0.0]"
1608810899147574423,,114962,,1608810899,156672770,'',"[wheel_left_joint, wheel_right_joint]","[763.0912559023127, 898.6252580978908]","[0.0, 0.0]","[0.0, 0.0]"
1608810899172455352,,114963,,1608810899,177729295,'',"[wheel_left_joint, wheel_right_joint]","[763.0912559023127, 898.6252580978908]","[0.0, 0.0]","[0.0, 0.0]"
1608810899188181485,,114964,,1608810899,198087749,'',"[wheel_left_joint, wheel_right_joint]","[763.0912559023127, 898.6252580978908]","[0.0, 0.0]","[0.0, 0.0]"
1608810899211660531,,114965,,1608810899,217576018,'',"[wheel_left_joint, wheel_right_joint]","[763.0912559023127, 898.6252580978908]","[0.0, 0.0]","[0.0, 0.0]"
1608810899230254137,,114966,,1608810899,237565452,'',"[wheel_left_joint, wheel_right_joint]","[763.0912559023127, 898.6252580978908]","[0.0, 0.0]","[0.0, 0.0]"
1608810899249379773,,114967,,1608810899,257568013,'',"[wheel_left_joint, wheel_right_joint]","[763.0912559023127, 898.6252580978908]","[0.0, 0.0]","[0.0, 0.0]"
1608810899278706381,,114968,,1608810899,277609081,'',"[wheel_left_joint, wheel_right_joint]","[763.0912559023127, 898.6252580978908]","[0.0, 0.0]","[0.0, 0.0]"
1608810899302395453,,114969,,1608810899,298523834,'',"[wheel_left_joint, wheel_right_joint]","[763.0912559023127, 898.6252580978908]","[0.0, 0.0]","[0.0, 0.0]"
1608810899380090413,,114970,,1608810899,317642501,'',"[wheel_left_joint, wheel_right_joint]","[763.0912559023127, 898.6252580978908]","[0.0, 0.0]","[0.0, 0.0]"
1608810899380145287,,114971,,1608810899,337637478,'',"[wheel_left_joint, wheel_right_joint]","[763.0912559023127, 898.6252580978908]","[0.0, 0.0]","[0.0, 0.0]"
1608810899408260836,,114972,,1608810899,357611159,'',"[wheel_left_joint, wheel_right_joint]","[763.0912559023127, 898.6252580978908]","[0.0, 0.0]","[0.0, 0.0]"
1608810899408320654,,114973,,1608810899,377569089,'',"[wheel_left_joint, wheel_right_joint]","[763.0912559023127, 898.6252580978908]","[0.0, 0.0]","[0.0, 0.0]"
1608810899408371534,,114974,,1608810899,397501347,'',"[wheel_left_joint, wheel_right_joint]","[763.0912559023127, 898.6252580978908]","[0.0, 0.0]","[0.0, 0.0]"
1608810899437125243,,114975,,1608810899,420053492,'',"[wheel_left_joint, wheel_right_joint]","[763.0912559023127, 898.6252580978908]","[0.0, 0.0]","[0.0, 0.0]"
1608810899437165655,,114976,,1608810899,439945785,'',"[wheel_left_joint, wheel_right_joint]","[763.0912559023127, 898.6252580978908]","[0.0, 0.0]","[0.0, 0.0]"
1608810899467725801,,114977,,1608810899,459539363,'',"[wheel_left_joint, wheel_right_joint]","[763.0912559023127, 898.6252580978908]","[0.0, 0.0]","[0.0, 0.0]"
1608810899490782061,,114978,,1608810899,480122728,'',"[wheel_left_joint, wheel_right_joint]","[763.0912559023127, 898.6252580978908]","[0.0, 0.0]","[0.0, 0.0]"
1608810899490879912,,114979,,1608810899,499467474,'',"[wheel_left_joint, wheel_right_joint]","[763.0912559023127, 898.6252580978908]","[0.0, 0.0]","[0.0, 0.0]"
1608810899512511865,,114980,,1608810899,519423361,'',"[wheel_left_joint, wheel_right_joint]","[763.0912559023127, 898.6252580978908]","[0.0, 0.0]","[0.0, 0.0]"
1608810899530048988,,114981,,1608810899,540484554,'',"[wheel_left_joint, wheel_right_joint]","[763.0912559023127, 898.6252580978908]","[0.0, 0.0]","[0.0, 0.0]"
1608810899550435843,,114982,,1608810899,560370430,'',"[wheel_left_joint, wheel_right_joint]","[763.0912559023127, 898.6252580978908]","[0.0, 0.0]","[0.0, 0.0]"
1608810899566100720,,114983,,1608810899,579341781,'',"[wheel_left_joint, wheel_right_joint]","[763.0912559023127, 898.6252580978908]","[0.0, 0.0]","[0.0, 0.0]"
1608810899585778097,,114984,,1608810899,599338216,'',"[wheel_left_joint, wheel_right_joint]","[763.0912559023127, 898.6252580978908]","[0.0, 0.0]","[0.0, 0.0]"
1608810899614783678,,114985,,1608810899,619484593,'',"[wheel_left_joint, wheel_right_joint]","[763.0912559023127, 898.6252580978908]","[0.0, 0.0]","[0.0, 0.0]"
1608810899633500697,,114986,,1608810899,639193982,'',"[wheel_left_joint, wheel_right_joint]","[763.0912559023127, 898.6252580978908]","[0.0, 0.0]","[0.0, 0.0]"
1608810899651483920,,114987,,1608810899,659208795,'',"[wheel_left_joint, wheel_right_joint]","[763.0912559023127, 898.6252580978908]","[0.0, 0.0]","[0.0, 0.0]"
1608810899674606132,,114988,,1608810899,680460478,'',"[wheel_left_joint, wheel_right_joint]","[763.0912559023127, 898.6252580978908]","[0.0, 0.0]","[0.0, 0.0]"
1608810899704754613,,114989,,1608810899,700428617,'',"[wheel_left_joint, wheel_right_joint]","[763.0912559023127, 898.6252580978908]","[0.0, 0.0]","[0.0, 0.0]"
1608810899725578666,,114990,,1608810899,720488063,'',"[wheel_left_joint, wheel_right_joint]","[763.0912559023127, 898.6252580978908]","[0.0, 0.0]","[0.0, 0.0]"
1608810899725581954,,114991,,1608810899,739562972,'',"[wheel_left_joint, wheel_right_joint]","[763.0912559023127, 898.6252580978908]","[0.0, 0.0]","[0.0, 0.0]"
1608810899759577955,,114992,,1608810899,759210809,'',"[wheel_left_joint, wheel_right_joint]","[763.0912559023127, 898.6252580978908]","[0.0, 0.0]","[0.0, 0.0]"
1608810899784773074,,114993,,1608810899,780108934,'',"[wheel_left_joint, wheel_right_joint]","[763.0912559023127, 898.6252580978908]","[0.0, 0.0]","[0.0, 0.0]"
1608810899819988942,,114994,,1608810899,800494225,'',"[wheel_left_joint, wheel_right_joint]","[763.0912559023127, 898.6252580978908]","[0.0, 0.0]","[0.0, 0.0]"
1608810899820110284,,114995,,1608810899,820404021,'',"[wheel_left_joint, wheel_right_joint]","[763.0912559023127, 898.6252580978908]","[0.0, 0.0]","[0.0, 0.0]"
1608810899844813629,,114996,,1608810899,840910665,'',"[wheel_left_joint, wheel_right_joint]","[763.0912559023127, 898.6252580978908]","[0.0, 0.0]","[0.0, 0.0]"
1608810899868217336,,114997,,1608810899,860392516,'',"[wheel_left_joint, wheel_right_joint]","[763.0912559023127, 898.6252580978908]","[0.0, 0.0]","[0.0, 0.0]"
1608810899885229292,,114998,,1608810899,882530135,'',"[wheel_left_joint, wheel_right_joint]","[763.0912559023127, 898.6252580978908]","[0.0, 0.0]","[0.0, 0.0]"
1608810899885239636,,114999,,1608810899,900475235,'',"[wheel_left_joint, wheel_right_joint]","[763.0912559023127, 898.6252580978908]","[0.0, 0.0]","[0.0, 0.0]"
1608810899907951791,,115000,,1608810899,921939869,'',"[wheel_left_joint, wheel_right_joint]","[763.0912559023127, 898.6252580978908]","[0.0, 0.0]","[0.0, 0.0]"
1608810899928183098,,115001,,1608810899,940500487,'',"[wheel_left_joint, wheel_right_joint]","[763.0912559023127, 898.6252580978908]","[0.0, 0.0]","[0.0, 0.0]"
1608810899976419522,,115002,,1608810899,960523176,'',"[wheel_left_joint, wheel_right_joint]","[763.0912559023127, 898.6252580978908]","[0.0, 0.0]","[0.0, 0.0]"
1608810900011777781,,115003,,1608810899,980443183,'',"[wheel_left_joint, wheel_right_joint]","[763.0912559023127, 898.6252580978908]","[0.0, 0.0]","[0.0, 0.0]"
1608810900011792727,,115004,,1608810900,306888,'',"[wheel_left_joint, wheel_right_joint]","[763.0912559023127, 898.6252580978908]","[0.0, 0.0]","[0.0, 0.0]"
1608810900114407952,,115005,,1608810900,20311484,'',"[wheel_left_joint, wheel_right_joint]","[763.0912559023127, 898.6252580978908]","[0.0, 0.0]","[0.0, 0.0]"
1608810900114459040,,115006,,1608810900,40358960,'',"[wheel_left_joint, wheel_right_joint]","[763.0912559023127, 898.6252580978908]","[0.0, 0.0]","[0.0, 0.0]"
1608810900134623076,,115007,,1608810900,61192022,'',"[wheel_left_joint, wheel_right_joint]","[763.0912559023127, 898.6252580978908]","[0.0, 0.0]","[0.0, 0.0]"
1608810900134636939,,115008,,1608810900,82629516,'',"[wheel_left_joint, wheel_right_joint]","[763.0912559023127, 898.6252580978908]","[0.0, 0.0]","[0.0, 0.0]"
1608810900134647493,,115009,,1608810900,101218129,'',"[wheel_left_joint, wheel_right_joint]","[763.0912559023127, 898.6252580978908]","[0.0, 0.0]","[0.0, 0.0]"
1608810900134656683,,115010,,1608810900,120342329,'',"[wheel_left_joint, wheel_right_joint]","[763.0912559023127, 898.6252580978908]","[0.0, 0.0]","[0.0, 0.0]"
1608810900134685995,,115011,,1608810900,141190852,'',"[wheel_left_joint, wheel_right_joint]","[763.0912559023127, 898.6252580978908]","[0.0, 0.0]","[0.0, 0.0]"
1608810900159234184,,115012,,1608810900,161189904,'',"[wheel_left_joint, wheel_right_joint]","[763.0912559023127, 898.6252580978908]","[0.0, 0.0]","[0.0, 0.0]"
1608810900197144716,,115013,,1608810900,182229791,'',"[wheel_left_joint, wheel_right_joint]","[763.0912559023127, 898.6252580978908]","[0.0, 0.0]","[0.0, 0.0]"
1608810900197210945,,115014,,1608810900,201222136,'',"[wheel_left_joint, wheel_right_joint]","[763.0912559023127, 898.6252580978908]","[0.0, 0.0]","[0.0, 0.0]"
1608810900237571054,,115015,,1608810900,221549658,'',"[wheel_left_joint, wheel_right_joint]","[763.0912559023127, 898.6252580978908]","[0.0, 0.0]","[0.0, 0.0]"
1608810900266442854,,115016,,1608810900,242013993,'',"[wheel_left_joint, wheel_right_joint]","[763.0912559023127, 898.6252580978908]","[0.0, 0.0]","[0.0, 0.0]"
1608810900266601762,,115017,,1608810900,261433408,'',"[wheel_left_joint, wheel_right_joint]","[763.0912559023127, 898.6252580978908]","[0.0, 0.0]","[0.0, 0.0]"
1608810900293036060,,115018,,1608810900,281468632,'',"[wheel_left_joint, wheel_right_joint]","[763.0912559023127, 898.6252580978908]","[0.0, 0.0]","[0.0, 0.0]"
1608810900333312408,,115019,,1608810900,308042338,'',"[wheel_left_joint, wheel_right_joint]","[763.0912559023127, 898.6252580978908]","[0.0, 0.0]","[0.0, 0.0]"
1608810900333329980,,115020,,1608810900,322251445,'',"[wheel_left_joint, wheel_right_joint]","[763.0912559023127, 898.6252580978908]","[0.0, 0.0]","[0.0, 0.0]"
1608810900360893276,,115021,,1608810900,342934566,'',"[wheel_left_joint, wheel_right_joint]","[763.0912559023127, 898.6252580978908]","[0.0, 0.0]","[0.0, 0.0]"
1608810900360915047,,115022,,1608810900,362117401,'',"[wheel_left_joint, wheel_right_joint]","[763.0912559023127, 898.6252580978908]","[0.0, 0.0]","[0.0, 0.0]"
1608810900375868259,,115023,,1608810900,381114997,'',"[wheel_left_joint, wheel_right_joint]","[763.0912559023127, 898.6252580978908]","[0.0, 0.0]","[0.0, 0.0]"
1608810900396340188,,115024,,1608810900,401130385,'',"[wheel_left_joint, wheel_right_joint]","[763.0912559023127, 898.6252580978908]","[0.0, 0.0]","[0.0, 0.0]"
1608810900422072037,,115025,,1608810900,422367179,'',"[wheel_left_joint, wheel_right_joint]","[763.0912559023127, 898.6252580978908]","[0.0, 0.0]","[0.0, 0.0]"
1608810900446373669,,115026,,1608810900,442860978,'',"[wheel_left_joint, wheel_right_joint]","[763.0912559023127, 898.6252580978908]","[0.0, 0.0]","[0.0, 0.0]"
1608810900472122177,,115027,,1608810900,462158164,'',"[wheel_left_joint, wheel_right_joint]","[763.0912559023127, 898.6252580978908]","[0.0, 0.0]","[0.0, 0.0]"
1608810900472124410,,115028,,1608810900,481864043,'',"[wheel_left_joint, wheel_right_joint]","[763.0912559023127, 898.6252580978908]","[0.0, 0.0]","[0.0, 0.0]"
1608810900504989531,,115029,,1608810900,502068169,'',"[wheel_left_joint, wheel_right_joint]","[763.0912559023127, 898.6252580978908]","[0.0, 0.0]","[0.0, 0.0]"
1608810900537085979,,115030,,1608810900,522011794,'',"[wheel_left_joint, wheel_right_joint]","[763.0912559023127, 898.6252580978908]","[0.0, 0.0]","[0.0, 0.0]"
1608810900537109286,,115031,,1608810900,542523096,'',"[wheel_left_joint, wheel_right_joint]","[763.0912559023127, 898.6252580978908]","[0.0, 0.0]","[0.0, 0.0]"
1608810900582758098,,115032,,1608810900,562869287,'',"[wheel_left_joint, wheel_right_joint]","[763.0912559023127, 898.6252580978908]","[0.0, 0.0]","[0.0, 0.0]"
1608810900633808703,,115033,,1608810900,581851714,'',"[wheel_left_joint, wheel_right_joint]","[763.0912559023127, 898.6252580978908]","[0.0, 0.0]","[0.0, 0.0]"
1608810900633880192,,115034,,1608810900,602003332,'',"[wheel_left_joint, wheel_right_joint]","[763.0912559023127, 898.6252580978908]","[0.0, 0.0]","[0.0, 0.0]"
1608810900633953460,,115035,,1608810900,622059267,'',"[wheel_left_joint, wheel_right_joint]","[763.0912559023127, 898.6252580978908]","[0.0, 0.0]","[0.0, 0.0]"
1608810900684694469,,115036,,1608810900,642443381,'',"[wheel_left_joint, wheel_right_joint]","[763.0912559023127, 898.6252580978908]","[0.0, 0.0]","[0.0, 0.0]"
1608810900684728488,,115037,,1608810900,661913846,'',"[wheel_left_joint, wheel_right_joint]","[763.0912559023127, 898.6252580978908]","[0.0, 0.0]","[0.0, 0.0]"
1608810900717237919,,115038,,1608810900,683193814,'',"[wheel_left_joint, wheel_right_joint]","[763.0912559023127, 898.6252580978908]","[0.0, 0.0]","[0.0, 0.0]"
1608810900717257318,,115039,,1608810900,702876355,'',"[wheel_left_joint, wheel_right_joint]","[763.0912559023127, 898.6252580978908]","[0.0, 0.0]","[0.0, 0.0]"
1608810900717273579,,115040,,1608810900,722918289,'',"[wheel_left_joint, wheel_right_joint]","[763.0912559023127, 898.6252580978908]","[0.0, 0.0]","[0.0, 0.0]"
1608810900796422626,,115041,,1608810900,742418217,'',"[wheel_left_joint, wheel_right_joint]","[763.0912559023127, 898.6252580978908]","[0.0, 0.0]","[0.0, 0.0]"
1608810900851888512,,115042,,1608810900,762729110,'',"[wheel_left_joint, wheel_right_joint]","[763.0912559023127, 898.6252580978908]","[0.0, 0.0]","[0.0, 0.0]"
1608810900851922929,,115043,,1608810900,785603880,'',"[wheel_left_joint, wheel_right_joint]","[763.0912559023127, 898.6252580978908]","[0.0, 0.0]","[0.0, 0.0]"
1608810900851981917,,115044,,1608810900,803793720,'',"[wheel_left_joint, wheel_right_joint]","[763.0912559023127, 898.6252580978908]","[0.0, 0.0]","[0.0, 0.0]"
1608810900852026708,,115045,,1608810900,822781690,'',"[wheel_left_joint, wheel_right_joint]","[763.0912559023127, 898.6252580978908]","[0.0, 0.0]","[0.0, 0.0]"
1608810900852347391,,115046,,1608810900,842783658,'',"[wheel_left_joint, wheel_right_joint]","[763.0912559023127, 898.6252580978908]","[0.0, 0.0]","[0.0, 0.0]"
1608810900889433514,,115047,,1608810900,862820048,'',"[wheel_left_joint, wheel_right_joint]","[763.0912559023127, 898.6252580978908]","[0.0, 0.0]","[0.0, 0.0]"
1608810900889441767,,115048,,1608810900,882789928,'',"[wheel_left_joint, wheel_right_joint]","[763.0912559023127, 898.6252580978908]","[0.0, 0.0]","[0.0, 0.0]"
1608810900916226845,,115049,,1608810900,902816692,'',"[wheel_left_joint, wheel_right_joint]","[763.1789849074557, 898.7178609366529]","[4.386450257152319, 4.630141938105226]","[0.0, 0.0]"
1608810900916274514,,115050,,1608810900,922928345,'',"[wheel_left_joint, wheel_right_joint]","[763.3057045815513, 898.851891361177]","[6.335983704775572, 6.701521226204932]","[0.0, 0.0]"
1608810900971338958,,115051,,1608810900,943800497,'',"[wheel_left_joint, wheel_right_joint]","[763.4007443371229, 898.9469311167486]","[4.751987778581679, 4.751987778581679]","[0.0, 0.0]"
1608810900971381648,,115052,,1608810900,962773589,'',"[wheel_left_joint, wheel_right_joint]","[763.4616672573611, 899.0029802033678]","[3.0461460119113326, 2.802454330958426]","[0.0, 0.0]"
1608810900997006937,,115053,,1608810900,982706421,'',"[wheel_left_joint, wheel_right_joint]","[763.5201532607898, 899.0590292899869]","[2.9243001714348793, 2.802454330958426]","[0.0, 0.0]"
1608810900997026628,,115054,,1608810901,2816907,'',"[wheel_left_joint, wheel_right_joint]","[763.5981345986947, 899.1394475447014]","[3.8990668952465057, 4.020912735722959]","[0.0, 0.0]"
1608810901021038906,,115055,,1608810901,22016653,'',"[wheel_left_joint, wheel_right_joint]","[763.6834266870283, 899.2247396330349]","[4.264604416675866, 4.264604416675866]","[0.0, 0.0]"
1608810901038706652,,115056,,1608810901,41975146,'',"[wheel_left_joint, wheel_right_joint]","[763.7711556921713, 899.317342471797]","[4.386450257152319, 4.630141938105226]","[0.0, 0.0]"
1608810901054825084,,115057,,1608810901,63023775,'',"[wheel_left_joint, wheel_right_joint]","[763.8637585309334, 899.4099453105591]","[4.630141938105226, 4.630141938105226]","[0.0, 0.0]"
1608810901080240099,,115058,,1608810901,82989269,'',"[wheel_left_joint, wheel_right_joint]","[763.953924452886, 899.4976743157022]","[4.508296097628772, 4.386450257152319]","[0.0, 0.0]"
1608810901102426835,,115059,,1608810901,104166836,'',"[wheel_left_joint, wheel_right_joint]","[764.0465272916481, 899.5878402376547]","[4.630141938105226, 4.508296097628772]","[0.0, 0.0]"
1608810901117617789,,115060,,1608810901,123506020,'',"[wheel_left_joint, wheel_right_joint]","[764.1342562967911, 899.6804430764169]","[4.386450257152319, 4.630141938105226]","[0.0, 0.0]"
1608810901132344369,,115061,,1608810901,142886919,'',"[wheel_left_joint, wheel_right_joint]","[764.2171114683151, 899.7681720815599]","[4.142758576199412, 4.386450257152319]","[0.0, 0.0]"
1608810901149919130,,115062,,1608810901,162961514,'',"[wheel_left_joint, wheel_right_joint]","[764.3048404734582, 899.8534641698934]","[4.386450257152319, 4.264604416675866]","[0.0, 0.0]"
1608810901169233050,,115063,,1608810901,183946258,'',"[wheel_left_joint, wheel_right_joint]","[764.3925694786012, 899.9387562582269]","[4.386450257152319, 4.264604416675866]","[0.0, 0.0]"
1608810901186691086,,115064,,1608810901,202888711,'',"[wheel_left_joint, wheel_right_joint]","[764.4778615669347, 900.0240483465604]","[4.264604416675866, 4.264604416675866]","[0.0, 0.0]"
1608810901211585023,,115065,,1608810901,222951054,'',"[wheel_left_joint, wheel_right_joint]","[764.5582798216492, 900.109340434894]","[4.020912735722959, 4.264604416675866]","[0.0, 0.0]"
1608810901232036243,,115066,,1608810901,242882126,'',"[wheel_left_joint, wheel_right_joint]","[764.6411349931732, 900.192195606418]","[4.142758576199412, 4.142758576199412]","[0.0, 0.0]"
1608810901249009815,,115067,,1608810901,262908880,'',"[wheel_left_joint, wheel_right_joint]","[764.7239901646972, 900.2750507779419]","[4.142758576199412, 4.142758576199412]","[0.0, 0.0]"
1608810901267121988,,115068,,1608810901,282938552,'',"[wheel_left_joint, wheel_right_joint]","[764.8117191698402, 900.3603428662755]","[4.386450257152319, 4.264604416675866]","[0.0, 0.0]"
1608810901290029524,,115069,,1608810901,302779776,'',"[wheel_left_joint, wheel_right_joint]","[764.8970112581737, 900.445634954609]","[4.264604416675866, 4.264604416675866]","[0.0, 0.0]"
1608810901344876316,,115070,,1608810901,323809735,'',"[wheel_left_joint, wheel_right_joint]","[764.9847402633168, 900.5309270429425]","[4.386450257152319, 4.264604416675866]","[0.0, 0.0]"
1608810901369282796,,115071,,1608810901,343808193,'',"[wheel_left_joint, wheel_right_joint]","[765.0700323516503, 900.616219131276]","[4.264604416675866, 4.264604416675866]","[0.0, 0.0]"
1608810901369349469,,115072,,1608810901,363830863,'',"[wheel_left_joint, wheel_right_joint]","[765.1577613567933, 900.7015112196095]","[4.386450257152319, 4.264604416675866]","[0.0, 0.0]"
1608810901389961129,,115073,,1608810901,383826696,'',"[wheel_left_joint, wheel_right_joint]","[765.2430534451269, 900.7892402247526]","[4.264604416675866, 4.386450257152319]","[0.0, 0.0]"
1608810901406943493,,115074,,1608810901,404826025,'',"[wheel_left_joint, wheel_right_joint]","[765.3283455334604, 900.8769692298956]","[4.264604416675866, 4.386450257152319]","[0.0, 0.0]"
1608810901431477388,,115075,,1608810901,431348668,'',"[wheel_left_joint, wheel_right_joint]","[765.4160745386034, 900.9622613182291]","[4.386450257152319, 4.264604416675866]","[0.0, 0.0]"
1608810901447722922,,115076,,1608810901,443582573,'',"[wheel_left_joint, wheel_right_joint]","[765.5038035437465, 901.0499903233722]","[4.386450257152319, 4.386450257152319]","[0.0, 0.0]"
1608810901464024944,,115077,,1608810901,464685752,'',"[wheel_left_joint, wheel_right_joint]","[765.5915325488895, 901.1401562453248]","[4.386450257152319, 4.508296097628772]","[0.0, 0.0]"
1608810901499499532,,115078,,1608810901,484839985,'',"[wheel_left_joint, wheel_right_joint]","[765.6792615540326, 901.2278852504678]","[4.386450257152319, 4.386450257152319]","[0.0, 0.0]"
1608810901499544488,,115079,,1608810901,503363245,'',"[wheel_left_joint, wheel_right_joint]","[765.7669905591756, 901.3107404219918]","[4.386450257152319, 4.142758576199412]","[0.0, 0.0]"
1608810901519407411,,115080,,1608810901,523304819,'',"[wheel_left_joint, wheel_right_joint]","[765.8522826475091, 901.3960325103253]","[4.264604416675866, 4.264604416675866]","[0.0, 0.0]"
1608810901538203545,,115081,,1608810901,543186883,'',"[wheel_left_joint, wheel_right_joint]","[765.9375747358426, 901.4813245986588]","[4.264604416675866, 4.264604416675866]","[0.0, 0.0]"
1608810901562755215,,115082,,1608810901,564747470,'',"[wheel_left_joint, wheel_right_joint]","[766.0277406577952, 901.5714905206114]","[4.508296097628772, 4.508296097628772]","[0.0, 0.0]"
1608810901586380576,,115083,,1608810901,583720844,'',"[wheel_left_joint, wheel_right_joint]","[766.1179065797478, 901.6640933593735]","[4.508296097628772, 4.630141938105226]","[0.0, 0.0]"
1608810901601029956,,115084,,1608810901,603712301,'',"[wheel_left_joint, wheel_right_joint]","[766.2056355848908, 901.7518223645166]","[4.386450257152319, 4.386450257152319]","[0.0, 0.0]"
1608810901644378073,,115085,,1608810901,623777562,'',"[wheel_left_joint, wheel_right_joint]","[766.2933645900339, 901.8371144528501]","[4.386450257152319, 4.264604416675866]","[0.0, 0.0]"
1608810901673620220,,115086,,1608810901,643741598,'',"[wheel_left_joint, wheel_right_joint]","[766.3810935951769, 901.9224065411836]","[4.386450257152319, 4.264604416675866]","[0.0, 0.0]"
1608810901673702263,,115087,,1608810901,663746182,'',"[wheel_left_joint, wheel_right_joint]","[766.46882260032, 902.0101355463266]","[4.386450257152319, 4.386450257152319]","[0.0, 0.0]"
1608810901707777056,,115088,,1608810901,685470420,'',"[wheel_left_joint, wheel_right_joint]","[766.556551605463, 902.1003014682792]","[4.386450257152319, 4.508296097628772]","[0.0, 0.0]"
1608810901726110061,,115089,,1608810901,704883408,'',"[wheel_left_joint, wheel_right_joint]","[766.6442806106061, 902.1880304734223]","[4.386450257152319, 4.386450257152319]","[0.0, 0.0]"
1608810901726199682,,115090,,1608810901,725774219,'',"[wheel_left_joint, wheel_right_joint]","[766.7320096157491, 902.2757594785653]","[4.386450257152319, 4.386450257152319]","[0.0, 0.0]"
1608810901743351267,,115091,,1608810901,746513047,'',"[wheel_left_joint, wheel_right_joint]","[766.8197386208922, 902.3634884837084]","[4.386450257152319, 4.386450257152319]","[0.0, 0.0]"
1608810901767722189,,115092,,1608810901,765929828,'',"[wheel_left_joint, wheel_right_joint]","[766.9074676260352, 902.4512174888514]","[4.386450257152319, 4.386450257152319]","[0.0, 0.0]"
1608810901793870203,,115093,,1608810901,786367607,'',"[wheel_left_joint, wheel_right_joint]","[766.9976335479878, 902.5389464939944]","[4.508296097628772, 4.386450257152319]","[0.0, 0.0]"
1608810901824935259,,115094,,1608810901,805478379,'',"[wheel_left_joint, wheel_right_joint]","[767.0877994699404, 902.6266754991375]","[4.508296097628772, 4.386450257152319]","[0.0, 0.0]"
1608810901824969066,,115095,,1608810901,826756003,'',"[wheel_left_joint, wheel_right_joint]","[767.1779653918929, 902.7144045042805]","[4.508296097628772, 4.386450257152319]","[0.0, 0.0]"
1608810901858625010,,115096,,1608810901,844269057,'',"[wheel_left_joint, wheel_right_joint]","[767.2681313138455, 902.8045704262331]","[4.508296097628772, 4.508296097628772]","[0.0, 0.0]"
1608810901978560531,,115097,,1608810901,864195754,'',"[wheel_left_joint, wheel_right_joint]","[767.3558603189886, 902.8947363481857]","[4.386450257152319, 4.508296097628772]","[0.0, 0.0]"
1608810901978601939,,115098,,1608810901,884109906,'',"[wheel_left_joint, wheel_right_joint]","[767.4411524073221, 902.9824653533287]","[4.264604416675866, 4.386450257152319]","[0.0, 0.0]"
1608810902011467734,,115099,,1608810901,904065191,'',"[wheel_left_joint, wheel_right_joint]","[767.5313183292747, 903.0701943584718]","[4.508296097628772, 4.386450257152319]","[0.0, 0.0]"
1608810902011476184,,115100,,1608810901,924051980,'',"[wheel_left_joint, wheel_right_joint]","[767.6190473344177, 903.1579233636148]","[4.386450257152319, 4.386450257152319]","[0.0, 0.0]"
1608810902011481744,,115101,,1608810901,945632404,'',"[wheel_left_joint, wheel_right_joint]","[767.7116501731798, 903.2480892855674]","[4.630141938105226, 4.508296097628772]","[0.0, 0.0]"
1608810902011486384,,115102,,1608810901,964651286,'',"[wheel_left_joint, wheel_right_joint]","[767.8018160951324, 903.3358182907104]","[4.508296097628772, 4.386450257152319]","[0.0, 0.0]"
1608810902011501298,,115103,,1608810901,986506212,'',"[wheel_left_joint, wheel_right_joint]","[767.891982017085, 903.4284211294726]","[4.508296097628772, 4.630141938105226]","[0.0, 0.0]"
1608810902019550331,,115104,,1608810902,5821767,'',"[wheel_left_joint, wheel_right_joint]","[767.9821479390375, 903.5161501346156]","[4.508296097628772, 4.386450257152319]","[0.0, 0.0]"
1608810902032865608,,115105,,1608810902,25538712,'',"[wheel_left_joint, wheel_right_joint]","[768.0723138609901, 903.6063160565682]","[4.508296097628772, 4.508296097628772]","[0.0, 0.0]"
1608810902062962390,,115106,,1608810902,46227647,'',"[wheel_left_joint, wheel_right_joint]","[768.1600428661332, 903.6989188953303]","[4.386450257152319, 4.630141938105226]","[0.0, 0.0]"
1608810902062969851,,115107,,1608810902,66550481,'',"[wheel_left_joint, wheel_right_joint]","[768.2502087880857, 903.7890848172829]","[4.508296097628772, 4.508296097628772]","[0.0, 0.0]"
1608810902091821246,,115108,,1608810902,86733876,'',"[wheel_left_joint, wheel_right_joint]","[768.3403747100383, 903.8768138224259]","[4.508296097628772, 4.386450257152319]","[0.0, 0.0]"
1608810902116205719,,115109,,1608810902,106676023,'',"[wheel_left_joint, wheel_right_joint]","[768.4305406319909, 903.9669797443785]","[4.508296097628772, 4.508296097628772]","[0.0, 0.0]"
1608810902116309045,,115110,,1608810902,125549039,'',"[wheel_left_joint, wheel_right_joint]","[768.5182696371339, 904.0595825831406]","[4.386450257152319, 4.630141938105226]","[0.0, 0.0]"
1608810902132763981,,115111,,1608810902,145473976,'',"[wheel_left_joint, wheel_right_joint]","[768.6084355590865, 904.1497485050932]","[4.508296097628772, 4.508296097628772]","[0.0, 0.0]"
1608810902148855856,,115112,,1608810902,165732341,'',"[wheel_left_joint, wheel_right_joint]","[768.6961645642295, 904.2374775102362]","[4.386450257152319, 4.386450257152319]","[0.0, 0.0]"
1608810902171801906,,115113,,1608810902,185659611,'',"[wheel_left_joint, wheel_right_joint]","[768.7863304861821, 904.3276434321888]","[4.508296097628772, 4.508296097628772]","[0.0, 0.0]"
1608810902192706755,,115114,,1608810902,206490319,'',"[wheel_left_joint, wheel_right_joint]","[768.8740594913252, 904.4226831877604]","[4.386450257152319, 4.751987778581679]","[0.0, 0.0]"
1608810902210816046,,115115,,1608810902,225559075,'',"[wheel_left_joint, wheel_right_joint]","[768.9642254132777, 904.5079752760939]","[4.508296097628772, 4.264604416675866]","[0.0, 0.0]"
1608810902230406477,,115116,,1608810902,245767849,'',"[wheel_left_joint, wheel_right_joint]","[769.0543913352303, 904.5932673644274]","[4.508296097628772, 4.264604416675866]","[0.0, 0.0]"
1608810902251753973,,115117,,1608810902,265579309,'',"[wheel_left_joint, wheel_right_joint]","[769.1445572571829, 904.6858702031896]","[4.508296097628772, 4.630141938105226]","[0.0, 0.0]"
1608810902270061901,,115118,,1608810902,285733241,'',"[wheel_left_joint, wheel_right_joint]","[769.2347231791355, 904.7784730419517]","[4.508296097628772, 4.630141938105226]","[0.0, 0.0]"
1608810902314036572,,115119,,1608810902,305557828,'',"[wheel_left_joint, wheel_right_joint]","[769.324889101088, 904.8662020470947]","[4.508296097628772, 4.386450257152319]","[0.0, 0.0]"
1608810902339459952,,115120,,1608810902,327462626,'',"[wheel_left_joint, wheel_right_joint]","[769.4150550230406, 904.9588048858568]","[4.508296097628772, 4.630141938105226]","[0.0, 0.0]"
1608810902339491016,,115121,,1608810902,346578932,'',"[wheel_left_joint, wheel_right_joint]","[769.5052209449932, 905.0514077246189]","[4.508296097628772, 4.630141938105226]","[0.0, 0.0]"
1608810902388334574,,115122,,1608810902,366550542,'',"[wheel_left_joint, wheel_right_joint]","[769.5929499501362, 905.1415736465715]","[4.386450257152319, 4.508296097628772]","[0.0, 0.0]"
1608810902409346769,,115123,,1608810902,386591289,'',"[wheel_left_joint, wheel_right_joint]","[769.6855527888983, 905.2293026517145]","[4.630141938105226, 4.386450257152319]","[0.0, 0.0]"
1608810902409353979,,115124,,1608810902,406631161,'',"[wheel_left_joint, wheel_right_joint]","[769.7781556276605, 905.3170316568576]","[4.630141938105226, 4.386450257152319]","[0.0, 0.0]"
1608810902447192467,,115125,,1608810902,426562223,'',"[wheel_left_joint, wheel_right_joint]","[769.868321549613, 905.4071975788102]","[4.508296097628772, 4.508296097628772]","[0.0, 0.0]"
1608810902447327700,,115126,,1608810902,446510789,'',"[wheel_left_joint, wheel_right_joint]","[769.9633613051847, 905.4998004175723]","[4.751987778581679, 4.630141938105226]","[0.0, 0.0]"
1608810902465605165,,115127,,1608810902,466474231,'',"[wheel_left_joint, wheel_right_joint]","[770.0559641439468, 905.5875294227153]","[4.630141938105226, 4.386450257152319]","[0.0, 0.0]"
1608810902484172334,,115128,,1608810902,486456927,'',"[wheel_left_joint, wheel_right_joint]","[770.1461300658993, 905.6801322614774]","[4.508296097628772, 4.630141938105226]","[0.0, 0.0]"
1608810902511201710,,115129,,1608810902,506682912,'',"[wheel_left_joint, wheel_right_joint]","[770.2362959878519, 905.77029818343]","[4.508296097628772, 4.508296097628772]","[0.0, 0.0]"
1608810902543178231,,115130,,1608810902,526484454,'',"[wheel_left_joint, wheel_right_joint]","[770.324024992995, 905.8604641053826]","[4.386450257152319, 4.508296097628772]","[0.0, 0.0]"
1608810902577741161,,115131,,1608810902,546718315,'',"[wheel_left_joint, wheel_right_joint]","[770.4166278317571, 905.9506300273351]","[4.630141938105226, 4.508296097628772]","[0.0, 0.0]"
1608810902577762966,,115132,,1608810902,567551357,'',"[wheel_left_joint, wheel_right_joint]","[770.5116675873287, 906.0407959492877]","[4.751987778581679, 4.508296097628772]","[0.0, 0.0]"
1608810902658812432,,115133,,1608810902,587162992,'',"[wheel_left_joint, wheel_right_joint]","[770.6018335092813, 906.1285249544308]","[4.508296097628772, 4.386450257152319]","[0.0, 0.0]"
1608810902658851400,,115134,,1608810902,606398317,'',"[wheel_left_joint, wheel_right_joint]","[770.6944363480434, 906.2211277931929]","[4.630141938105226, 4.630141938105226]","[0.0, 0.0]"
1608810902687468644,,115135,,1608810902,627373424,'',"[wheel_left_joint, wheel_right_joint]","[770.7821653531864, 906.313730631955]","[4.386450257152319, 4.630141938105226]","[0.0, 0.0]"
1608810902687486991,,115136,,1608810902,646532903,'',"[wheel_left_joint, wheel_right_joint]","[770.8747681919485, 906.4063334707171]","[4.630141938105226, 4.630141938105226]","[0.0, 0.0]"
1608810902687492053,,115137,,1608810902,666407081,'',"[wheel_left_joint, wheel_right_joint]","[770.9649341139011, 906.4989363094792]","[4.508296097628772, 4.630141938105226]","[0.0, 0.0]"
1608810902687645370,,115138,,1608810902,687355350,'',"[wheel_left_joint, wheel_right_joint]","[771.0551000358537, 906.5891022314318]","[4.508296097628772, 4.508296097628772]","[0.0, 0.0]"
1608810902707980578,,115139,,1608810902,708613419,'',"[wheel_left_joint, wheel_right_joint]","[771.1501397914253, 906.6841419870034]","[4.751987778581679, 4.751987778581679]","[0.0, 0.0]"
1608810902729811763,,115140,,1608810902,729733799,'',"[wheel_left_joint, wheel_right_joint]","[771.2427426301874, 906.7718709921464]","[4.630141938105226, 4.386450257152319]","[0.0, 0.0]"
1608810902751108768,,115141,,1608810902,748015802,'',"[wheel_left_joint, wheel_right_joint]","[771.337782385759, 906.8644738309085]","[4.751987778581679, 4.630141938105226]","[0.0, 0.0]"
1608810902770349977,,115142,,1608810902,768014251,'',"[wheel_left_joint, wheel_right_joint]","[771.4279483077116, 906.9570766696706]","[4.508296097628772, 4.630141938105226]","[0.0, 0.0]"
1608810902790230952,,115143,,1608810902,788127051,'',"[wheel_left_joint, wheel_right_joint]","[771.5181142296642, 907.0472425916232]","[4.508296097628772, 4.508296097628772]","[0.0, 0.0]"
1608810902807927996,,115144,,1608810902,808232850,'',"[wheel_left_joint, wheel_right_joint]","[771.6107170684263, 907.1374085135758]","[4.630141938105226, 4.508296097628772]","[0.0, 0.0]"
1608810902822915185,,115145,,1608810902,831086302,'',"[wheel_left_joint, wheel_right_joint]","[771.7008829903789, 907.2324482691474]","[4.508296097628772, 4.751987778581679]","[0.0, 0.0]"
1608810902838855862,,115146,,1608810902,848525544,'',"[wheel_left_joint, wheel_right_joint]","[771.793485829141, 907.3250511079095]","[4.630141938105226, 4.630141938105226]","[0.0, 0.0]"
1608810902881405456,,115147,,1608810902,866972658,'',"[wheel_left_joint, wheel_right_joint]","[771.8860886679031, 907.4152170298621]","[4.630141938105226, 4.508296097628772]","[0.0, 0.0]"
1608810902971737561,,115148,,1608810902,886866089,'',"[wheel_left_joint, wheel_right_joint]","[771.9762545898557, 907.5078198686242]","[4.508296097628772, 4.630141938105226]","[0.0, 0.0]"
1608810902971838282,,115149,,1608810902,906817280,'',"[wheel_left_joint, wheel_right_joint]","[772.0688574286178, 907.5979857905768]","[4.630141938105226, 4.508296097628772]","[0.0, 0.0]"
1608810902987797204,,115150,,1608810902,926900617,'',"[wheel_left_joint, wheel_right_joint]","[772.1614602673799, 907.6881517125294]","[4.630141938105226, 4.508296097628772]","[0.0, 0.0]"
1608810902987818856,,115151,,1608810902,947724616,'',"[wheel_left_joint, wheel_right_joint]","[772.254063106142, 907.783191468101]","[4.630141938105226, 4.751987778581679]","[0.0, 0.0]"
1608810902987831127,,115152,,1608810902,968343540,'',"[wheel_left_joint, wheel_right_joint]","[772.3466659449041, 907.8782312236726]","[4.630141938105226, 4.751987778581679]","[0.0, 0.0]"
1608810902987844552,,115153,,1608810902,988306399,'',"[wheel_left_joint, wheel_right_joint]","[772.4417057004757, 907.9708340624347]","[4.751987778581679, 4.630141938105226]","[0.0, 0.0]"
1608810903006546187,,115154,,1608810903,8336061,'',"[wheel_left_joint, wheel_right_joint]","[772.5367454560474, 908.0634369011968]","[4.751987778581679, 4.630141938105226]","[0.0, 0.0]"
1608810903026939372,,115155,,1608810903,29115416,'',"[wheel_left_joint, wheel_right_joint]","[772.6293482948095, 908.1560397399589]","[4.630141938105226, 4.630141938105226]","[0.0, 0.0]"
1608810903041088933,,115156,,1608810903,48289471,'',"[wheel_left_joint, wheel_right_joint]","[772.7219511335716, 908.2462056619115]","[4.630141938105226, 4.508296097628772]","[0.0, 0.0]"
1608810903061309194,,115157,,1608810903,68320290,'',"[wheel_left_joint, wheel_right_joint]","[772.8169908891432, 908.3412454174832]","[4.751987778581679, 4.751987778581679]","[0.0, 0.0]"
1608810903080316767,,115158,,1608810903,90670233,'',"[wheel_left_joint, wheel_right_joint]","[772.9095937279053, 908.4362851730548]","[4.630141938105226, 4.751987778581679]","[0.0, 0.0]"
1608810903114400541,,115159,,1608810903,108238112,'',"[wheel_left_joint, wheel_right_joint]","[772.9997596498579, 908.5264510950074]","[4.508296097628772, 4.508296097628772]","[0.0, 0.0]"
1608810903142408288,,115160,,1608810903,128234801,'',"[wheel_left_joint, wheel_right_joint]","[773.09236248862, 908.621490850579]","[4.630141938105226, 4.751987778581679]","[0.0, 0.0]"
1608810903142435401,,115161,,1608810903,148379680,'',"[wheel_left_joint, wheel_right_joint]","[773.1849653273821, 908.7140936893411]","[4.630141938105226, 4.630141938105226]","[0.0, 0.0]"
1608810903173688255,,115162,,1608810903,169180915,'',"[wheel_left_joint, wheel_right_joint]","[773.2775681661442, 908.8042596112937]","[4.630141938105226, 4.508296097628772]","[0.0, 0.0]"
1608810903197371026,,115163,,1608810903,189280578,'',"[wheel_left_joint, wheel_right_joint]","[773.3726079217158, 908.8992993668653]","[4.751987778581679, 4.751987778581679]","[0.0, 0.0]"
1608810903221137224,,115164,,1608810903,211184199,'',"[wheel_left_joint, wheel_right_joint]","[773.4676476772875, 908.9943391224369]","[4.751987778581679, 4.751987778581679]","[0.0, 0.0]"
1608810903221170968,,115165,,1608810903,229621386,'',"[wheel_left_joint, wheel_right_joint]","[773.5626874328591, 909.0893788780086]","[4.751987778581679, 4.751987778581679]","[0.0, 0.0]"
1608810903233751742,,115166,,1608810903,249202090,'',"[wheel_left_joint, wheel_right_joint]","[773.6552902716212, 909.1844186335802]","[4.630141938105226, 4.751987778581679]","[0.0, 0.0]"
1608810903256884084,,115167,,1608810903,270220944,'',"[wheel_left_joint, wheel_right_joint]","[773.7478931103833, 909.2794583891518]","[4.630141938105226, 4.751987778581679]","[0.0, 0.0]"
1608810903273859520,,115168,,1608810903,289006728,'',"[wheel_left_joint, wheel_right_joint]","[773.8429328659549, 909.372061227914]","[4.751987778581679, 4.630141938105226]","[0.0, 0.0]"
1608810903297119093,,115169,,1608810903,309975407,'',"[wheel_left_joint, wheel_right_joint]","[773.9379726215266, 909.4671009834856]","[4.751987778581679, 4.751987778581679]","[0.0, 0.0]"
1608810903312295852,,115170,,1608810903,330822441,'',"[wheel_left_joint, wheel_right_joint]","[774.0330123770982, 909.5621407390572]","[4.751987778581679, 4.751987778581679]","[0.0, 0.0]"
1608810903332106461,,115171,,1608810903,353435219,'',"[wheel_left_joint, wheel_right_joint]","[774.1256152158603, 909.6571804946288]","[4.630141938105226, 4.751987778581679]","[0.0, 0.0]"
1608810903363423655,,115172,,1608810903,371879990,'',"[wheel_left_joint, wheel_right_joint]","[774.2206549714319, 909.7522202502005]","[4.751987778581679, 4.751987778581679]","[0.0, 0.0]"
1608810903383046284,,115173,,1608810903,390830592,'',"[wheel_left_joint, wheel_right_joint]","[774.3156947270036, 909.8472600057721]","[4.751987778581679, 4.751987778581679]","[0.0, 0.0]"
1608810903422928655,,115174,,1608810903,409285865,'',"[wheel_left_joint, wheel_right_joint]","[774.4082975657657, 909.9398628445342]","[4.630141938105226, 4.630141938105226]","[0.0, 0.0]"
1608810903455391745,,115175,,1608810903,429237338,'',"[wheel_left_joint, wheel_right_joint]","[774.5009004045278, 910.0373395169154]","[4.630141938105226, 4.873833619058132]","[0.0, 0.0]"
1608810903455439933,,115176,,1608810903,450165468,'',"[wheel_left_joint, wheel_right_joint]","[774.598377076909, 910.1299423556775]","[4.873833619058132, 4.630141938105226]","[0.0, 0.0]"
1608810903469880013,,115177,,1608810903,469303351,'',"[wheel_left_joint, wheel_right_joint]","[774.6934168324806, 910.2249821112491]","[4.751987778581679, 4.751987778581679]","[0.0, 0.0]"
1608810903497407855,,115178,,1608810903,489455815,'',"[wheel_left_joint, wheel_right_joint]","[774.7884565880522, 910.3200218668208]","[4.751987778581679, 4.751987778581679]","[0.0, 0.0]"
1608810903512745290,,115179,,1608810903,509464755,'',"[wheel_left_joint, wheel_right_joint]","[774.8834963436238, 910.4150616223924]","[4.751987778581679, 4.751987778581679]","[0.0, 0.0]"
1608810903528700440,,115180,,1608810903,529358177,'',"[wheel_left_joint, wheel_right_joint]","[774.9785360991955, 910.510101377964]","[4.751987778581679, 4.751987778581679]","[0.0, 0.0]"
1608810903545281279,,115181,,1608810903,549283395,'',"[wheel_left_joint, wheel_right_joint]","[775.0711389379576, 910.6027042167261]","[4.630141938105226, 4.630141938105226]","[0.0, 0.0]"
1608810903578211495,,115182,,1608810903,569203071,'',"[wheel_left_joint, wheel_right_joint]","[775.1637417767197, 910.6977439722978]","[4.630141938105226, 4.751987778581679]","[0.0, 0.0]"
1608810903612187183,,115183,,1608810903,590197129,'',"[wheel_left_joint, wheel_right_joint]","[775.2587815322913, 910.7903468110599]","[4.751987778581679, 4.630141938105226]","[0.0, 0.0]"
1608810903612207696,,115184,,1608810903,610145976,'',"[wheel_left_joint, wheel_right_joint]","[775.353821287863, 910.882949649822]","[4.751987778581679, 4.630141938105226]","[0.0, 0.0]"
1608810903644225117,,115185,,1608810903,630162209,'',"[wheel_left_joint, wheel_right_joint]","[775.4488610434346, 910.9779894053936]","[4.751987778581679, 4.751987778581679]","[0.0, 0.0]"
1608810903667820113,,115186,,1608810903,649948572,'',"[wheel_left_joint, wheel_right_joint]","[775.5439007990062, 911.0730291609652]","[4.751987778581679, 4.751987778581679]","[0.0, 0.0]"
1608810903667949708,,115187,,1608810903,670223555,'',"[wheel_left_joint, wheel_right_joint]","[775.6389405545779, 911.1680689165369]","[4.751987778581679, 4.751987778581679]","[0.0, 0.0]"
1608810903700922845,,115188,,1608810903,690216451,'',"[wheel_left_joint, wheel_right_joint]","[775.7339803101495, 911.2631086721085]","[4.751987778581679, 4.751987778581679]","[0.0, 0.0]"
1608810903719694614,,115189,,1608810903,710158298,'',"[wheel_left_joint, wheel_right_joint]","[775.8265831489116, 911.3630222612992]","[4.630141938105226, 4.9956794595345855]","[0.0, 0.0]"
1608810903719945178,,115190,,1608810903,730010588,'',"[wheel_left_joint, wheel_right_joint]","[775.9216229044832, 911.4556251000613]","[4.751987778581679, 4.630141938105226]","[0.0, 0.0]"
1608810903743929705,,115191,,1608810903,750082246,'',"[wheel_left_joint, wheel_right_joint]","[776.0166626600549, 911.5506648556329]","[4.751987778581679, 4.751987778581679]","[0.0, 0.0]"
1608810903774806179,,115192,,1608810903,770016800,'',"[wheel_left_joint, wheel_right_joint]","[776.109265498817, 911.643267694395]","[4.630141938105226, 4.630141938105226]","[0.0, 0.0]"
1608810903803434382,,115193,,1608810903,790583789,'',"[wheel_left_joint, wheel_right_joint]","[776.2067421711981, 911.7383074499667]","[4.873833619058132, 4.751987778581679]","[0.0, 0.0]"
1608810903803460608,,115194,,1608810903,809907493,'',"[wheel_left_joint, wheel_right_joint]","[776.2993450099602, 911.8333472055383]","[4.630141938105226, 4.751987778581679]","[0.0, 0.0]"
1608810903827057007,,115195,,1608810903,831013861,'',"[wheel_left_joint, wheel_right_joint]","[776.3968216823414, 911.9308238779195]","[4.873833619058132, 4.873833619058132]","[0.0, 0.0]"
1608810903863592934,,115196,,1608810903,849979341,'',"[wheel_left_joint, wheel_right_joint]","[776.4894245211035, 912.0283005503006]","[4.630141938105226, 4.873833619058132]","[0.0, 0.0]"
1608810903892297884,,115197,,1608810903,870024454,'',"[wheel_left_joint, wheel_right_joint]","[776.5844642766751, 912.1233403058723]","[4.751987778581679, 4.751987778581679]","[0.0, 0.0]"
1608810903892336674,,115198,,1608810903,890987590,'',"[wheel_left_joint, wheel_right_joint]","[776.6795040322468, 912.2183800614439]","[4.751987778581679, 4.751987778581679]","[0.0, 0.0]"
1608810903907597449,,115199,,1608810903,910512577,'',"[wheel_left_joint, wheel_right_joint]","[776.7745437878184, 912.3134198170155]","[4.751987778581679, 4.751987778581679]","[0.0, 0.0]"
1608810903926072784,,115200,,1608810903,930032897,'',"[wheel_left_joint, wheel_right_joint]","[776.86958354339, 912.4060226557776]","[4.751987778581679, 4.630141938105226]","[0.0, 0.0]"
1608810903960980429,,115201,,1608810903,949915233,'',"[wheel_left_joint, wheel_right_joint]","[776.9670602157712, 912.5034993281588]","[4.873833619058132, 4.873833619058132]","[0.0, 0.0]"
1608810903986030289,,115202,,1608810903,971043771,'',"[wheel_left_joint, wheel_right_joint]","[777.0645368881524, 912.60097600054]","[4.873833619058132, 4.873833619058132]","[0.0, 0.0]"
1608810903986062589,,115203,,1608810903,991017414,'',"[wheel_left_joint, wheel_right_joint]","[777.1571397269145, 912.6984526729211]","[4.630141938105226, 4.873833619058132]","[0.0, 0.0]"
1608810904016001582,,115204,,1608810904,11020810,'',"[wheel_left_joint, wheel_right_joint]","[777.2546163992956, 912.7959293453023]","[4.873833619058132, 4.873833619058132]","[0.0, 0.0]"
1608810904040508678,,115205,,1608810904,32100912,'',"[wheel_left_joint, wheel_right_joint]","[777.3496561548673, 912.8934060176834]","[4.751987778581679, 4.873833619058132]","[0.0, 0.0]"
1608810904040546693,,115206,,1608810904,51024960,'',"[wheel_left_joint, wheel_right_joint]","[777.4446959104389, 912.9860088564456]","[4.751987778581679, 4.630141938105226]","[0.0, 0.0]"
1608810904074196996,,115207,,1608810904,71061895,'',"[wheel_left_joint, wheel_right_joint]","[777.5397356660105, 913.0810486120172]","[4.751987778581679, 4.751987778581679]","[0.0, 0.0]"
1608810904108726818,,115208,,1608810904,92821983,'',"[wheel_left_joint, wheel_right_joint]","[777.6396492552012, 913.1785252843983]","[4.9956794595345855, 4.873833619058132]","[0.0, 0.0]"
1608810904138037224,,115209,,1608810904,111901806,'',"[wheel_left_joint, wheel_right_joint]","[777.7346890107729, 913.278438873589]","[4.751987778581679, 4.9956794595345855]","[0.0, 0.0]"
1608810904138067377,,115210,,1608810904,130939038,'',"[wheel_left_joint, wheel_right_joint]","[777.8297287663445, 913.3759155459702]","[4.751987778581679, 4.873833619058132]","[0.0, 0.0]"
1608810904166803475,,115211,,1608810904,150839743,'',"[wheel_left_joint, wheel_right_joint]","[777.9247685219161, 913.4685183847323]","[4.751987778581679, 4.630141938105226]","[0.0, 0.0]"
1608810904166840179,,115212,,1608810904,170938813,'',"[wheel_left_joint, wheel_right_joint]","[778.0198082774878, 913.5659950571135]","[4.751987778581679, 4.873833619058132]","[0.0, 0.0]"
1608810904190561933,,115213,,1608810904,190941910,'',"[wheel_left_joint, wheel_right_joint]","[778.1172849498689, 913.6634717294946]","[4.873833619058132, 4.873833619058132]","[0.0, 0.0]"
1608810904215951353,,115214,,1608810904,211994300,'',"[wheel_left_joint, wheel_right_joint]","[778.2147616222501, 913.7609484018758]","[4.873833619058132, 4.873833619058132]","[0.0, 0.0]"
1608810904217049492,,115215,,1608810904,231960641,'',"[wheel_left_joint, wheel_right_joint]","[778.3122382946312, 913.858425074257]","[4.873833619058132, 4.873833619058132]","[0.0, 0.0]"
1608810904246845831,,115216,,1608810904,251933107,'',"[wheel_left_joint, wheel_right_joint]","[778.4097149670124, 913.9534648298286]","[4.873833619058132, 4.751987778581679]","[0.0, 0.0]"
1608810904267721807,,115217,,1608810904,272597810,'',"[wheel_left_joint, wheel_right_joint]","[778.5023178057745, 914.0485045854002]","[4.630141938105226, 4.751987778581679]","[0.0, 0.0]"
1608810904293306672,,115218,,1608810904,292673252,'',"[wheel_left_joint, wheel_right_joint]","[778.5997944781557, 914.1459812577814]","[4.873833619058132, 4.873833619058132]","[0.0, 0.0]"
1608810904308253693,,115219,,1608810904,313300615,'',"[wheel_left_joint, wheel_right_joint]","[778.6948342337273, 914.2458948469721]","[4.751987778581679, 4.9956794595345855]","[0.0, 0.0]"
1608810904325642405,,115220,,1608810904,332368478,'',"[wheel_left_joint, wheel_right_joint]","[778.794747822918, 914.3433715193532]","[4.9956794595345855, 4.873833619058132]","[0.0, 0.0]"
1608810904342313973,,115221,,1608810904,352325192,'',"[wheel_left_joint, wheel_right_joint]","[778.8922244952992, 914.4408481917344]","[4.873833619058132, 4.873833619058132]","[0.0, 0.0]"
1608810904367214871,,115222,,1608810904,372376421,'',"[wheel_left_joint, wheel_right_joint]","[778.9897011676803, 914.535887947306]","[4.873833619058132, 4.751987778581679]","[0.0, 0.0]"
1608810904403240857,,115223,,1608810904,392372516,'',"[wheel_left_joint, wheel_right_joint]","[779.0871778400615, 914.6333646196872]","[4.873833619058132, 4.873833619058132]","[0.0, 0.0]"
