rosbagTimestamp,header,seq,stamp,secs,nsecs,frame_id,time_stamp,bumper,wheel_drop,cliff,left_encoder,right_encoder,left_pwm,right_pwm,buttons,charger,battery,bottom,current,over_current,digital_input,analog_input
1608810897636631624,,114881,,1608810897,533235347,'',60248,0,0,0,7402,62360,0,0,0,0,153,"[1494, 1739, 1588]","[0, 0]",0,0,"[4095, 4095, 4095, 4095]"
1608810897636671518,,114882,,1608810897,553908871,'',60268,0,0,0,7402,62360,0,0,0,0,153,"[1500, 1739, 1588]","[0, 0]",0,0,"[4095, 4095, 4095, 4095]"
1608810897789676458,,114883,,1608810897,572998969,'',60288,0,0,0,7402,62360,0,0,0,0,153,"[1500, 1713, 1546]","[0, 0]",0,0,"[4095, 4095, 4095, 4095]"
1608810897789684899,,114884,,1608810897,591957212,'',60308,0,0,0,7402,62360,0,0,0,0,153,"[1500, 1739, 1546]","[0, 0]",0,0,"[4095, 4095, 4095, 4095]"
1608810897789697731,,114885,,1608810897,613707456,'',60328,0,0,0,7402,62360,0,0,0,0,153,"[1477, 1742, 1580]","[0, 0]",0,0,"[4095, 4095, 4095, 4095]"
1608810897789721682,,114886,,1608810897,633522172,'',60348,0,0,0,7402,62360,0,0,0,0,153,"[1497, 1742, 1580]","[0, 0]",0,0,"[4095, 4095, 4095, 4095]"
1608810897789728875,,114887,,1608810897,656413312,'',60368,0,0,0,7402,62360,0,0,0,0,153,"[1497, 1714, 1566]","[0, 0]",0,0,"[4095, 4095, 4095, 4095]"
1608810897817458195,,114888,,1608810897,675978613,'',60388,0,0,0,7402,62360,0,0,0,0,153,"[1497, 1736, 1559]","[0, 0]",0,0,"[4095, 4095, 4095, 4095]"
1608810897817483115,,114889,,1608810897,694452901,'',60408,0,0,0,7402,62360,0,0,0,0,153,"[1497, 1740, 1553]","[0, 0]",0,0,"[4095, 4095, 4095, 4095]"
1608810897817517034,,114890,,1608810897,714474444,'',60428,0,0,0,7402,62360,0,0,0,0,153,"[1497, 1740, 1553]","[0, 0]",0,0,"[4095, 4095, 4095, 4095]"
1608810897817531270,,114891,,1608810897,734632509,'',60448,0,0,0,7402,62360,0,0,0,0,153,"[1498, 1714, 1547]","[0, 0]",0,0,"[4095, 4095, 4095, 4095]"
1608810897817538462,,114892,,1608810897,754669512,'',60468,0,0,0,7402,62360,0,0,0,0,153,"[1521, 1738, 1547]","[0, 0]",0,0,"[4095, 4095, 4095, 4095]"
1608810897817567679,,114893,,1608810897,775915965,'',60488,0,0,0,7402,62360,0,0,0,0,153,"[1522, 1738, 1552]","[0, 0]",0,0,"[4095, 4095, 4095, 4095]"
1608810897817579366,,114894,,1608810897,794702971,'',60508,0,0,0,7402,62360,0,0,0,0,153,"[1522, 1738, 1563]","[0, 0]",0,0,"[4095, 4095, 4095, 4095]"
1608810897817591067,,114895,,1608810897,815448841,'',60528,0,0,0,7402,62360,0,0,0,0,153,"[1497, 1692, 1583]","[0, 0]",0,0,"[4095, 4095, 4095, 4095]"
1608810897847133552,,114896,,1608810897,837084149,'',60548,0,0,0,7402,62360,0,0,0,0,153,"[1506, 1712, 1583]","[0, 0]",0,0,"[4095, 4095, 4095, 4095]"
1608810897847152353,,114897,,1608810897,854353656,'',60568,0,0,0,7402,62360,0,0,0,0,153,"[1506, 1712, 1569]","[0, 0]",0,0,"[4095, 4095, 4095, 4095]"
1608810897878939296,,114898,,1608810897,874617905,'',60588,0,0,0,7402,62360,0,0,0,0,153,"[1500, 1712, 1566]","[0, 0]",0,0,"[4095, 4095, 4095, 4095]"
1608810897901934488,,114899,,1608810897,895368151,'',60608,0,0,0,7402,62360,0,0,0,0,153,"[1500, 1737, 1546]","[0, 0]",0,0,"[4095, 4095, 4095, 4095]"
1608810897926591358,,114900,,1608810897,917083388,'',60628,0,0,0,7402,62360,0,0,0,0,153,"[1517, 1741, 1546]","[0, 0]",0,0,"[4095, 4095, 4095, 4095]"
1608810897926873282,,114901,,1608810897,936075178,'',60648,0,0,0,7402,62360,0,0,0,0,153,"[1517, 1741, 1528]","[0, 0]",0,0,"[4095, 4095, 4095, 4095]"
1608810897960852848,,114902,,1608810897,955221577,'',60668,0,0,0,7402,62360,0,0,0,0,153,"[1499, 1734, 1534]","[0, 0]",0,0,"[4095, 4095, 4095, 4095]"
1608810897983957018,,114903,,1608810897,977915809,'',60688,0,0,0,7402,62360,0,0,0,0,153,"[1497, 1713, 1542]","[0, 0]",0,0,"[4095, 4095, 4095, 4095]"
1608810897983965021,,114904,,1608810897,994143603,'',60708,0,0,0,7402,62360,0,0,0,0,153,"[1499, 1740, 1550]","[0, 0]",0,0,"[4095, 4095, 4095, 4095]"
1608810898018404649,,114905,,1608810898,14135678,'',60728,0,0,0,7402,62360,0,0,0,0,153,"[1499, 1740, 1550]","[0, 0]",0,0,"[4095, 4095, 4095, 4095]"
1608810898043511829,,114906,,1608810898,35333696,'',60748,0,0,0,7402,62360,0,0,0,0,153,"[1500, 1740, 1550]","[0, 0]",0,0,"[4095, 4095, 4095, 4095]"
1608810898043526284,,114907,,1608810898,54283761,'',60768,0,0,0,7402,62360,0,0,0,0,153,"[1505, 1738, 1568]","[0, 0]",0,0,"[4095, 4095, 4095, 4095]"
1608810898060909497,,114908,,1608810898,74321922,'',60788,0,0,0,7402,62360,0,0,0,0,153,"[1505, 1738, 1570]","[0, 0]",0,0,"[4095, 4095, 4095, 4095]"
1608810898088892308,,114909,,1608810898,94235520,'',60808,0,0,0,7402,62360,0,0,0,0,153,"[1500, 1738, 1570]","[0, 0]",0,0,"[4095, 4095, 4095, 4095]"
1608810898108783144,,114910,,1608810898,114182082,'',60828,0,0,0,7402,62360,0,0,0,0,153,"[1518, 1732, 1554]","[0, 0]",0,0,"[4095, 4095, 4095, 4095]"
1608810898125846014,,114911,,1608810898,134184945,'',60848,0,0,0,7402,62360,0,0,0,0,153,"[1518, 1713, 1564]","[0, 0]",0,0,"[4095, 4095, 4095, 4095]"
1608810898142225607,,114912,,1608810898,155177012,'',60868,0,0,0,7402,62360,0,0,0,0,153,"[1503, 1737, 1568]","[0, 0]",0,0,"[4095, 4095, 4095, 4095]"
1608810898159420811,,114913,,1608810898,175410330,'',60888,0,0,0,7402,62360,0,0,0,0,153,"[1503, 1737, 1568]","[0, 0]",0,0,"[4095, 4095, 4095, 4095]"
1608810898192786457,,114914,,1608810898,195298549,'',60908,0,0,0,7402,62360,0,0,0,0,153,"[1498, 1737, 1544]","[0, 0]",0,0,"[4095, 4095, 4095, 4095]"
1608810898226353668,,114915,,1608810898,215325041,'',60928,0,0,0,7402,62360,0,0,0,0,153,"[1498, 1737, 1544]","[0, 0]",0,0,"[4095, 4095, 4095, 4095]"
1608810898252534789,,114916,,1608810898,236652288,'',60948,0,0,0,7402,62360,0,0,0,0,153,"[1502, 1737, 1528]","[0, 0]",0,0,"[4095, 4095, 4095, 4095]"
1608810898252576614,,114917,,1608810898,256150776,'',60968,0,0,0,7402,62360,0,0,0,0,153,"[1502, 1737, 1562]","[0, 0]",0,0,"[4095, 4095, 4095, 4095]"
1608810898289593115,,114918,,1608810898,276884092,'',60988,0,0,0,7402,62360,0,0,0,0,153,"[1502, 1734, 1562]","[0, 0]",0,0,"[4095, 4095, 4095, 4095]"
1608810898289648365,,114919,,1608810898,296153585,'',61008,0,0,0,7402,62360,0,0,0,0,153,"[1503, 1717, 1569]","[0, 0]",0,0,"[4095, 4095, 4095, 4095]"
1608810898316519550,,114920,,1608810898,316217125,'',61028,0,0,0,7402,62360,0,0,0,0,153,"[1525, 1744, 1569]","[0, 0]",0,0,"[4095, 4095, 4095, 4095]"
1608810898344047791,,114921,,1608810898,336315670,'',61048,0,0,0,7402,62360,0,0,0,0,153,"[1525, 1744, 1556]","[0, 0]",0,0,"[4095, 4095, 4095, 4095]"
1608810898369884954,,114922,,1608810898,356363749,'',61068,0,0,0,7402,62360,0,0,0,0,153,"[1520, 1738, 1568]","[0, 0]",0,0,"[4095, 4095, 4095, 4095]"
1608810898369905754,,114923,,1608810898,376169121,'',61088,0,0,0,7402,62360,0,0,0,0,153,"[1498, 1739, 1568]","[0, 0]",0,0,"[4095, 4095, 4095, 4095]"
1608810898399656192,,114924,,1608810898,396101389,'',61108,0,0,0,7402,62360,0,0,0,0,153,"[1500, 1739, 1563]","[0, 0]",0,0,"[4095, 4095, 4095, 4095]"
1608810898423241748,,114925,,1608810898,417034822,'',61128,0,0,0,7402,62360,0,0,0,0,153,"[1500, 1739, 1555]","[0, 0]",0,0,"[4095, 4095, 4095, 4095]"
1608810898456569884,,114926,,1608810898,437777764,'',61148,0,0,0,7402,62360,0,0,0,0,153,"[1504, 1708, 1555]","[0, 0]",0,0,"[4095, 4095, 4095, 4095]"
1608810898456670145,,114927,,1608810898,457078471,'',61168,0,0,0,7402,62360,0,0,0,0,153,"[1504, 1739, 1541]","[0, 0]",0,0,"[4095, 4095, 4095, 4095]"
1608810898476541854,,114928,,1608810898,476229236,'',61188,0,0,0,7402,62360,0,0,0,0,153,"[1499, 1739, 1540]","[0, 0]",0,0,"[4095, 4095, 4095, 4095]"
1608810898517122466,,114929,,1608810898,496133499,'',61208,0,0,0,7402,62360,0,0,0,0,153,"[1499, 1739, 1524]","[0, 0]",0,0,"[4095, 4095, 4095, 4095]"
1608810898517188241,,114930,,1608810898,516030178,'',61228,0,0,0,7402,62360,0,0,0,0,153,"[1509, 1732, 1547]","[0, 0]",0,0,"[4095, 4095, 4095, 4095]"
1608810898536610353,,114931,,1608810898,537109176,'',61248,0,0,0,7402,62360,0,0,0,0,153,"[1522, 1738, 1547]","[0, 0]",0,0,"[4095, 4095, 4095, 4095]"
1608810898565230512,,114932,,1608810898,556964431,'',61268,0,0,0,7402,62360,0,0,0,0,153,"[1523, 1738, 1555]","[0, 0]",0,0,"[4095, 4095, 4095, 4095]"
1608810898594760220,,114933,,1608810898,578334269,'',61288,0,0,0,7402,62360,0,0,0,0,153,"[1523, 1736, 1583]","[0, 0]",0,0,"[4095, 4095, 4095, 4095]"
1608810898594783618,,114934,,1608810898,596945070,'',61308,0,0,0,7402,62360,0,0,0,0,153,"[1500, 1713, 1583]","[0, 0]",0,0,"[4095, 4095, 4095, 4095]"
1608810898613608895,,114935,,1608810898,616956685,'',61328,0,0,0,7402,62360,0,0,0,0,153,"[1500, 1736, 1583]","[0, 0]",0,0,"[4095, 4095, 4095, 4095]"
1608810898637506292,,114936,,1608810898,639544430,'',61348,0,0,0,7402,62360,0,0,0,0,153,"[1502, 1736, 1552]","[0, 0]",0,0,"[4095, 4095, 4095, 4095]"
1608810898668113744,,114937,,1608810898,660503825,'',61368,0,0,0,7402,62360,0,0,0,0,153,"[1502, 1736, 1548]","[0, 0]",0,0,"[4095, 4095, 4095, 4095]"
1608810898686636219,,114938,,1608810898,679670342,'',61388,0,0,0,7402,62360,0,0,0,0,153,"[1526, 1738, 1548]","[0, 0]",0,0,"[4095, 4095, 4095, 4095]"
1608810898686910463,,114939,,1608810898,696753143,'',61408,0,0,0,7402,62360,0,0,0,0,153,"[1526, 1739, 1548]","[0, 0]",0,0,"[4095, 4095, 4095, 4095]"
1608810898737552360,,114940,,1608810898,717067266,'',61428,0,0,0,7402,62360,0,0,0,0,153,"[1499, 1739, 1536]","[0, 0]",0,0,"[4095, 4095, 4095, 4095]"
1608810898737628365,,114941,,1608810898,736942649,'',61448,0,0,0,7402,62360,0,0,0,0,153,"[1499, 1732, 1541]","[0, 0]",0,0,"[4095, 4095, 4095, 4095]"
1608810898761367907,,114942,,1608810898,756984894,'',61468,0,0,0,7402,62360,0,0,0,0,153,"[1500, 1713, 1547]","[0, 0]",0,0,"[4095, 4095, 4095, 4095]"
1608810898782067279,,114943,,1608810898,777207710,'',61488,0,0,0,7402,62360,0,0,0,0,153,"[1500, 1737, 1547]","[0, 0]",0,0,"[4095, 4095, 4095, 4095]"
1608810898822737690,,114944,,1608810898,800141720,'',61508,0,0,0,7402,62360,0,0,0,0,153,"[1500, 1737, 1547]","[0, 0]",0,0,"[4095, 4095, 4095, 4095]"
1608810898850830935,,114945,,1608810898,818037529,'',61528,0,0,0,7402,62360,0,0,0,0,153,"[1500, 1735, 1547]","[0, 0]",0,0,"[4095, 4095, 4095, 4095]"
1608810898850907613,,114946,,1608810898,838557602,'',61548,0,0,0,7402,62360,0,0,0,0,153,"[1501, 1735, 1550]","[0, 0]",0,0,"[4095, 4095, 4095, 4095]"
1608810898871390041,,114947,,1608810898,859915479,'',61568,0,0,0,7402,62360,0,0,0,0,153,"[1501, 1736, 1569]","[0, 0]",0,0,"[4095, 4095, 4095, 4095]"
1608810898871445363,,114948,,1608810898,877780366,'',61588,0,0,0,7402,62360,0,0,0,0,153,"[1499, 1736, 1575]","[0, 0]",0,0,"[4095, 4095, 4095, 4095]"
1608810898888102368,,114949,,1608810898,899210005,'',61608,0,0,0,7402,62360,0,0,0,0,153,"[1499, 1732, 1575]","[0, 0]",0,0,"[4095, 4095, 4095, 4095]"
1608810898926341857,,114950,,1608810898,919085389,'',61628,0,0,0,7402,62360,0,0,0,0,153,"[1500, 1692, 1568]","[0, 0]",0,0,"[4095, 4095, 4095, 4095]"
1608810898959506056,,114951,,1608810898,937871511,'',61648,0,0,0,7402,62360,0,0,0,0,153,"[1500, 1737, 1568]","[0, 0]",0,0,"[4095, 4095, 4095, 4095]"
1608810898959555742,,114952,,1608810898,958337033,'',61668,0,0,0,7402,62360,0,0,0,0,153,"[1498, 1737, 1561]","[0, 0]",0,0,"[4095, 4095, 4095, 4095]"
1608810898983285567,,114953,,1608810898,977857108,'',61688,0,0,0,7402,62360,0,0,0,0,153,"[1498, 1738, 1525]","[0, 0]",0,0,"[4095, 4095, 4095, 4095]"
1608810899003032087,,114954,,1608810898,998380390,'',61708,0,0,0,7402,62360,0,0,0,0,153,"[1500, 1738, 1527]","[0, 0]",0,0,"[4095, 4095, 4095, 4095]"
1608810899017270252,,114955,,1608810899,17622747,'',61728,0,0,0,7402,62360,0,0,0,0,153,"[1500, 1738, 1527]","[0, 0]",0,0,"[4095, 4095, 4095, 4095]"
1608810899050578364,,114956,,1608810899,40038370,'',61748,0,0,0,7402,62360,0,0,0,0,153,"[1497, 1738, 1556]","[0, 0]",0,0,"[4095, 4095, 4095, 4095]"
1608810899071097590,,114957,,1608810899,59321856,'',61768,0,0,0,7402,62360,0,0,0,0,153,"[1497, 1734, 1567]","[0, 0]",0,0,"[4095, 4095, 4095, 4095]"
1608810899071148855,,114958,,1608810899,78675353,'',61788,0,0,0,7402,62360,0,0,0,0,153,"[1497, 1715, 1567]","[0, 0]",0,0,"[4095, 4095, 4095, 4095]"
1608810899088519459,,114959,,1608810899,99454750,'',61808,0,0,0,7402,62360,0,0,0,0,153,"[1521, 1737, 1567]","[0, 0]",0,0,"[4095, 4095, 4095, 4095]"
1608810899106716035,,114960,,1608810899,117311752,'',61828,0,0,0,7402,62360,0,0,0,0,153,"[1521, 1738, 1567]","[0, 0]",0,0,"[4095, 4095, 4095, 4095]"
1608810899129293870,,114961,,1608810899,137027267,'',61848,0,0,0,7402,62360,0,0,0,0,153,"[1518, 1738, 1571]","[0, 0]",0,0,"[4095, 4095, 4095, 4095]"
1608810899170147852,,114962,,1608810899,156823878,'',61868,0,0,0,7402,62360,0,0,0,0,153,"[1498, 1738, 1573]","[0, 0]",0,0,"[4095, 4095, 4095, 4095]"
1608810899187548882,,114963,,1608810899,177863776,'',61888,0,0,0,7402,62360,0,0,0,0,153,"[1519, 1738, 1573]","[0, 0]",0,0,"[4095, 4095, 4095, 4095]"
1608810899211104325,,114964,,1608810899,198171471,'',61908,0,0,0,7402,62360,0,0,0,0,153,"[1525, 1735, 1573]","[0, 0]",0,0,"[4095, 4095, 4095, 4095]"
1608810899211117833,,114965,,1608810899,217726251,'',61928,0,0,0,7402,62360,0,0,0,0,153,"[1525, 1692, 1542]","[0, 0]",0,0,"[4095, 4095, 4095, 4095]"
1608810899229676874,,114966,,1608810899,237716268,'',61948,0,0,0,7402,62360,0,0,0,0,153,"[1500, 1741, 1544]","[0, 0]",0,0,"[4095, 4095, 4095, 4095]"
1608810899248968654,,114967,,1608810899,257716788,'',61968,0,0,0,7402,62360,0,0,0,0,153,"[1503, 1741, 1547]","[0, 0]",0,0,"[4095, 4095, 4095, 4095]"
1608810899277578236,,114968,,1608810899,277759898,'',61988,0,0,0,7402,62360,0,0,0,0,153,"[1503, 1737, 1548]","[0, 0]",0,0,"[4095, 4095, 4095, 4095]"
1608810899288970575,,114969,,1608810899,298709947,'',62008,0,0,0,7402,62360,0,0,0,0,153,"[1503, 1737, 1548]","[0, 0]",0,0,"[4095, 4095, 4095, 4095]"
1608810899307896486,,114970,,1608810899,317798276,'',62028,0,0,0,7402,62360,0,0,0,0,153,"[1502, 1738, 1550]","[0, 0]",0,0,"[4095, 4095, 4095, 4095]"
1608810899380197353,,114971,,1608810899,337723242,'',62048,0,0,0,7402,62360,0,0,0,0,153,"[1502, 1738, 1550]","[0, 0]",0,0,"[4095, 4095, 4095, 4095]"
1608810899408405463,,114972,,1608810899,357762851,'',62068,0,0,0,7402,62360,0,0,0,0,153,"[1498, 1731, 1562]","[0, 0]",0,0,"[4095, 4095, 4095, 4095]"
1608810899408456393,,114973,,1608810899,377716988,'',62088,0,0,0,7402,62360,0,0,0,0,153,"[1496, 1712, 1562]","[0, 0]",0,0,"[4095, 4095, 4095, 4095]"
1608810899408489911,,114974,,1608810899,397682210,'',62108,0,0,0,7402,62360,0,0,0,0,153,"[1497, 1738, 1555]","[0, 0]",0,0,"[4095, 4095, 4095, 4095]"
1608810899437179138,,114975,,1608810899,420332662,'',62128,0,0,0,7402,62360,0,0,0,0,153,"[1501, 1738, 1555]","[0, 0]",0,0,"[4095, 4095, 4095, 4095]"
1608810899437245434,,114976,,1608810899,440248293,'',62148,0,0,0,7402,62360,0,0,0,0,153,"[1501, 1738, 1552]","[0, 0]",0,0,"[4095, 4095, 4095, 4095]"
1608810899467762805,,114977,,1608810899,459787904,'',62168,0,0,0,7402,62360,0,0,0,0,153,"[1501, 1737, 1552]","[0, 0]",0,0,"[4095, 4095, 4095, 4095]"
1608810899490974168,,114978,,1608810899,480417360,'',62188,0,0,0,7402,62360,0,0,0,0,153,"[1501, 1738, 1526]","[0, 0]",0,0,"[4095, 4095, 4095, 4095]"
1608810899491096797,,114979,,1608810899,499750728,'',62208,0,0,0,7402,62360,0,0,0,0,153,"[1501, 1738, 1534]","[0, 0]",0,0,"[4095, 4095, 4095, 4095]"
1608810899512531657,,114980,,1608810899,519831178,'',62228,0,0,0,7402,62360,0,0,0,0,153,"[1497, 1714, 1564]","[0, 0]",0,0,"[4095, 4095, 4095, 4095]"
1608810899530141543,,114981,,1608810899,540764891,'',62248,0,0,0,7402,62360,0,0,0,0,153,"[1497, 1714, 1564]","[0, 0]",0,0,"[4095, 4095, 4095, 4095]"
1608810899550640957,,114982,,1608810899,560656018,'',62268,0,0,0,7402,62360,0,0,0,0,153,"[1497, 1738, 1545]","[0, 0]",0,0,"[4095, 4095, 4095, 4095]"
1608810899575050739,,114983,,1608810899,579704965,'',62288,0,0,0,7402,62360,0,0,0,0,153,"[1523, 1738, 1545]","[0, 0]",0,0,"[4095, 4095, 4095, 4095]"
1608810899599948554,,114984,,1608810899,599682731,'',62308,0,0,0,7402,62360,0,0,0,0,153,"[1523, 1738, 1544]","[0, 0]",0,0,"[4095, 4095, 4095, 4095]"
1608810899633162868,,114985,,1608810899,619925373,'',62328,0,0,0,7402,62360,0,0,0,0,153,"[1525, 1738, 1571]","[0, 0]",0,0,"[4095, 4095, 4095, 4095]"
1608810899633178135,,114986,,1608810899,639542580,'',62348,0,0,0,7402,62360,0,0,0,0,153,"[1525, 1738, 1571]","[0, 0]",0,0,"[4095, 4095, 4095, 4095]"
1608810899650849781,,114987,,1608810899,659557394,'',62368,0,0,0,7402,62360,0,0,0,0,153,"[1525, 1736, 1553]","[0, 0]",0,0,"[4095, 4095, 4095, 4095]"
1608810899669295233,,114988,,1608810899,680745191,'',62388,0,0,0,7402,62360,0,0,0,0,153,"[1500, 1690, 1564]","[0, 0]",0,0,"[4095, 4095, 4095, 4095]"
1608810899704373714,,114989,,1608810899,700708371,'',62408,0,0,0,7402,62360,0,0,0,0,153,"[1508, 1732, 1567]","[0, 0]",0,0,"[4095, 4095, 4095, 4095]"
1608810899725161176,,114990,,1608810899,720775110,'',62428,0,0,0,7402,62360,0,0,0,0,153,"[1508, 1736, 1567]","[0, 0]",0,0,"[4095, 4095, 4095, 4095]"
1608810899755058587,,114991,,1608810899,739983041,'',62448,0,0,0,7402,62360,0,0,0,0,153,"[1508, 1739, 1547]","[0, 0]",0,0,"[4095, 4095, 4095, 4095]"
1608810899755085640,,114992,,1608810899,759552115,'',62468,0,0,0,7402,62360,0,0,0,0,153,"[1505, 1739, 1545]","[0, 0]",0,0,"[4095, 4095, 4095, 4095]"
1608810899776934393,,114993,,1608810899,780247790,'',62488,0,0,0,7402,62360,0,0,0,0,153,"[1505, 1739, 1549]","[0, 0]",0,0,"[4095, 4095, 4095, 4095]"
1608810899800548716,,114994,,1608810899,800781855,'',62508,0,0,0,7402,62360,0,0,0,0,153,"[1502, 1739, 1557]","[0, 0]",0,0,"[4095, 4095, 4095, 4095]"
1608810899825699895,,114995,,1608810899,820687859,'',62528,0,0,0,7402,62360,0,0,0,0,153,"[1499, 1734, 1558]","[0, 0]",0,0,"[4095, 4095, 4095, 4095]"
1608810899850887324,,114996,,1608810899,841347945,'',62548,0,0,0,7402,62360,0,0,0,0,153,"[1501, 1712, 1586]","[0, 0]",0,0,"[4095, 4095, 4095, 4095]"
1608810899850929376,,114997,,1608810899,860635806,'',62568,0,0,0,7402,62360,0,0,0,0,153,"[1501, 1738, 1586]","[0, 0]",0,0,"[4095, 4095, 4095, 4095]"
1608810899877729259,,114998,,1608810899,882958955,'',62588,0,0,0,7402,62360,0,0,0,0,153,"[1500, 1738, 1566]","[0, 0]",0,0,"[4095, 4095, 4095, 4095]"
1608810899907595454,,114999,,1608810899,900876634,'',62608,0,0,0,7402,62360,0,0,0,0,153,"[1498, 1738, 1545]","[0, 0]",0,0,"[4095, 4095, 4095, 4095]"
1608810899927850373,,115000,,1608810899,922240335,'',62628,0,0,0,7402,62360,0,0,0,0,153,"[1498, 1738, 1549]","[0, 0]",0,0,"[4095, 4095, 4095, 4095]"
1608810899976093688,,115001,,1608810899,940779366,'',62648,0,0,0,7402,62360,0,0,0,0,153,"[1499, 1739, 1551]","[0, 0]",0,0,"[4095, 4095, 4095, 4095]"
1608810900008994359,,115002,,1608810899,960808473,'',62668,0,0,0,7402,62360,0,0,0,0,153,"[1499, 1739, 1555]","[0, 0]",0,0,"[4095, 4095, 4095, 4095]"
1608810900009004228,,115003,,1608810899,980680055,'',62688,0,0,0,7402,62360,0,0,0,0,153,"[1498, 1737, 1555]","[0, 0]",0,0,"[4095, 4095, 4095, 4095]"
1608810900009020051,,115004,,1608810900,586934,'',62708,0,0,0,7402,62360,0,0,0,0,153,"[1498, 1713, 1554]","[0, 0]",0,0,"[4095, 4095, 4095, 4095]"
1608810900041171164,,115005,,1608810900,20551565,'',62728,0,0,0,7402,62360,0,0,0,0,153,"[1500, 1738, 1552]","[0, 0]",0,0,"[4095, 4095, 4095, 4095]"
1608810900041214809,,115006,,1608810900,40640173,'',62748,0,0,0,7402,62360,0,0,0,0,153,"[1500, 1742, 1552]","[0, 0]",0,0,"[4095, 4095, 4095, 4095]"
1608810900114524067,,115007,,1608810900,61475569,'',62768,0,0,0,7402,62360,0,0,0,0,153,"[1497, 1742, 1569]","[0, 0]",0,0,"[4095, 4095, 4095, 4095]"
1608810900135404104,,115008,,1608810900,82986283,'',62788,0,0,0,7402,62360,0,0,0,0,153,"[1497, 1738, 1569]","[0, 0]",0,0,"[4095, 4095, 4095, 4095]"
1608810900135412831,,115009,,1608810900,101493799,'',62808,0,0,0,7402,62360,0,0,0,0,153,"[1518, 1738, 1572]","[0, 0]",0,0,"[4095, 4095, 4095, 4095]"
1608810900135418813,,115010,,1608810900,120617999,'',62828,0,0,0,7402,62360,0,0,0,0,153,"[1518, 1738, 1572]","[0, 0]",0,0,"[4095, 4095, 4095, 4095]"
1608810900135433214,,115011,,1608810900,141471773,'',62848,0,0,0,7402,62360,0,0,0,0,153,"[1516, 1712, 1582]","[0, 0]",0,0,"[4095, 4095, 4095, 4095]"
1608810900159311293,,115012,,1608810900,161467907,'',62868,0,0,0,7402,62360,0,0,0,0,153,"[1501, 1714, 1592]","[0, 0]",0,0,"[4095, 4095, 4095, 4095]"
1608810900198304663,,115013,,1608810900,182509837,'',62888,0,0,0,7402,62360,0,0,0,0,153,"[1509, 1734, 1592]","[0, 0]",0,0,"[4095, 4095, 4095, 4095]"
1608810900198325658,,115014,,1608810900,201502182,'',62908,0,0,0,7402,62360,0,0,0,0,153,"[1509, 1737, 1590]","[0, 0]",0,0,"[4095, 4095, 4095, 4095]"
1608810900237952413,,115015,,1608810900,222411965,'',62928,0,0,0,7402,62360,0,0,0,0,153,"[1499, 1737, 1568]","[0, 0]",0,0,"[4095, 4095, 4095, 4095]"
1608810900267291851,,115016,,1608810900,242299873,'',62948,0,0,0,7402,62360,0,0,0,0,153,"[1499, 1740, 1545]","[0, 0]",0,0,"[4095, 4095, 4095, 4095]"
1608810900267352644,,115017,,1608810900,261707036,'',62968,0,0,0,7402,62360,0,0,0,0,153,"[1505, 1740, 1527]","[0, 0]",0,0,"[4095, 4095, 4095, 4095]"
1608810900293074777,,115018,,1608810900,281715422,'',62988,0,0,0,7402,62360,0,0,0,0,153,"[1505, 1733, 1544]","[0, 0]",0,0,"[4095, 4095, 4095, 4095]"
1608810900333452911,,115019,,1608810900,309236032,'',63008,0,0,0,7402,62360,0,0,0,0,153,"[1502, 1709, 1561]","[0, 0]",0,0,"[4095, 4095, 4095, 4095]"
1608810900333503610,,115020,,1608810900,322415680,'',63028,0,0,0,7402,62360,0,0,0,0,153,"[1502, 1735, 1589]","[0, 0]",0,0,"[4095, 4095, 4095, 4095]"
1608810900363523262,,115021,,1608810900,343232698,'',63048,0,0,0,7402,62360,0,0,0,0,153,"[1497, 1735, 1589]","[0, 0]",0,0,"[4095, 4095, 4095, 4095]"
1608810900363656120,,115022,,1608810900,362435661,'',63068,0,0,0,7402,62360,0,0,0,0,153,"[1499, 1736, 1587]","[0, 0]",0,0,"[4095, 4095, 4095, 4095]"
1608810900394994025,,115023,,1608810900,381394168,'',63088,0,0,0,7402,62360,0,0,0,0,153,"[1499, 1736, 1570]","[0, 0]",0,0,"[4095, 4095, 4095, 4095]"
1608810900415042766,,115024,,1608810900,401453604,'',63108,0,0,0,7402,62360,0,0,0,0,153,"[1499, 1739, 1570]","[0, 0]",0,0,"[4095, 4095, 4095, 4095]"
1608810900415060694,,115025,,1608810900,422688648,'',63128,0,0,0,7402,62360,0,0,0,0,153,"[1498, 1739, 1570]","[0, 0]",0,0,"[4095, 4095, 4095, 4095]"
1608810900445698475,,115026,,1608810900,443242831,'',63148,0,0,0,7402,62360,0,0,0,0,153,"[1498, 1737, 1568]","[0, 0]",0,0,"[4095, 4095, 4095, 4095]"
1608810900472071910,,115027,,1608810900,462442002,'',63168,0,0,0,7402,62360,0,0,0,0,153,"[1494, 1714, 1587]","[0, 0]",0,0,"[4095, 4095, 4095, 4095]"
1608810900472082660,,115028,,1608810900,482238020,'',63188,0,0,0,7402,62360,0,0,0,0,153,"[1499, 1738, 1587]","[0, 0]",0,0,"[4095, 4095, 4095, 4095]"
1608810900504763555,,115029,,1608810900,502388763,'',63208,0,0,0,7402,62360,0,0,0,0,153,"[1499, 1738, 1546]","[0, 0]",0,0,"[4095, 4095, 4095, 4095]"
1608810900535884685,,115030,,1608810900,522328888,'',63228,0,0,0,7402,62360,0,0,0,0,153,"[1523, 1737, 1544]","[0, 0]",0,0,"[4095, 4095, 4095, 4095]"
1608810900581509228,,115031,,1608810900,542807809,'',63248,0,0,0,7402,62360,0,0,0,0,153,"[1523, 1738, 1544]","[0, 0]",0,0,"[4095, 4095, 4095, 4095]"
1608810900581538272,,115032,,1608810900,563251432,'',63268,0,0,0,7402,62360,0,0,0,0,153,"[1523, 1738, 1548]","[0, 0]",0,0,"[4095, 4095, 4095, 4095]"
1608810900632475425,,115033,,1608810900,582224525,'',63288,0,0,0,7402,62360,0,0,0,0,153,"[1501, 1738, 1555]","[0, 0]",0,0,"[4095, 4095, 4095, 4095]"
1608810900632733539,,115034,,1608810900,602322759,'',63308,0,0,0,7402,62360,0,0,0,0,153,"[1503, 1733, 1555]","[0, 0]",0,0,"[4095, 4095, 4095, 4095]"
1608810900659224238,,115035,,1608810900,622388029,'',63328,0,0,0,7402,62360,0,0,0,0,153,"[1503, 1712, 1573]","[0, 0]",0,0,"[4095, 4095, 4095, 4095]"
1608810900659247273,,115036,,1608810900,642736262,'',63348,0,0,0,7402,62360,0,0,0,0,153,"[1503, 1736, 1573]","[0, 0]",0,0,"[4095, 4095, 4095, 4095]"
1608810900659293880,,115037,,1608810900,662233273,'',63368,0,0,0,7402,62360,0,0,0,0,153,"[1499, 1737, 1544]","[0, 0]",0,0,"[4095, 4095, 4095, 4095]"
1608810900701988534,,115038,,1608810900,683576835,'',63388,0,0,0,7402,62360,0,0,0,0,153,"[1499, 1737, 1546]","[0, 0]",0,0,"[4095, 4095, 4095, 4095]"
1608810900795137156,,115039,,1608810900,703196074,'',63408,0,0,0,7402,62360,0,0,0,0,153,"[1497, 1738, 1567]","[0, 0]",0,0,"[4095, 4095, 4095, 4095]"
1608810900795150885,,115040,,1608810900,723238007,'',63428,0,0,0,7402,62360,0,0,0,0,153,"[1500, 1738, 1571]","[0, 0]",0,0,"[4095, 4095, 4095, 4095]"
1608810900795202797,,115041,,1608810900,742744937,'',63448,0,0,0,7402,62360,0,0,0,0,153,"[1500, 1736, 1571]","[0, 0]",0,0,"[4095, 4095, 4095, 4095]"
1608810900841816937,,115042,,1608810900,762862132,'',63468,0,0,0,7402,62360,0,0,0,0,153,"[1520, 1736, 1544]","[0, 0]",0,0,"[4095, 4095, 4095, 4095]"
1608810900841826198,,115043,,1608810900,785991568,'',63488,0,0,0,7402,62360,75,77,0,0,153,"[1520, 1713, 1568]","[0, 0]",0,0,"[4095, 4095, 4095, 4095]"
1608810900841835627,,115044,,1608810900,804103229,'',63508,0,0,0,7402,62360,75,77,0,0,153,"[1520, 1735, 1568]","[0, 0]",0,0,"[4095, 4095, 4095, 4095]"
1608810900841844278,,115045,,1608810900,823095574,'',63528,0,0,0,7402,62360,75,77,0,0,153,"[1497, 1736, 1548]","[0, 0]",0,0,"[4095, 4095, 4095, 4095]"
1608810900842197818,,115046,,1608810900,843093167,'',63548,0,0,0,7402,62360,76,77,0,0,153,"[1499, 1736, 1548]","[0, 0]",0,0,"[4095, 4095, 4095, 4095]"
1608810900886666040,,115047,,1608810900,863138017,'',63568,0,0,0,7402,62360,76,77,0,0,153,"[1499, 1736, 1547]","[0, 0]",0,0,"[4095, 4095, 4095, 4095]"
1608810900886679444,,115048,,1608810900,883102646,'',63588,0,0,0,7402,62360,74,75,0,0,153,"[1499, 1736, 1549]","[0, 0]",0,0,"[4095, 4095, 4095, 4095]"
1608810900908498414,,115049,,1608810900,903137286,'',63608,0,0,0,7438,62398,57,57,0,0,153,"[1509, 1736, 1591]","[22, 23]",0,0,"[4095, 4095, 4095, 4095]"
1608810900970184787,,115050,,1608810900,923241354,'',63628,0,0,0,7490,62453,32,30,0,0,153,"[1509, 1732, 1591]","[14, 15]",0,0,"[4095, 4095, 4095, 4095]"
1608810900970242958,,115051,,1608810900,944114965,'',63648,0,0,0,7529,62492,13,11,0,0,153,"[1496, 1693, 1576]","[7, 6]",0,0,"[4095, 4095, 4095, 4095]"
1608810900970255861,,115052,,1608810900,963086598,'',63668,0,0,0,7554,62515,18,19,0,0,153,"[1500, 1693, 1563]","[3, 2]",0,0,"[4095, 4095, 4095, 4095]"
1608810900994106252,,115053,,1608810900,982838568,'',63688,0,0,0,7578,62538,32,35,0,0,153,"[1500, 1670, 1522]","[3, 3]",0,0,"[4095, 4095, 4095, 4095]"
1608810900994359036,,115054,,1608810901,3056404,'',63708,0,0,0,7610,62571,35,38,0,0,153,"[1497, 1700, 1516]","[4, 5]",0,0,"[4095, 4095, 4095, 4095]"
1608810901020657553,,115055,,1608810901,22190806,'',63728,0,0,0,7645,62606,31,32,0,0,153,"[1498, 1721, 1514]","[5, 5]",0,0,"[4095, 4095, 4095, 4095]"
1608810901038289098,,115056,,1608810901,42125671,'',63748,0,0,0,7681,62644,25,24,0,0,153,"[1498, 1721, 1529]","[4, 3]",0,0,"[4095, 4095, 4095, 4095]"
1608810901054478812,,115057,,1608810901,63199095,'',63768,0,0,0,7719,62682,22,22,0,0,153,"[1478, 1713, 1556]","[2, 2]",0,0,"[4095, 4095, 4095, 4095]"
1608810901072968807,,115058,,1608810901,83138335,'',63788,0,0,0,7756,62718,21,21,0,0,153,"[1498, 1713, 1556]","[1, 1]",0,0,"[4095, 4095, 4095, 4095]"
1608810901096243641,,115059,,1608810901,104411292,'',63808,0,0,0,7794,62755,20,22,0,0,153,"[1498, 1741, 1556]","[1, 1]",0,0,"[4095, 4095, 4095, 4095]"
1608810901112635422,,115060,,1608810901,123726264,'',63828,0,0,0,7830,62793,21,22,0,0,153,"[1498, 1741, 1555]","[1, 1]",0,0,"[4095, 4095, 4095, 4095]"
1608810901124509852,,115061,,1608810901,143055821,'',63848,0,0,0,7864,62829,23,22,0,0,153,"[1496, 1740, 1546]","[1, 0]",0,0,"[4095, 4095, 4095, 4095]"
1608810901144698267,,115062,,1608810901,163133917,'',63868,0,0,0,7900,62864,24,23,0,0,153,"[1498, 1740, 1548]","[1, 1]",0,0,"[4095, 4095, 4095, 4095]"
1608810901169310675,,115063,,1608810901,184022395,'',63888,0,0,0,7936,62899,24,25,0,0,153,"[1498, 1737, 1548]","[1, 1]",0,0,"[4095, 4095, 4095, 4095]"
1608810901189178670,,115064,,1608810901,202965140,'',63908,0,0,0,7971,62934,23,25,0,0,153,"[1502, 1737, 1552]","[1, 1]",0,0,"[4095, 4095, 4095, 4095]"
1608810901211676414,,115065,,1608810901,223028067,'',63928,0,0,0,8004,62969,25,25,0,0,153,"[1502, 1731, 1557]","[2, 1]",0,0,"[4095, 4095, 4095, 4095]"
1608810901232096713,,115066,,1608810901,242967598,'',63948,0,0,0,8038,63003,26,26,0,0,153,"[1504, 1692, 1557]","[2, 1]",0,0,"[4095, 4095, 4095, 4095]"
1608810901249051031,,115067,,1608810901,263078075,'',63968,0,0,0,8072,63037,27,26,0,0,153,"[1504, 1712, 1557]","[2, 1]",0,0,"[4095, 4095, 4095, 4095]"
1608810901267394652,,115068,,1608810901,283016731,'',63988,0,0,0,8108,63072,25,26,0,0,153,"[1504, 1714, 1512]","[2, 1]",0,0,"[4095, 4095, 4095, 4095]"
1608810901290066596,,115069,,1608810901,302946636,'',64008,0,0,0,8143,63107,25,26,0,0,153,"[1499, 1714, 1498]","[2, 2]",0,0,"[4095, 4095, 4095, 4095]"
1608810901344912512,,115070,,1608810901,323982138,'',64028,0,0,0,8179,63142,24,26,0,0,153,"[1498, 1692, 1526]","[2, 1]",0,0,"[4095, 4095, 4095, 4095]"
1608810901369408930,,115071,,1608810901,343978554,'',64048,0,0,0,8214,63177,25,26,0,0,153,"[1501, 1736, 1526]","[1, 1]",0,0,"[4095, 4095, 4095, 4095]"
1608810901369476212,,115072,,1608810901,364000349,'',64068,0,0,0,8250,63212,24,26,0,0,153,"[1503, 1736, 1522]","[2, 1]",0,0,"[4095, 4095, 4095, 4095]"
1608810901390110901,,115073,,1608810901,383999974,'',64088,0,0,0,8285,63248,25,25,0,0,153,"[1503, 1728, 1537]","[2, 1]",0,0,"[4095, 4095, 4095, 4095]"
1608810901406976815,,115074,,1608810901,405034600,'',64108,0,0,0,8320,63284,25,25,0,0,153,"[1545, 1691, 1544]","[2, 1]",0,0,"[4095, 4095, 4095, 4095]"
1608810901431540016,,115075,,1608810901,431407594,'',64128,0,0,0,8356,63319,25,25,0,0,153,"[1545, 1711, 1544]","[2, 1]",0,0,"[4095, 4095, 4095, 4095]"
1608810901447756402,,115076,,1608810901,443633622,'',64148,0,0,0,8392,63355,24,25,0,0,153,"[1502, 1713, 1519]","[2, 1]",0,0,"[4095, 4095, 4095, 4095]"
1608810901464098345,,115077,,1608810901,464731551,'',64168,0,0,0,8428,63392,24,25,0,0,153,"[1502, 1713, 1526]","[2, 1]",0,0,"[4095, 4095, 4095, 4095]"
1608810901499567154,,115078,,1608810901,484899786,'',64188,0,0,0,8464,63428,24,24,0,0,152,"[1525, 1691, 1526]","[1, 1]",0,0,"[4095, 4095, 4095, 4095]"
1608810901499741933,,115079,,1608810901,503440549,'',64208,0,0,0,8500,63462,24,25,0,0,152,"[1525, 1737, 1524]","[1, 1]",0,0,"[4095, 4095, 4095, 4095]"
1608810901519448778,,115080,,1608810901,523382998,'',64228,0,0,0,8535,63497,25,26,0,0,152,"[1525, 1737, 1521]","[1, 1]",0,0,"[4095, 4095, 4095, 4095]"
1608810901538236785,,115081,,1608810901,543265062,'',64248,0,0,0,8570,63532,25,27,0,0,152,"[1502, 1735, 1539]","[2, 1]",0,0,"[4095, 4095, 4095, 4095]"
1608810901562878229,,115082,,1608810901,564920164,'',64268,0,0,0,8607,63569,25,25,0,0,152,"[1525, 1713, 1544]","[2, 1]",0,0,"[4095, 4095, 4095, 4095]"
1608810901586410115,,115083,,1608810901,583892081,'',64288,0,0,0,8644,63607,24,24,0,0,152,"[1525, 1734, 1544]","[2, 1]",0,0,"[4095, 4095, 4095, 4095]"
1608810901601063862,,115084,,1608810901,603883246,'',64308,0,0,0,8680,63643,23,24,0,0,152,"[1502, 1736, 1544]","[1, 1]",0,0,"[4095, 4095, 4095, 4095]"
1608810901644434061,,115085,,1608810901,623948506,'',64328,0,0,0,8716,63678,24,25,0,0,152,"[1502, 1736, 1533]","[1, 1]",0,0,"[4095, 4095, 4095, 4095]"
1608810901673640456,,115086,,1608810901,643916043,'',64348,0,0,0,8752,63713,25,26,0,0,152,"[1513, 1693, 1524]","[1, 1]",0,0,"[4095, 4095, 4095, 4095]"
1608810901673869580,,115087,,1608810901,663915376,'',64368,0,0,0,8788,63749,25,26,0,0,152,"[1513, 1738, 1523]","[2, 1]",0,0,"[4095, 4095, 4095, 4095]"
1608810901708093238,,115088,,1608810901,685554142,'',64388,0,0,0,8824,63786,25,25,0,0,152,"[1503, 1738, 1561]","[2, 1]",0,0,"[4095, 4095, 4095, 4095]"
1608810901726241567,,115089,,1608810901,705054644,'',64408,0,0,0,8860,63822,25,25,0,0,152,"[1503, 1714, 1562]","[1, 1]",0,0,"[4095, 4095, 4095, 4095]"
1608810901726314148,,115090,,1608810901,726140029,'',64428,0,0,0,8896,63858,25,25,0,0,152,"[1500, 1714, 1562]","[2, 1]",0,0,"[4095, 4095, 4095, 4095]"
1608810901743511778,,115091,,1608810901,746834516,'',64448,0,0,0,8932,63894,25,26,0,0,152,"[1503, 1739, 1562]","[2, 1]",0,0,"[4095, 4095, 4095, 4095]"
1608810901767815244,,115092,,1608810901,766250421,'',64468,0,0,0,8968,63930,25,26,0,0,152,"[1503, 1739, 1545]","[2, 1]",0,0,"[4095, 4095, 4095, 4095]"
1608810901793989120,,115093,,1608810901,786684408,'',64488,0,0,0,9005,63966,25,26,0,0,152,"[1498, 1734, 1537]","[2, 1]",0,0,"[4095, 4095, 4095, 4095]"
1608810901825176979,,115094,,1608810901,805613734,'',64508,0,0,0,9042,64002,24,26,0,0,152,"[1499, 1714, 1547]","[2, 1]",0,0,"[4095, 4095, 4095, 4095]"
1608810901825804712,,115095,,1608810901,827119771,'',64528,0,0,0,9079,64038,23,26,0,0,152,"[1499, 1761, 1547]","[1, 1]",0,0,"[4095, 4095, 4095, 4095]"
1608810901858694308,,115096,,1608810901,844354530,'',64548,0,0,0,9116,64075,23,26,0,0,152,"[1502, 1761, 1565]","[1, 1]",0,0,"[4095, 4095, 4095, 4095]"
1608810901978929201,,115097,,1608810901,864236594,'',64568,0,0,0,9152,64112,24,25,0,0,152,"[1502, 1716, 1565]","[1, 1]",0,0,"[4095, 4095, 4095, 4095]"
1608810901979025981,,115098,,1608810901,884144329,'',64588,0,0,0,9187,64148,25,25,0,0,152,"[1502, 1760, 1544]","[2, 1]",0,0,"[4095, 4095, 4095, 4095]"
1608810902011500417,,115099,,1608810901,904130826,'',64608,0,0,0,9224,64184,25,26,0,0,152,"[1500, 1761, 1547]","[1, 1]",0,0,"[4095, 4095, 4095, 4095]"
1608810902019385007,,115100,,1608810901,924117324,'',64628,0,0,0,9260,64220,25,27,0,0,152,"[1500, 1761, 1547]","[2, 1]",0,0,"[4095, 4095, 4095, 4095]"
1608810902025336925,,115101,,1608810901,945802473,'',64648,0,0,0,9298,64257,24,26,0,0,152,"[1500, 1759, 1547]","[1, 2]",0,0,"[4095, 4095, 4095, 4095]"
1608810902025356774,,115102,,1608810901,964823980,'',64668,0,0,0,9335,64293,24,26,0,0,152,"[1500, 1759, 1549]","[1, 1]",0,0,"[4095, 4095, 4095, 4095]"
1608810902025366908,,115103,,1608810901,986823305,'',64688,0,0,0,9372,64331,23,25,0,0,152,"[1522, 1759, 1554]","[1, 1]",0,0,"[4095, 4095, 4095, 4095]"
1608810902025378668,,115104,,1608810902,6146153,'',64708,0,0,0,9409,64367,24,26,0,0,152,"[1522, 1759, 1586]","[1, 1]",0,0,"[4095, 4095, 4095, 4095]"
1608810902045725255,,115105,,1608810902,25853471,'',64728,0,0,0,9446,64404,24,25,0,0,152,"[1522, 1738, 1586]","[2, 1]",0,0,"[4095, 4095, 4095, 4095]"
1608810902045736769,,115106,,1608810902,46358626,'',64748,0,0,0,9482,64442,24,25,0,0,152,"[1525, 1785, 1536]","[1, 1]",0,0,"[4095, 4095, 4095, 4095]"
1608810902067486492,,115107,,1608810902,66719967,'',64768,0,0,0,9519,64479,24,25,0,0,152,"[1525, 1785, 1548]","[1, 1]",0,0,"[4095, 4095, 4095, 4095]"
1608810902091850797,,115108,,1608810902,86872148,'',64788,0,0,0,9556,64515,24,26,0,0,152,"[1500, 1785, 1548]","[1, 1]",0,0,"[4095, 4095, 4095, 4095]"
1608810902116320250,,115109,,1608810902,106805836,'',64808,0,0,0,9593,64552,24,26,0,0,152,"[1500, 1761, 1567]","[1, 1]",0,0,"[4095, 4095, 4095, 4095]"
1608810902116709841,,115110,,1608810902,125624301,'',64828,0,0,0,9629,64590,24,26,0,0,152,"[1522, 1783, 1567]","[1, 1]",0,0,"[4095, 4095, 4095, 4095]"
1608810902132927010,,115111,,1608810902,145543987,'',64848,0,0,0,9666,64627,24,26,0,0,152,"[1522, 1783, 1552]","[2, 1]",0,0,"[4095, 4095, 4095, 4095]"
1608810902149056439,,115112,,1608810902,165828023,'',64868,0,0,0,9702,64663,25,26,0,0,152,"[1526, 1783, 1588]","[1, 1]",0,0,"[4095, 4095, 4095, 4095]"
1608810902171829017,,115113,,1608810902,185759377,'',64888,0,0,0,9739,64700,24,27,0,0,152,"[1526, 1759, 1588]","[1, 1]",0,0,"[4095, 4095, 4095, 4095]"
1608810902193263257,,115114,,1608810902,206563539,'',64908,0,0,0,9775,64739,25,26,0,0,152,"[1521, 1761, 1556]","[1, 1]",0,0,"[4095, 4095, 4095, 4095]"
1608810902210893356,,115115,,1608810902,225634046,'',64928,0,0,0,9812,64774,24,26,0,0,152,"[1522, 1761, 1546]","[2, 1]",0,0,"[4095, 4095, 4095, 4095]"
1608810902231285349,,115116,,1608810902,245858281,'',64948,0,0,0,9849,64809,24,27,0,0,152,"[1522, 1761, 1546]","[2, 2]",0,0,"[4095, 4095, 4095, 4095]"
1608810902251820956,,115117,,1608810902,265653988,'',64968,0,0,0,9886,64847,24,28,0,0,152,"[1522, 1735, 1548]","[1, 2]",0,0,"[4095, 4095, 4095, 4095]"
1608810902270117248,,115118,,1608810902,285807920,'',64988,0,0,0,9923,64885,24,26,0,0,152,"[1525, 1762, 1548]","[1, 2]",0,0,"[4095, 4095, 4095, 4095]"
1608810902314092985,,115119,,1608810902,305629298,'',65008,0,0,0,9960,64921,24,26,0,0,152,"[1525, 1762, 1536]","[1, 1]",0,0,"[4095, 4095, 4095, 4095]"
1608810902339523311,,115120,,1608810902,327540806,'',65028,0,0,0,9997,64959,24,26,0,0,152,"[1522, 1760, 1567]","[1, 1]",0,0,"[4095, 4095, 4095, 4095]"
1608810902339537030,,115121,,1608810902,346655653,'',65048,0,0,0,10034,64997,26,25,0,0,152,"[1522, 1760, 1567]","[1, 1]",0,0,"[4095, 4095, 4095, 4095]"
1608810902388490748,,115122,,1608810902,366626096,'',65068,0,0,0,10070,65034,26,24,0,0,152,"[1519, 1761, 1546]","[2, 1]",0,0,"[4095, 4095, 4095, 4095]"
1608810902409363299,,115123,,1608810902,386665093,'',65088,0,0,0,10108,65070,26,25,0,0,152,"[1519, 1761, 1546]","[2, 1]",0,0,"[4095, 4095, 4095, 4095]"
1608810902409887419,,115124,,1608810902,406713716,'',65108,0,0,0,10146,65106,25,26,0,0,152,"[1520, 1759, 1545]","[2, 1]",0,0,"[4095, 4095, 4095, 4095]"
1608810902447375527,,115125,,1608810902,426661114,'',65128,0,0,0,10183,65143,25,26,0,0,152,"[1522, 1716, 1545]","[2, 1]",0,0,"[4095, 4095, 4095, 4095]"
1608810902447414110,,115126,,1608810902,446582550,'',65148,0,0,0,10222,65181,24,25,0,0,152,"[1522, 1735, 1543]","[2, 1]",0,0,"[4095, 4095, 4095, 4095]"
1608810902467189834,,115127,,1608810902,466549493,'',65168,0,0,0,10260,65217,25,25,0,0,152,"[1525, 1735, 1557]","[2, 1]",0,0,"[4095, 4095, 4095, 4095]"
1608810902484247051,,115128,,1608810902,486529564,'',65188,0,0,0,10297,65255,25,25,0,0,152,"[1525, 1729, 1566]","[2, 1]",0,0,"[4095, 4095, 4095, 4095]"
1608810902511233193,,115129,,1608810902,506776844,'',65208,0,0,0,10334,65292,26,26,0,0,152,"[1525, 1737, 1566]","[2, 1]",0,0,"[4095, 4095, 4095, 4095]"
1608810902543223400,,115130,,1608810902,526560591,'',65228,0,0,0,10370,65329,27,25,0,0,152,"[1524, 1738, 1554]","[2, 1]",0,0,"[4095, 4095, 4095, 4095]"
1608810902577841899,,115131,,1608810902,546810788,'',65248,0,0,0,10408,65366,26,26,0,0,152,"[1524, 1738, 1544]","[2, 1]",0,0,"[4095, 4095, 4095, 4095]"
1608810902577869490,,115132,,1608810902,567833736,'',65268,0,0,0,10447,65403,25,26,0,0,152,"[1522, 1734, 1525]","[2, 1]",0,0,"[4095, 4095, 4095, 4095]"
1608810902658920528,,115133,,1608810902,587511299,'',65288,0,0,0,10484,65439,24,27,0,0,152,"[1522, 1690, 1549]","[2, 1]",0,0,"[4095, 4095, 4095, 4095]"
1608810902658960643,,115134,,1608810902,606496916,'',65308,0,0,0,10522,65477,24,27,0,0,152,"[1521, 1736, 1549]","[1, 1]",0,0,"[4095, 4095, 4095, 4095]"
1608810902687690320,,115135,,1608810902,627446644,'',65328,0,0,0,10558,65515,26,26,0,0,152,"[1526, 1736, 1559]","[2, 1]",0,0,"[4095, 4095, 4095, 4095]"
1608810902687704232,,115136,,1608810902,646595621,'',65348,0,0,0,10596,17,25,25,0,0,152,"[1526, 1735, 1567]","[2, 1]",0,0,"[4095, 4095, 4095, 4095]"
1608810902687784491,,115137,,1608810902,666575983,'',65368,0,0,0,10633,55,26,25,0,0,152,"[1526, 1737, 1567]","[2, 1]",0,0,"[4095, 4095, 4095, 4095]"
1608810902687804494,,115138,,1608810902,687520168,'',65388,0,0,0,10670,92,26,26,0,0,152,"[1503, 1737, 1554]","[2, 1]",0,0,"[4095, 4095, 4095, 4095]"
1608810902708016550,,115139,,1608810902,709198013,'',65408,0,0,0,10709,131,25,25,0,0,152,"[1499, 1738, 1546]","[2, 1]",0,0,"[4095, 4095, 4095, 4095]"
1608810902729834492,,115140,,1608810902,730013844,'',65428,0,0,0,10747,167,25,27,0,0,152,"[1499, 1738, 1547]","[2, 2]",0,0,"[4095, 4095, 4095, 4095]"
1608810902751140938,,115141,,1608810902,748150574,'',65448,0,0,0,10786,205,24,26,0,0,152,"[1499, 1689, 1553]","[2, 2]",0,0,"[4095, 4095, 4095, 4095]"
1608810902770391380,,115142,,1608810902,768140563,'',65468,0,0,0,10823,243,25,27,0,0,152,"[1521, 1737, 1553]","[1, 1]",0,0,"[4095, 4095, 4095, 4095]"
1608810902790250821,,115143,,1608810902,788295953,'',65488,0,0,0,10860,280,25,26,0,0,152,"[1521, 1737, 1538]","[2, 1]",0,0,"[4095, 4095, 4095, 4095]"
1608810902807996591,,115144,,1608810902,808556069,'',65508,0,0,0,10898,317,26,27,0,0,152,"[1498, 1732, 1545]","[2, 1]",0,0,"[4095, 4095, 4095, 4095]"
1608810902823029239,,115145,,1608810902,831382100,'',65528,0,0,0,10935,356,26,26,0,0,152,"[1498, 1738, 1545]","[2, 1]",0,0,"[4095, 4095, 4095, 4095]"
1608810902839018059,,115146,,1608810902,849171691,'',12,0,0,0,10973,394,25,26,0,0,152,"[1498, 1738, 1545]","[2, 1]",0,0,"[4095, 4095, 4095, 4095]"
1608810902881421523,,115147,,1608810902,867057547,'',32,0,0,0,11011,431,26,26,0,0,152,"[1501, 1734, 1548]","[2, 1]",0,0,"[4095, 4095, 4095, 4095]"
1608810902971854266,,115148,,1608810902,886949520,'',52,0,0,0,11048,469,26,26,0,0,152,"[1501, 1708, 1548]","[2, 1]",0,0,"[4095, 4095, 4095, 4095]"
1608810902972039781,,115149,,1608810902,906895751,'',72,0,0,0,11086,506,26,27,0,0,152,"[1501, 1691, 1548]","[2, 1]",0,0,"[4095, 4095, 4095, 4095]"
1608810902987867468,,115150,,1608810902,926972087,'',92,0,0,0,11124,543,26,27,0,0,152,"[1498, 1713, 1540]","[2, 1]",0,0,"[4095, 4095, 4095, 4095]"
1608810902987883923,,115151,,1608810902,947799003,'',112,0,0,0,11162,582,25,27,0,0,152,"[1501, 1713, 1563]","[2, 2]",0,0,"[4095, 4095, 4095, 4095]"
1608810902987895483,,115152,,1608810902,968513901,'',132,0,0,0,11200,621,25,26,0,0,152,"[1501, 1712, 1563]","[2, 1]",0,0,"[4095, 4095, 4095, 4095]"
1608810902987937281,,115153,,1608810902,988400622,'',152,0,0,0,11239,659,25,25,0,0,152,"[1501, 1736, 1541]","[2, 1]",0,0,"[4095, 4095, 4095, 4095]"
1608810903006791183,,115154,,1608810903,8508755,'',172,0,0,0,11278,697,24,26,0,0,152,"[1483, 1736, 1540]","[2, 1]",0,0,"[4095, 4095, 4095, 4095]"
1608810903026973744,,115155,,1608810903,29258356,'',192,0,0,0,11316,735,24,26,0,0,152,"[1499, 1736, 1543]","[2, 1]",0,0,"[4095, 4095, 4095, 4095]"
1608810903041124309,,115156,,1608810903,48463624,'',212,0,0,0,11354,772,25,27,0,0,152,"[1503, 1713, 1545]","[1, 1]",0,0,"[4095, 4095, 4095, 4095]"
1608810903061708496,,115157,,1608810903,68497652,'',232,0,0,0,11393,811,25,26,0,0,152,"[1503, 1713, 1545]","[2, 1]",0,0,"[4095, 4095, 4095, 4095]"
1608810903080610167,,115158,,1608810903,91400684,'',252,0,0,0,11431,850,25,26,0,0,152,"[1495, 1714, 1539]","[2, 1]",0,0,"[4095, 4095, 4095, 4095]"
1608810903114522778,,115159,,1608810903,108413724,'',272,0,0,0,11468,887,26,26,0,0,152,"[1498, 1714, 1566]","[2, 1]",0,0,"[4095, 4095, 4095, 4095]"
1608810903142639541,,115160,,1608810903,128410704,'',292,0,0,0,11506,926,26,26,0,0,152,"[1498, 1737, 1566]","[2, 1]",0,0,"[4095, 4095, 4095, 4095]"
1608810903142669905,,115161,,1608810903,148552374,'',312,0,0,0,11544,964,26,27,0,0,152,"[1501, 1737, 1550]","[2, 1]",0,0,"[4095, 4095, 4095, 4095]"
1608810903173927100,,115162,,1608810903,169520761,'',332,0,0,0,11582,1001,25,27,0,0,152,"[1501, 1736, 1546]","[2, 1]",0,0,"[4095, 4095, 4095, 4095]"
1608810903197405373,,115163,,1608810903,189431686,'',352,0,0,0,11621,1040,25,27,0,0,152,"[1522, 1731, 1546]","[2, 2]",0,0,"[4095, 4095, 4095, 4095]"
1608810903221244879,,115164,,1608810903,211346101,'',372,0,0,0,11660,1079,24,27,0,0,152,"[1532, 1712, 1544]","[2, 1]",0,0,"[4095, 4095, 4095, 4095]"
1608810903221309377,,115165,,1608810903,229947814,'',392,0,0,0,11699,1118,24,26,0,0,152,"[1532, 1735, 1556]","[1, 1]",0,0,"[4095, 4095, 4095, 4095]"
1608810903236594672,,115166,,1608810903,250015972,'',412,0,0,0,11737,1157,24,26,0,0,152,"[1502, 1740, 1556]","[1, 1]",0,0,"[4095, 4095, 4095, 4095]"
1608810903256947524,,115167,,1608810903,270626718,'',432,0,0,0,11775,1196,25,26,0,0,152,"[1524, 1740, 1561]","[1, 1]",0,0,"[4095, 4095, 4095, 4095]"
1608810903273927281,,115168,,1608810903,289380705,'',452,0,0,0,11814,1234,25,27,0,0,152,"[1524, 1760, 1561]","[1, 1]",0,0,"[4095, 4095, 4095, 4095]"
1608810903297193210,,115169,,1608810903,310114263,'',472,0,0,0,11853,1273,24,27,0,0,152,"[1524, 1760, 1543]","[1, 1]",0,0,"[4095, 4095, 4095, 4095]"
1608810903317075306,,115170,,1608810903,330961297,'',492,0,0,0,11892,1312,24,27,0,0,152,"[1521, 1759, 1548]","[1, 2]",0,0,"[4095, 4095, 4095, 4095]"
1608810903332131252,,115171,,1608810903,353887667,'',512,0,0,0,11930,1351,24,26,0,0,152,"[1513, 1757, 1548]","[1, 1]",0,0,"[4095, 4095, 4095, 4095]"
1608810903363448296,,115172,,1608810903,372382612,'',532,0,0,0,11969,1390,24,26,0,0,152,"[1502, 1713, 1551]","[1, 1]",0,0,"[4095, 4095, 4095, 4095]"
1608810903383067137,,115173,,1608810903,391021957,'',552,0,0,0,12008,1429,24,27,0,0,152,"[1503, 1760, 1578]","[1, 1]",0,0,"[4095, 4095, 4095, 4095]"
1608810903422952117,,115174,,1608810903,409456809,'',572,0,0,0,12046,1467,25,27,0,0,152,"[1503, 1760, 1578]","[1, 1]",0,0,"[4095, 4095, 4095, 4095]"
1608810903455478994,,115175,,1608810903,429329519,'',592,0,0,0,12084,1507,26,26,0,0,152,"[1525, 1759, 1574]","[1, 1]",0,0,"[4095, 4095, 4095, 4095]"
1608810903455496844,,115176,,1608810903,450239272,'',612,0,0,0,12124,1545,25,27,0,0,152,"[1525, 1733, 1560]","[1, 1]",0,0,"[4095, 4095, 4095, 4095]"
1608810903469900228,,115177,,1608810903,469520095,'',632,0,0,0,12163,1584,25,26,0,0,152,"[1528, 1759, 1559]","[2, 1]",0,0,"[4095, 4095, 4095, 4095]"
1608810903497779171,,115178,,1608810903,489542162,'',652,0,0,0,12202,1623,24,27,0,0,152,"[1528, 1759, 1571]","[1, 1]",0,0,"[4095, 4095, 4095, 4095]"
1608810903512935537,,115179,,1608810903,509547018,'',672,0,0,0,12241,1662,25,27,0,0,152,"[1516, 1717, 1571]","[1, 1]",0,0,"[4095, 4095, 4095, 4095]"
1608810903528891837,,115180,,1608810903,529437231,'',692,0,0,0,12280,1701,25,27,0,0,152,"[1501, 1713, 1558]","[1, 1]",0,0,"[4095, 4095, 4095, 4095]"
1608810903546398178,,115181,,1608810903,549363325,'',712,0,0,0,12318,1739,26,27,0,0,152,"[1521, 1755, 1550]","[2, 1]",0,0,"[4095, 4095, 4095, 4095]"
1608810903578446861,,115182,,1608810903,569278333,'',732,0,0,0,12356,1778,26,27,0,0,152,"[1521, 1762, 1548]","[1, 2]",0,0,"[4095, 4095, 4095, 4095]"
1608810903612305078,,115183,,1608810903,590270641,'',752,0,0,0,12395,1816,26,28,0,0,152,"[1517, 1762, 1566]","[1, 2]",0,0,"[4095, 4095, 4095, 4095]"
1608810903612407186,,115184,,1608810903,610220071,'',772,0,0,0,12434,1854,26,28,0,0,152,"[1500, 1734, 1566]","[2, 1]",0,0,"[4095, 4095, 4095, 4095]"
1608810903644334317,,115185,,1608810903,630239222,'',792,0,0,0,12473,1893,25,28,0,0,152,"[1503, 1736, 1542]","[2, 2]",0,0,"[4095, 4095, 4095, 4095]"
1608810903667923839,,115186,,1608810903,650021792,'',812,0,0,0,12512,1932,25,27,0,0,152,"[1503, 1736, 1549]","[1, 2]",0,0,"[4095, 4095, 4095, 4095]"
1608810903667983633,,115187,,1608810903,670298234,'',832,0,0,0,12551,1971,25,27,0,0,152,"[1500, 1693, 1549]","[1, 2]",0,0,"[4095, 4095, 4095, 4095]"
1608810903701027959,,115188,,1608810903,690281795,'',852,0,0,0,12590,2010,25,27,0,0,152,"[1500, 1689, 1553]","[2, 1]",0,0,"[4095, 4095, 4095, 4095]"
1608810903720765432,,115189,,1608810903,710235310,'',872,0,0,0,12628,2051,25,26,0,0,152,"[1500, 1737, 1553]","[2, 1]",0,0,"[4095, 4095, 4095, 4095]"
1608810903720810328,,115190,,1608810903,730097518,'',892,0,0,0,12667,2089,25,27,0,0,152,"[1498, 1737, 1552]","[2, 1]",0,0,"[4095, 4095, 4095, 4095]"
1608810903746441149,,115191,,1608810903,750159551,'',912,0,0,0,12706,2128,25,27,0,0,152,"[1500, 1736, 1567]","[1, 1]",0,0,"[4095, 4095, 4095, 4095]"
1608810903776645867,,115192,,1608810903,770101688,'',932,0,0,0,12744,2166,26,28,0,0,152,"[1500, 1737, 1567]","[2, 1]",0,0,"[4095, 4095, 4095, 4095]"
1608810903803966162,,115193,,1608810903,791070367,'',952,0,0,0,12784,2205,25,28,0,0,152,"[1497, 1740, 1545]","[1, 2]",0,0,"[4095, 4095, 4095, 4095]"
1608810903804048102,,115194,,1608810903,809990340,'',972,0,0,0,12822,2244,26,28,0,0,152,"[1497, 1740, 1546]","[1, 2]",0,0,"[4095, 4095, 4095, 4095]"
1608810903827328893,,115195,,1608810903,831089123,'',992,0,0,0,12862,2284,25,27,0,0,152,"[1502, 1690, 1546]","[1, 1]",0,0,"[4095, 4095, 4095, 4095]"
1608810903863758496,,115196,,1608810903,850059854,'',1012,0,0,0,12900,2324,26,26,0,0,152,"[1502, 1713, 1545]","[2, 1]",0,0,"[4095, 4095, 4095, 4095]"
1608810903892465404,,115197,,1608810903,870099716,'',1032,0,0,0,12939,2363,25,26,0,0,152,"[1495, 1718, 1555]","[2, 1]",0,0,"[4095, 4095, 4095, 4095]"
1608810903892539451,,115198,,1608810903,891062560,'',1052,0,0,0,12978,2402,26,27,0,0,152,"[1495, 1718, 1560]","[2, 1]",0,0,"[4095, 4095, 4095, 4095]"
1608810903911170257,,115199,,1608810903,910853590,'',1072,0,0,0,13017,2441,25,27,0,0,152,"[1493, 1718, 1569]","[1, 1]",0,0,"[4095, 4095, 4095, 4095]"
1608810903926158558,,115200,,1608810903,930108451,'',1092,0,0,0,13056,2479,26,28,0,0,152,"[1501, 1712, 1569]","[2, 1]",0,0,"[4095, 4095, 4095, 4095]"
1608810903961604030,,115201,,1608810903,949986412,'',1112,0,0,0,13096,2519,26,27,0,0,152,"[1501, 1712, 1541]","[1, 1]",0,0,"[4095, 4095, 4095, 4095]"
1608810903986090899,,115202,,1608810903,971121367,'',1132,0,0,0,13136,2559,25,27,0,0,152,"[1501, 1690, 1551]","[2, 2]",0,0,"[4095, 4095, 4095, 4095]"
1608810903986124019,,115203,,1608810903,991108137,'',1152,0,0,0,13174,2599,26,26,0,0,152,"[1501, 1688, 1551]","[1, 2]",0,0,"[4095, 4095, 4095, 4095]"
1608810904016325618,,115204,,1608810904,11109491,'',1172,0,0,0,13214,2639,26,26,0,0,152,"[1501, 1713, 1546]","[2, 1]",0,0,"[4095, 4095, 4095, 4095]"
1608810904040603588,,115205,,1608810904,32166256,'',1192,0,0,0,13253,2679,26,26,0,0,152,"[1497, 1714, 1546]","[2, 1]",0,0,"[4095, 4095, 4095, 4095]"
1608810904040650706,,115206,,1608810904,51113641,'',1212,0,0,0,13292,2717,26,27,0,0,152,"[1498, 1714, 1543]","[2, 1]",0,0,"[4095, 4095, 4095, 4095]"
1608810904074270702,,115207,,1608810904,71134532,'',1232,0,0,0,13331,2756,26,27,0,0,152,"[1498, 1714, 1545]","[1, 2]",0,0,"[4095, 4095, 4095, 4095]"
1608810904108811743,,115208,,1608810904,92952087,'',1252,0,0,0,13372,2796,25,27,0,0,152,"[1498, 1714, 1545]","[2, 1]",0,0,"[4095, 4095, 4095, 4095]"
1608810904138106552,,115209,,1608810904,112109797,'',1272,0,0,0,13411,2837,25,26,0,0,152,"[1501, 1714, 1546]","[2, 1]",0,0,"[4095, 4095, 4095, 4095]"
1608810904138259819,,115210,,1608810904,130999423,'',1292,0,0,0,13450,2877,25,26,0,0,152,"[1501, 1691, 1546]","[1, 1]",0,0,"[4095, 4095, 4095, 4095]"
1608810904166870143,,115211,,1608810904,150901003,'',1312,0,0,0,13489,2915,26,27,0,0,152,"[1497, 1714, 1520]","[2, 1]",0,0,"[4095, 4095, 4095, 4095]"
1608810904167095069,,115212,,1608810904,171009408,'',1332,0,0,0,13528,2955,26,27,0,0,152,"[1497, 1717, 1529]","[2, 1]",0,0,"[4095, 4095, 4095, 4095]"
1608810904190568194,,115213,,1608810904,191014547,'',1352,0,0,0,13568,2995,26,27,0,0,152,"[1496, 1717, 1537]","[2, 1]",0,0,"[4095, 4095, 4095, 4095]"
1608810904217063370,,115214,,1608810904,212057894,'',1372,0,0,0,13608,3035,26,26,0,0,152,"[1500, 1717, 1542]","[2, 1]",0,0,"[4095, 4095, 4095, 4095]"
1608810904217976868,,115215,,1608810904,232033861,'',1392,0,0,0,13648,3075,25,26,0,0,152,"[1518, 1736, 1542]","[2, 1]",0,0,"[4095, 4095, 4095, 4095]"
1608810904246850798,,115216,,1608810904,252006036,'',1412,0,0,0,13688,3114,25,27,0,0,152,"[1518, 1736, 1538]","[1, 1]",0,0,"[4095, 4095, 4095, 4095]"
1608810904267786461,,115217,,1608810904,272721789,'',1432,0,0,0,13726,3153,26,27,0,0,152,"[1476, 1736, 1538]","[2, 1]",0,0,"[4095, 4095, 4095, 4095]"
1608810904293327307,,115218,,1608810904,292797813,'',1452,0,0,0,13766,3193,26,27,0,0,152,"[1499, 1691, 1525]","[2, 2]",0,0,"[4095, 4095, 4095, 4095]"
1608810904308287559,,115219,,1608810904,313562574,'',1472,0,0,0,13805,3234,27,26,0,0,152,"[1503, 1711, 1525]","[2, 1]",0,0,"[4095, 4095, 4095, 4095]"
1608810904325729592,,115220,,1608810904,332621102,'',1492,0,0,0,13846,3274,25,26,0,0,152,"[1503, 1713, 1539]","[2, 1]",0,0,"[4095, 4095, 4095, 4095]"
1608810904342350420,,115221,,1608810904,352575774,'',1512,0,0,0,13886,3314,25,26,0,0,152,"[1499, 1713, 1539]","[1, 1]",0,0,"[4095, 4095, 4095, 4095]"
1608810904367354219,,115222,,1608810904,372621169,'',1532,0,0,0,13926,3353,25,27,0,0,152,"[1499, 1737, 1543]","[1, 1]",0,0,"[4095, 4095, 4095, 4095]"
1608810904403342172,,115223,,1608810904,392709737,'',1552,0,0,0,13966,3393,25,27,0,0,152,"[1497, 1738, 1543]","[1, 1]",0,0,"[4095, 4095, 4095, 4095]"
1608810904430024154,,115224,,1608810904,412949122,'',1572,0,0,0,14006,3433,25,27,0,0,152,"[1497, 1738, 1538]","[1, 1]",0,0,"[4095, 4095, 4095, 4095]"
1608810904430287226,,115225,,1608810904,432542069,'',1592,0,0,0,14045,3473,26,27,0,0,152,"[1495, 1737, 1543]","[2, 1]",0,0,"[4095, 4095, 4095, 4095]"
1608810904452002079,,115226,,1608810904,452623928,'',1612,0,0,0,14085,3513,26,27,0,0,152,"[1514, 1711, 1543]","[2, 1]",0,0,"[4095, 4095, 4095, 4095]"
1608810904473967362,,115227,,1608810904,473548256,'',1632,0,0,0,14126,3554,26,26,0,0,152,"[1527, 1738, 1526]","[1, 1]",0,0,"[4095, 4095, 4095, 4095]"
1608810904494832593,,115228,,1608810904,493591609,'',1652,0,0,0,14166,3593,25,27,0,0,152,"[1527, 1738, 1530]","[1, 1]",0,0,"[4095, 4095, 4095, 4095]"
1608810904510214989,,115229,,1608810904,513486771,'',1672,0,0,0,14206,3632,25,27,0,0,152,"[1499, 1737, 1536]","[1, 1]",0,0,"[4095, 4095, 4095, 4095]"
1608810904550760648,,115230,,1608810904,532483164,'',1692,0,0,0,14246,3673,26,27,0,0,152,"[1522, 1736, 1566]","[1, 1]",0,0,"[4095, 4095, 4095, 4095]"
1608810904576717213,,115231,,1608810904,552561814,'',1712,0,0,0,14286,3713,26,27,0,0,152,"[1522, 1736, 1566]","[1, 2]",0,0,"[4095, 4095, 4095, 4095]"
1608810904576911703,,115232,,1608810904,572855749,'',1732,0,0,0,14326,3754,26,26,0,0,152,"[1525, 1736, 1529]","[2, 1]",0,0,"[4095, 4095, 4095, 4095]"
1608810904604078094,,115233,,1608810904,592873431,'',1752,0,0,0,14367,3794,25,27,0,0,152,"[1525, 1736, 1545]","[2, 1]",0,0,"[4095, 4095, 4095, 4095]"
1608810904604106324,,115234,,1608810904,614288422,'',1772,0,0,0,14407,3834,25,27,0,0,152,"[1520, 1713, 1545]","[1, 1]",0,0,"[4095, 4095, 4095, 4095]"
1608810904627883510,,115235,,1608810904,633659667,'',1792,0,0,0,14448,3874,25,27,0,0,152,"[1499, 1762, 1530]","[1, 1]",0,0,"[4095, 4095, 4095, 4095]"
1608810904652256886,,115236,,1608810904,653788200,'',1812,0,0,0,14489,3914,25,27,0,0,152,"[1520, 1762, 1557]","[1, 1]",0,0,"[4095, 4095, 4095, 4095]"
1608810904667552805,,115237,,1608810904,672286054,'',1832,0,0,0,14530,3954,25,27,0,0,152,"[1520, 1762, 1561]","[1, 1]",0,0,"[4095, 4095, 4095, 4095]"
1608810904700110780,,115238,,1608810904,692253853,'',1852,0,0,0,14570,3995,25,27,0,0,152,"[1520, 1780, 1591]","[1, 1]",0,0,"[4095, 4095, 4095, 4095]"
1608810904731264485,,115239,,1608810904,713277656,'',1872,0,0,0,14611,4037,25,26,0,0,152,"[1524, 1784, 1591]","[1, 1]",0,0,"[4095, 4095, 4095, 4095]"
1608810904748115007,,115240,,1608810904,733590844,'',1892,0,0,0,14651,4077,26,26,0,0,152,"[1524, 1784, 1567]","[1, 1]",0,0,"[4095, 4095, 4095, 4095]"
1608810904748137667,,115241,,1608810904,752794353,'',1912,0,0,0,14692,4117,26,26,0,0,152,"[1523, 1759, 1560]","[2, 1]",0,0,"[4095, 4095, 4095, 4095]"
1608810904768960964,,115242,,1608810904,772789865,'',1932,0,0,0,14732,4157,26,27,0,0,152,"[1523, 1739, 1569]","[2, 1]",0,0,"[4095, 4095, 4095, 4095]"
1608810904780643237,,115243,,1608810904,792825633,'',1952,0,0,0,14772,4196,26,27,0,0,152,"[1521, 1786, 1571]","[2, 1]",0,0,"[4095, 4095, 4095, 4095]"
1608810904797794096,,115244,,1608810904,812990631,'',1972,0,0,0,14813,4236,26,27,0,0,152,"[1522, 1786, 1571]","[2, 1]",0,0,"[4095, 4095, 4095, 4095]"
1608810904816143958,,115245,,1608810904,832610415,'',1992,0,0,0,14854,4277,26,27,0,0,152,"[1522, 1785, 1555]","[1, 1]",0,0,"[4095, 4095, 4095, 4095]"
1608810904847646866,,115246,,1608810904,853698978,'',2012,0,0,0,14895,4317,25,26,0,0,152,"[1547, 1785, 1564]","[1, 1]",0,0,"[4095, 4095, 4095, 4095]"
1608810904868413381,,115247,,1608810904,874615430,'',2032,0,0,0,14935,4358,26,26,0,0,152,"[1547, 1785, 1564]","[2, 2]",0,0,"[4095, 4095, 4095, 4095]"
1608810904894763717,,115248,,1608810904,894438248,'',2052,0,0,0,14976,4397,26,27,0,0,152,"[1522, 1782, 1547]","[2, 1]",0,0,"[4095, 4095, 4095, 4095]"
1608810904920588919,,115249,,1608810904,914649336,'',2072,0,0,0,15016,4435,27,28,0,0,152,"[1522, 1755, 1547]","[2, 1]",0,0,"[4095, 4095, 4095, 4095]"
1608810904955398967,,115250,,1608810904,935475648,'',2092,0,0,0,15057,4475,26,29,0,0,152,"[1522, 1759, 1566]","[1, 1]",0,0,"[4095, 4095, 4095, 4095]"
1608810904973413073,,115251,,1608810904,954447829,'',2112,0,0,0,15098,4516,26,28,0,0,152,"[1523, 1782, 1573]","[2, 1]",0,0,"[4095, 4095, 4095, 4095]"
1608810904973433808,,115252,,1608810904,975397828,'',2132,0,0,0,15138,4557,26,26,0,0,152,"[1523, 1786, 1584]","[2, 1]",0,0,"[4095, 4095, 4095, 4095]"
1608810905003359585,,115253,,1608810904,994435060,'',2152,0,0,0,15178,4597,27,26,0,0,152,"[1503, 1786, 1584]","[2, 1]",0,0,"[4095, 4095, 4095, 4095]"
1608810905003438976,,115254,,1608810905,14439028,'',2172,0,0,0,15218,4638,27,26,0,0,152,"[1524, 1784, 1585]","[2, 1]",0,0,"[4095, 4095, 4095, 4095]"
1608810905027138244,,115255,,1608810905,33532551,'',2192,0,0,0,15258,4678,27,27,0,0,152,"[1524, 1784, 1585]","[2, 1]",0,0,"[4095, 4095, 4095, 4095]"
1608810905042997794,,115256,,1608810905,53510259,'',2212,0,0,0,15300,4717,26,27,0,0,152,"[1525, 1781, 1545]","[2, 1]",0,0,"[4095, 4095, 4095, 4095]"
1608810905064900856,,115257,,1608810905,73537558,'',2232,0,0,0,15341,4757,26,28,0,0,152,"[1525, 1761, 1549]","[2, 1]",0,0,"[4095, 4095, 4095, 4095]"
1608810905087815837,,115258,,1608810905,96606846,'',2252,0,0,0,15383,4798,25,27,0,0,152,"[1525, 1781, 1549]","[1, 1]",0,0,"[4095, 4095, 4095, 4095]"
1608810905112429764,,115259,,1608810905,113518353,'',2272,0,0,0,15424,4840,25,26,0,0,152,"[1524, 1783, 1553]","[2, 1]",0,0,"[4095, 4095, 4095, 4095]"
1608810905153407473,,115260,,1608810905,134928374,'',2292,0,0,0,15464,4880,26,26,0,0,152,"[1524, 1783, 1564]","[1, 1]",0,0,"[4095, 4095, 4095, 4095]"
1608810905153622598,,115261,,1608810905,154433506,'',2312,0,0,0,15504,4921,27,26,0,0,152,"[1524, 1780, 1564]","[2, 1]",0,0,"[4095, 4095, 4095, 4095]"
1608810905176779492,,115262,,1608810905,174325742,'',2332,0,0,0,15543,4961,28,27,0,0,152,"[1523, 1786, 1559]","[2, 1]",0,0,"[4095, 4095, 4095, 4095]"
1608810905206572657,,115263,,1608810905,194427428,'',2352,0,0,0,15585,5001,27,27,0,0,152,"[1503, 1786, 1543]","[2, 1]",0,0,"[4095, 4095, 4095, 4095]"
1608810905223239578,,115264,,1608810905,215704719,'',2372,0,0,0,15625,5041,27,28,0,0,152,"[1502, 1786, 1546]","[2, 1]",0,0,"[4095, 4095, 4095, 4095]"
1608810905223255268,,115265,,1608810905,234470066,'',2392,0,0,0,15666,5082,26,27,0,0,152,"[1501, 1737, 1549]","[2, 1]",0,0,"[4095, 4095, 4095, 4095]"
1608810905250487993,,115266,,1608810905,254327879,'',2412,0,0,0,15707,5123,17,15,0,0,152,"[1505, 1765, 1549]","[2, 1]",0,0,"[4095, 4095, 4095, 4095]"
1608810905267502389,,115267,,1608810905,274692107,'',2432,0,0,0,15745,5160,18,16,0,0,152,"[1505, 1783, 1560]","[1, 0]",0,0,"[4095, 4095, 4095, 4095]"
1608810905284627760,,115268,,1608810905,294446071,'',2452,0,0,0,15778,5192,22,21,0,0,152,"[1503, 1783, 1564]","[1, 0]",0,0,"[4095, 4095, 4095, 4095]"
1608810905298886137,,115269,,1608810905,314496707,'',2472,0,0,0,15813,5227,25,24,0,0,152,"[1503, 1785, 1564]","[1, 1]",0,0,"[4095, 4095, 4095, 4095]"
1608810905315479821,,115270,,1608810905,334517588,'',2492,0,0,0,15850,5264,25,24,0,0,152,"[1503, 1785, 1567]","[1, 0]",0,0,"[4095, 4095, 4095, 4095]"
1608810905334925462,,115271,,1608810905,355439864,'',2512,0,0,0,15890,5300,22,22,0,0,152,"[1500, 1785, 1567]","[1, 1]",0,0,"[4095, 4095, 4095, 4095]"
1608810905357265972,,115272,,1608810905,374694414,'',2532,0,0,0,15926,5335,21,22,0,0,152,"[1527, 1782, 1546]","[1, 1]",0,0,"[4095, 4095, 4095, 4095]"
1608810905403944191,,115273,,1608810905,396348891,'',2552,0,0,0,15961,5368,22,24,0,0,152,"[1527, 1762, 1547]","[1, 1]",0,0,"[4095, 4095, 4095, 4095]"
1608810905415599400,,115274,,1608810905,415468378,'',2572,0,0,0,15996,5402,25,25,0,0,152,"[1527, 1786, 1547]","[1, 1]",0,0,"[4095, 4095, 4095, 4095]"
1608810905433481469,,115275,,1608810905,435373741,'',2592,0,0,0,16031,5437,25,25,0,0,152,"[1517, 1786, 1555]","[2, 1]",0,0,"[4095, 4095, 4095, 4095]"
1608810905469319026,,115276,,1608810905,455324903,'',2612,0,0,0,16066,5473,25,23,0,0,152,"[1523, 1783, 1562]","[2, 1]",0,0,"[4095, 4095, 4095, 4095]"
1608810905500177104,,115277,,1608810905,478716242,'',2632,0,0,0,16101,5508,25,23,0,0,152,"[1523, 1784, 1562]","[2, 1]",0,0,"[4095, 4095, 4095, 4095]"
