rosbagTimestamp,header,seq,stamp,secs,nsecs,frame_id,pose,position,x,y,z,orientation,x,y,z,w
1608810897465521096,,17741,,1608810897,465329264,"""world""",,,2.88352131844,1.30765533447,0.43894547224,,-0.00232233223505,-0.0125660831109,-0.712232232094,-0.701827645302
1608810897465657099,,17742,,1608810897,465396386,"""world""",,,2.883487463,1.30781340599,0.438901722431,,-0.00188976153731,-0.0123638110235,-0.712236642838,-0.701827943325
1608810897465690556,,17744,,1608810897,465449370,"""world""",,,2.88351821899,1.30765497684,0.438934981823,,-0.00232670595869,-0.0126006919891,-0.712201714516,-0.701857924461
1608810897465965161,,17745,,1608810897,465495341,"""world""",,,2.88352108002,1.30765461922,0.438944280148,,-0.00240549724549,-0.0125998156145,-0.712208211422,-0.701851129532
1608810897615919797,,17746,,1608810897,615303157,"""world""",,,2.88351798058,1.3076441288,0.438934862614,,-0.00235180463642,-0.0126146813855,-0.71220177412,-0.701857566833
1608810897616009687,,17750,,1608810897,615515116,"""world""",,,2.8835208416,1.30764997005,0.43893969059,,-0.0023627304472,-0.0126809040084,-0.712209105492,-0.70184892416
1608810897675431958,,17751,,1608810897,675252477,"""world""",,,2.88352680206,1.3076775074,0.43893545866,,-0.00227719475515,-0.0125801982358,-0.712184548378,-0.701875865459
1608810897675450300,,17752,,1608810897,675288304,"""world""",,,2.88352370262,1.30765283108,0.438944756985,,-0.00230128830299,-0.012615009211,-0.712184071541,-0.701875627041
1608810897675729188,,17753,,1608810897,675340619,"""world""",,,2.8835208416,1.30765354633,0.438948512077,,-0.00232034293003,-0.0125983338803,-0.712179243565,-0.70188087225
1608810897675738915,,17756,,1608810897,675411098,"""world""",,,2.88352537155,1.30765664577,0.438942015171,,-0.00232489430346,-0.0126244956627,-0.712194740772,-0.701864600182
1608810897696102060,,17757,,1608810897,695254242,"""world""",,,2.88352560997,1.30764698982,0.438942849636,,-0.00229151500389,-0.0126350140199,-0.712206244469,-0.701852917671
1608810897696141433,,17758,,1608810897,695349468,"""world""",,,2.88352131844,1.30765795708,0.43893429637,,-0.00236759753898,-0.0126030230895,-0.712189435959,-0.701870203018
1608810897696176616,,17761,,1608810897,695394103,"""world""",,,2.88352322578,1.30765330791,0.438939392567,,-0.0022834034171,-0.0126394573599,-0.712187230587,-0.701872169971
1608810897696191367,,17762,,1608810897,695429335,"""world""",,,2.88352680206,1.3076583147,0.438941985369,,-0.00230540870689,-0.0126243643463,-0.712150633335,-0.701909422874
1608810897696199313,,17770,,1608810897,695542708,"""world""",,,2.88352179527,1.30765640736,0.43893674016,,-0.00231913058087,-0.012575305067,-0.712186813354,-0.701873600483
1608810897696249439,,17771,,1608810897,695585056,"""world""",,,2.88353133202,1.30765688419,0.438934594393,,-0.00231700018048,-0.0126367649063,-0.712191224098,-0.701867938042
1608810897696257269,,17775,,1608810897,695656926,"""world""",,,2.88351869583,1.30766892433,0.438929855824,,-0.00235310476273,-0.012652692385,-0.712235271931,-0.701822817326
1608810897696271007,,17776,,1608810897,695724143,"""world""",,,2.88352537155,1.3076685667,0.438934504986,,-0.00233848905191,-0.0125858336687,-0.712213158607,-0.701846599579
1608810897696278426,,17782,,1608810897,695837559,"""world""",,,2.88348531723,1.30782151222,0.438908368349,,-0.0018629936967,-0.0123812239617,-0.712225615978,-0.701839029789
1608810897696326377,,17783,,1608810897,695885594,"""world""",,,2.88352656364,1.30766355991,0.438945382833,,-0.00227760151029,-0.0126362424344,-0.712195456028,-0.701863765717
1608810897696333688,,17785,,1608810897,695919464,"""world""",,,2.88352417946,1.30766105652,0.438940554857,,-0.00232746312395,-0.0126314321533,-0.712218165398,-0.701840758324
1608810897696341989,,17786,,1608810897,695964200,"""world""",,,2.88352823257,1.30766665936,0.438941329718,,-0.00231213774532,-0.012584708631,-0.712200582027,-0.701859474182
1608810897705520194,,17787,,1608810897,705289848,"""world""",,,2.88352298737,1.30766177177,0.438939899206,,-0.00231854384765,-0.0126037336886,-0.712202072144,-0.701857566833
1608810897715556121,,17788,,1608810897,715288032,"""world""",,,2.88353013992,1.30766427517,0.438943654299,,-0.0022655534558,-0.0125937638804,-0.712191641331,-0.701868534088
1608810897715575234,,17789,,1608810897,715360740,"""world""",,,2.88352870941,1.30765855312,0.438943177462,,-0.00234337127768,-0.0125901810825,-0.712195038795,-0.701864898205
1608810897735732423,,17790,,1608810897,735299363,"""world""",,,2.88352108002,1.30766439438,0.438932448626,,-0.00234645442106,-0.0126427896321,-0.712208807468,-0.701849997044
1608810897735806986,,17791,,1608810897,735434957,"""world""",,,2.88352537155,1.30765759945,0.438945502043,,-0.00231988751329,-0.0125274993479,-0.712195038795,-0.701866090298
1608810897745954713,,17792,,1608810897,745382161,"""world""",,,2.88352417946,1.30766010284,0.438947588205,,-0.00231594918296,-0.012591375038,-0.712192893028,-0.701867103577
1608810897755640835,,17793,,1608810897,755315395,"""world""",,,2.88352966309,1.30766820908,0.438941240311,,-0.00237618177198,-0.0125417066738,-0.712168037891,-0.701892971992
1608810897766120162,,17794,,1608810897,765263600,"""world""",,,2.8835208416,1.30766093731,0.438942879438,,-0.00232848199084,-0.0126587599516,-0.712212562561,-0.701845884323
1608810897775483265,,17795,,1608810897,775287010,"""world""",,,2.88351774216,1.30765426159,0.438942164183,,-0.00235531991348,-0.0125793386251,-0.712201833725,-0.70185816288
1608810897775782708,,17796,,1608810897,775365281,"""world""",,,2.88352870941,1.30764949322,0.438947945833,,-0.00230329111218,-0.0125722242519,-0.712209522724,-0.70185059309
1608810897795417300,,17797,,1608810897,795279495,"""world""",,,2.8835208416,1.30765068531,0.438935637474,,-0.00230450648814,-0.012668132782,-0.712223649025,-0.701834559441
1608810897795563581,,17798,,1608810897,795339477,"""world""",,,2.88352918625,1.30765914917,0.438946127892,,-0.0023254759144,-0.0126179764047,-0.712199211121,-0.701860189438
1608810897825432537,,17799,,1608810897,825250542,"""world""",,,2.88352632523,1.3076479435,0.438942283392,,-0.00229859887622,-0.0126250265166,-0.712208390236,-0.701850771904
1608810897835440549,,17800,,1608810897,835253026,"""world""",,,2.88353252411,1.30765080452,0.438943177462,,-0.00223044934683,-0.0126252202317,-0.712213814259,-0.7018455863
1608810897835985338,,17801,,1608810897,835315800,"""world""",,,2.88352203369,1.30765342712,0.438948243856,,-0.00231779925525,-0.0125917196274,-0.712218523026,-0.701841115952
1608810897835994410,,17802,,1608810897,835338654,"""world""",,,2.88351964951,1.30764782429,0.43894597888,,-0.00234993011691,-0.0126757258549,-0.712229669094,-0.701828181744
1608810897836059152,,17803,,1608810897,835384847,"""world""",,,2.88351798058,1.30765199661,0.438938736916,,-0.00233502639458,-0.0126018570736,-0.712208271027,-0.701851248741
1608810897845486145,,17804,,1608810897,845321204,"""world""",,,2.88352155685,1.30765271187,0.438943743706,,-0.00231881579384,-0.0125984540209,-0.712202548981,-0.701857209206
1608810897855599265,,17805,,1608810897,855312259,"""world""",,,2.88352656364,1.30764770508,0.438941985369,,-0.00229983986355,-0.0126534625888,-0.712214708328,-0.701843857765
1608810897878948657,,17806,,1608810897,875292820,"""world""",,,2.88352036476,1.30766069889,0.438939839602,,-0.00229137460701,-0.0125720156357,-0.71222537756,-0.701834559441
1608810897878955530,,17807,,1608810897,875392609,"""world""",,,2.88352870941,1.3076581955,0.438951402903,,-0.00237256800756,-0.0125845307484,-0.712204754353,-0.701855063438
1608810897885680843,,17808,,1608810897,885286747,"""world""",,,2.88351798058,1.30765616894,0.438938528299,,-0.00230898684822,-0.0126718524843,-0.712202429771,-0.701856017113
1608810897885841429,,17809,,1608810897,885350856,"""world""",,,2.88352704048,1.30764448643,0.438933372498,,-0.00231046276167,-0.0126289697364,-0.712206542492,-0.701852560043
1608810897905532584,,17810,,1608810897,905269142,"""world""",,,2.88351917267,1.30764913559,0.438947558403,,-0.00235929130577,-0.0126426899806,-0.712222278118,-0.701836228371
1608810897905598927,,17811,,1608810897,905320260,"""world""",,,2.88352632523,1.30765855312,0.438944965601,,-0.00234432565048,-0.0125591401011,-0.712225198746,-0.701834857464
1608810897915545843,,17812,,1608810897,915272226,"""world""",,,2.88352656364,1.30766022205,0.438933551311,,-0.00227925577201,-0.0126555329189,-0.712181031704,-0.701878070831
1608810897925736507,,17813,,1608810897,925251010,"""world""",,,2.88352608681,1.30764973164,0.438941985369,,-0.00227856892161,-0.0126787656918,-0.712196826935,-0.701861739159
1608810897935402391,,17814,,1608810897,935238956,"""world""",,,2.88352632523,1.30765032768,0.438949555159,,-0.00234643090516,-0.0126187531278,-0.712196588516,-0.701862871647
1608810897945485451,,17815,,1608810897,945268510,"""world""",,,2.88352584839,1.30765032768,0.438943684101,,-0.00230948883109,-0.0126598030329,-0.712204754353,-0.701853871346
1608810897945520362,,17816,,1608810897,945325715,"""world""",,,2.88352155685,1.30765295029,0.438946217299,,-0.00231631379575,-0.012603293173,-0.712230801582,-0.701828420162
1608810897955452477,,17817,,1608810897,955274794,"""world""",,,2.88352274895,1.30765867233,0.438941597939,,-0.0023070378229,-0.0127383070067,-0.712192237377,-0.701865136623
1608810897965454043,,17818,,1608810897,965247113,"""world""",,,2.88352012634,1.30766427517,0.438937932253,,-0.00229881727137,-0.0127082252875,-0.712191104889,-0.701866805553
1608810897975518021,,17819,,1608810897,975358390,"""world""",,,2.8835272789,1.30766034126,0.438938170671,,-0.00229429919273,-0.0126004014164,-0.712166368961,-0.701893866062
1608810897975537076,,17820,,1608810897,975408684,"""world""",,,2.88352108002,1.30766284466,0.438944965601,,-0.0022833684925,-0.0126638058573,-0.712204039097,-0.701854586601
1608810897995519926,,17821,,1608810897,995308847,"""world""",,,2.88351607323,1.30765461922,0.438935250044,,-0.00231340574101,-0.0126639558002,-0.712208092213,-0.701850414276
1608810898005399886,,17822,,1608810898,5253271,"""world""",,,2.88353514671,1.30766189098,0.438947707415,,-0.00227347551845,-0.0125777171925,-0.712167203426,-0.701893627644
1608810898005711086,,17823,,1608810898,5317625,"""world""",,,2.88352108002,1.30766069889,0.438949763775,,-0.00232826219872,-0.0126383323222,-0.71216905117,-0.701890408993
1608810898015454792,,17824,,1608810898,15310991,"""world""",,,2.88352227211,1.30765902996,0.43893891573,,-0.00232717441395,-0.0126033574343,-0.7121925354,-0.701867222786
1608810898025493875,,17825,,1608810898,25266304,"""world""",,,2.88351988792,1.30765426159,0.438944280148,,-0.00233662733808,-0.0126052312553,-0.712189495564,-0.701870262623
1608810898035562839,,17826,,1608810898,35275494,"""world""",,,2.88351678848,1.30764842033,0.438936620951,,-0.00236107432283,-0.0126384105533,-0.712174713612,-0.701884567738
1608810898035815385,,17827,,1608810898,35368899,"""world""",,,2.88351845741,1.30765652657,0.438932329416,,-0.00234884489328,-0.0127041079104,-0.712198317051,-0.701859414577
1608810898045864709,,17828,,1608810898,45279636,"""world""",,,2.88352298737,1.30766534805,0.438932657242,,-0.00234505045228,-0.0126455137506,-0.712188303471,-0.701870679855
1608810898055556125,,17829,,1608810898,55285403,"""world""",,,2.88352131844,1.30765080452,0.438939809799,,-0.00233050622046,-0.0125423902646,-0.712196886539,-0.701863884926
1608810898065527604,,17830,,1608810898,65287961,"""world""",,,2.8835272789,1.30765461922,0.438935518265,,-0.00228159758262,-0.0126259280369,-0.712217032909,-0.701842069626
1608810898076086759,,17831,,1608810898,75335070,"""world""",,,2.8835170269,1.30766057968,0.438937962055,,-0.00235890201293,-0.0126208392903,-0.712217390537,-0.701841592789
1608810898076133425,,17832,,1608810898,75395707,"""world""",,,2.88351845741,1.30767023563,0.438947349787,,-0.00232671061531,-0.0126317078248,-0.712188243866,-0.701871097088
1608810898096111984,,17833,,1608810898,95290539,"""world""",,,2.88352251053,1.30765104294,0.438941299915,,-0.0022815419361,-0.0126468855888,-0.712220013142,-0.701838731766
1608810898096183489,,17834,,1608810898,95350760,"""world""",,,2.88352823257,1.30765736103,0.438949733973,,-0.00231250794604,-0.0125666456297,-0.712217211723,-0.701842904091
1608810898105487884,,17835,,1608810898,105303773,"""world""",,,2.88352203369,1.30765259266,0.438932597637,,-0.00232947082259,-0.012655524537,-0.712168335915,-0.70189088583
1608810898115428451,,17836,,1608810898,115290604,"""world""",,,2.88352060318,1.30766618252,0.438934385777,,-0.00231685698964,-0.012671626173,-0.712225854397,-0.701832175255
1608810898145472759,,17837,,1608810898,145269230,"""world""",,,2.8835246563,1.30765557289,0.438950240612,,-0.0022836192511,-0.0125884031877,-0.712208628654,-0.701851308346
1608810898145909929,,17838,,1608810898,145346842,"""world""",,,2.88351845741,1.30765271187,0.438934922218,,-0.00230452185497,-0.012643144466,-0.712191343307,-0.701867818832
1608810898145946516,,17840,,1608810898,145405813,"""world""",,,2.8835208416,1.30766153336,0.438945651054,,-0.00227960362099,-0.0126172993332,-0.712184846401,-0.701874911785
1608810898158214040,,17841,,1608810898,155272124,"""world""",,,2.88352560997,1.30766284466,0.438947528601,,-0.00231007905677,-0.0125580355525,-0.712179362774,-0.701881408691
1608810898165443114,,17842,,1608810898,165271238,"""world""",,,2.88352108002,1.30766534805,0.438937306404,,-0.00225360388868,-0.0126299988478,-0.712187469006,-0.701872110367
1608810898175458867,,17843,,1608810898,175294292,"""world""",,,2.88352608681,1.30766797066,0.438933283091,,-0.00226947898045,-0.0126457512379,-0.712188065052,-0.701871216297
1608810898185655224,,17844,,1608810898,185405851,"""world""",,,2.88352966309,1.30764365196,0.438945770264,,-0.00234588212334,-0.0126838441938,-0.7122143507,-0.701843619347
1608810898226616222,,17845,,1608810898,225316779,"""world""",,,2.88352131844,1.30766689777,0.438931494951,,-0.00234990590252,-0.0126659078524,-0.712214887142,-0.701843380928
1608810898226633523,,17846,,1608810898,225567986,"""world""",,,2.88351869583,1.30767476559,0.43894508481,,-0.00230897055008,-0.0125944223255,-0.71223282814,-0.701826632023
1608810898226644959,,17850,,1608810898,225720106,"""world""",,,2.88352823257,1.30765426159,0.438930004835,,-0.00233303988352,-0.0126738576218,-0.712188005447,-0.701870560646
1608810898255476959,,17851,,1608810898,255265986,"""world""",,,2.88352680206,1.30765104294,0.438935309649,,-0.00234767887741,-0.0126556074247,-0.712224125862,-0.701834261417
1608810898258494740,,17852,,1608810898,255387527,"""world""",,,2.88352131844,1.30765628815,0.438943147659,,-0.00234277336858,-0.0126510076225,-0.712209999561,-0.701848626137
1608810898258597723,,17853,,1608810898,255429930,"""world""",,,2.88352608681,1.30765759945,0.438932478428,,-0.00229123723693,-0.0126440059394,-0.712206840515,-0.701852083206
1608810898275529067,,17854,,1608810898,275291443,"""world""",,,2.88352298737,1.30766665936,0.438939094543,,-0.00232176762074,-0.0126357311383,-0.712194144726,-0.701865077019
1608810898275659973,,17855,,1608810898,275408157,"""world""",,,2.88351941109,1.30766892433,0.438929468393,,-0.00235182605684,-0.0126366820186,-0.712190210819,-0.701868951321
1608810898285579516,,17856,,1608810898,285280046,"""world""",,,2.88352394104,1.3076583147,0.438925862312,,-0.00232780515216,-0.012672169134,-0.712214052677,-0.701844096184
1608810898285597051,,17857,,1608810898,285338736,"""world""",,,2.88353037834,1.30764663219,0.4389334023,,-0.00230702268891,-0.0126900151372,-0.712221205235,-0.701836645603
1608810898295446929,,17858,,1608810898,295272692,"""world""",,,2.88351941109,1.30765855312,0.438936710358,,-0.00229414622299,-0.0126866633072,-0.71222114563,-0.701836764812
1608810898306661942,,17859,,1608810898,305325722,"""world""",,,2.88352060318,1.30765593052,0.438940227032,,-0.00229743286036,-0.0125693455338,-0.712171256542,-0.701889514923
1608810898325530848,,17860,,1608810898,325288570,"""world""",,,2.8835272789,1.30765771866,0.438937753439,,-0.00227840896696,-0.0125457448885,-0.712206363678,-0.701854407787
1608810898325915268,,17861,,1608810898,325373569,"""world""",,,2.8835208416,1.30765962601,0.438934981823,,-0.00233764923178,-0.0127298859879,-0.712223351002,-0.701833546162
1608810898340563237,,17862,,1608810898,335294883,"""world""",,,2.88352227211,1.30765545368,0.438939541578,,-0.00232917675748,-0.0125923687592,-0.712206065655,-0.701853632927
1608810898340635108,,17863,,1608810898,335387904,"""world""",,,2.88352441788,1.30765533447,0.438941001892,,-0.00233142543584,-0.0126207042485,-0.712204813957,-0.701854467392
1608810898345659204,,17864,,1608810898,345287125,"""world""",,,2.8835246563,1.30764806271,0.438940167427,,-0.00237387581728,-0.0126336012036,-0.712203741074,-0.701855182648
1608810898356296508,,17865,,1608810898,355375723,"""world""",,,2.88353776932,1.3076530695,0.438944727182,,-0.00227057840675,-0.0126374606043,-0.712186157703,-0.701873242855
1608810898365596122,,17866,,1608810898,365288176,"""world""",,,2.88352704048,1.3076595068,0.438936412334,,-0.00229231338017,-0.0126251736656,-0.712198078632,-0.701861321926
1608810898379841045,,17867,,1608810898,375289166,"""world""",,,2.88352918625,1.30766832829,0.438941836357,,-0.00230906694196,-0.0126326177269,-0.712202847004,-0.701856255531
1608810898379855654,,17868,,1608810898,375348955,"""world""",,,2.88352847099,1.30767667294,0.438941180706,,-0.00230695912614,-0.0126087814569,-0.712176918983,-0.701883137226
1608810898387703079,,17869,,1608810898,385281455,"""world""",,,2.8835246563,1.30765283108,0.438937604427,,-0.00235805031843,-0.0127449939027,-0.712188661098,-0.701868474483
1608810898405490309,,17870,,1608810898,405295693,"""world""",,,2.88351798058,1.30766379833,0.438943684101,,-0.00230802432634,-0.0126196611673,-0.712221384048,-0.701837778091
1608810898405576916,,17871,,1608810898,405382985,"""world""",,,2.88352322578,1.30767035484,0.438935279846,,-0.00228187721223,-0.0126614468172,-0.71220523119,-0.701853454113
1608810898425629072,,17872,,1608810898,425283478,"""world""",,,2.88352537155,1.30765211582,0.438931494951,,-0.00231541902758,-0.0126829072833,-0.712200880051,-0.70185726881
1608810898435503265,,17873,,1608810898,435261620,"""world""",,,2.88352417946,1.30766749382,0.438935011625,,-0.0023579923436,-0.0126123549417,-0.712191581726,-0.701867938042
1608810898435530210,,17874,,1608810898,435301751,"""world""",,,2.88351726532,1.30765891075,0.438930779696,,-0.00230769300833,-0.0126536535099,-0.712233126163,-0.701825201511
1608810898446337479,,17875,,1608810898,445284610,"""world""",,,2.88351392746,1.30766606331,0.438929975033,,-0.00235343421809,-0.0127102071419,-0.712229728699,-0.701827466488
1608810898446400101,,17876,,1608810898,445410236,"""world""",,,2.88352537155,1.30765211582,0.438933253288,,-0.00235475902446,-0.0126803470775,-0.712190747261,-0.701867520809
1608810898455614338,,17877,,1608810898,455350790,"""world""",,,2.88353204727,1.30765914917,0.438936412334,,-0.00233379751444,-0.0125526590273,-0.712180316448,-0.701880455017
1608810898475613001,,17878,,1608810898,475312207,"""world""",,,2.88352942467,1.30765783787,0.438941150904,,-0.00227701291442,-0.0126059083268,-0.712159395218,-0.701900959015
1608810898485572121,,17879,,1608810898,485275961,"""world""",,,2.88352608681,1.30765509605,0.438942462206,,-0.00233117397875,-0.0125667657703,-0.712232291698,-0.701827466488
1608810898485641354,,17880,,1608810898,485377507,"""world""",,,2.88352513313,1.30766260624,0.438938438892,,-0.00231472728774,-0.0126348687336,-0.712189078331,-0.701870262623
1608810898495695574,,17881,,1608810898,495271417,"""world""",,,2.88348770142,1.30781269073,0.438914090395,,-0.00185510131996,-0.0123311476782,-0.712216317654,-0.701849281788
1608810898495877956,,17882,,1608810898,495359598,"""world""",,,2.88352632523,1.30765330791,0.438935011625,,-0.00228762160987,-0.0126103432849,-0.712244451046,-0.701814472675
1608810898515581513,,17883,,1608810898,515295199,"""world""",,,2.88352036476,1.30765807629,0.438939034939,,-0.00233202031814,-0.0126614831388,-0.712172985077,-0.701886057854
1608810898515611314,,17884,,1608810898,515400339,"""world""",,,2.88352394104,1.30766189098,0.43894636631,,-0.00232918793336,-0.0126166502014,-0.712232410908,-0.701826512814
1608810898535571183,,17885,,1608810898,535289179,"""world""",,,2.88352537155,1.30766022205,0.438933551311,,-0.00235371058807,-0.0126840500161,-0.712176024914,-0.70188242197
1608810898535930518,,17886,,1608810898,535406490,"""world""",,,2.88352489471,1.30764377117,0.438936293125,,-0.00229933205992,-0.0126164695248,-0.712199628353,-0.701859891415
1608810898536102258,,17887,,1608810898,535450059,"""world""",,,2.88352203369,1.30765855312,0.43893545866,,-0.00234243902378,-0.0125953862444,-0.712183117867,-0.701876819134
1608810898545587727,,17888,,1608810898,545280143,"""world""",,,2.88352322578,1.30765485764,0.438933670521,,-0.00231114705093,-0.0126187037677,-0.712208926678,-0.701850354671
1608810898555500367,,17889,,1608810898,555289718,"""world""",,,2.88352704048,1.30765616894,0.438932836056,,-0.00227606249973,-0.0125704091042,-0.712156653404,-0.70190435648
1608810898555616901,,17890,,1608810898,555404157,"""world""",,,2.88352489471,1.30766046047,0.438942492008,,-0.00233721779659,-0.0125521179289,-0.71220523119,-0.701855242252
1608810898566409639,,17891,,1608810898,566215028,"""world""",,,2.88352203369,1.3076570034,0.438935339451,,-0.00236468622461,-0.0125666363165,-0.712187051773,-0.701873362064
1608810898585692971,,17892,,1608810898,585289769,"""world""",,,2.88351988792,1.3076581955,0.438930928707,,-0.00236707250588,-0.0126141533256,-0.712207019329,-0.701852202415
1608810898585726841,,17893,,1608810898,585370711,"""world""",,,2.88352012634,1.30765163898,0.438928067684,,-0.0022950405255,-0.0127093009651,-0.712227106094,-0.701830387115
1608810898710589790,,17894,,1608810898,710215823,"""world""",,,2.88352894783,1.30765759945,0.43892878294,,-0.00235498533584,-0.0126503389329,-0.71218842268,-0.701870501041
1608810898719863071,,17895,,1608810898,715390997,"""world""",,,2.88352251053,1.30765664577,0.438930004835,,-0.00237588747405,-0.0126474490389,-0.712227761745,-0.701830506325
1608810898719881976,,17896,,1608810898,715521005,"""world""",,,2.88352203369,1.30765855312,0.438932031393,,-0.00229217833839,-0.0126784797758,-0.712191879749,-0.701866686344
1608810898719920605,,17897,,1608810898,715573190,"""world""",,,2.88352799416,1.30764937401,0.438936144114,,-0.0023126527667,-0.0126104336232,-0.712204813957,-0.701854705811
1608810898721814725,,17898,,1608810898,715658435,"""world""",,,2.88353228569,1.30765593052,0.438935577869,,-0.00230123498477,-0.0126679185778,-0.712180674076,-0.701878249645
1608810898721834217,,17899,,1608810898,715718085,"""world""",,,2.8835246563,1.30766069889,0.43892672658,,-0.00227681663819,-0.0125767756253,-0.712186694145,-0.701873719692
1608810898721840269,,17900,,1608810898,715858100,"""world""",,,2.88352751732,1.3076454401,0.438926815987,,-0.00232263468206,-0.0126817347482,-0.712203741074,-0.701854467392
1608810898736493762,,17901,,1608810898,725784787,"""world""",,,2.88352513313,1.30767476559,0.438922077417,,-0.00229713413864,-0.0125735132024,-0.712147951126,-0.701913058758
1608810898736638658,,17909,,1608810898,726259487,"""world""",,,2.88353276253,1.30766189098,0.438929647207,,-0.00231632683426,-0.0125711513683,-0.71217828989,-0.701882362366
1608810898745747175,,17910,,1608810898,745301930,"""world""",,,2.88352847099,1.30765402317,0.438927918673,,-0.00232757627964,-0.012619455345,-0.71219933033,-0.701860070229
1608810898745768783,,17911,,1608810898,745371451,"""world""",,,2.88352513313,1.30766248703,0.43893545866,,-0.00232850806788,-0.0125995911658,-0.712200403214,-0.701859354973
1608810898755631692,,17912,,1608810898,755297406,"""world""",,,2.8835299015,1.30765509605,0.438937723637,,-0.0023032699246,-0.0125493053347,-0.712167739868,-0.701893389225
1608810898755664617,,17913,,1608810898,755416474,"""world""",,,2.88352537155,1.3076492548,0.438947379589,,-0.00229414133355,-0.0125909391791,-0.712216317654,-0.701843380928
1608810898765631268,,17914,,1608810898,765273408,"""world""",,,2.88351917267,1.30766761303,0.438939899206,,-0.00232472759672,-0.0125489532948,-0.712203085423,-0.701857447624
1608810898765653124,,17915,,1608810898,765367797,"""world""",,,2.88352751732,1.30765688419,0.438937962055,,-0.00231354427524,-0.01255386509,-0.712173640728,-0.701887369156
1608810898785481231,,17916,,1608810898,785279392,"""world""",,,2.88352179527,1.30765497684,0.438936859369,,-0.00231160596013,-0.012573806569,-0.712187051773,-0.701873362064
1608810898785539162,,17917,,1608810898,785355290,"""world""",,,2.88352155685,1.30765783787,0.438929080963,,-0.00232810503803,-0.0126176374033,-0.712161540985,-0.701898336411
1608810898795438682,,17918,,1608810898,795260473,"""world""",,,2.88352894783,1.30765652657,0.438933879137,,-0.00240552308969,-0.0126338638365,-0.712174236774,-0.701885044575
1608810898805455764,,17919,,1608810898,805276599,"""world""",,,2.88353061676,1.30766737461,0.438937246799,,-0.00232842797413,-0.0125988060609,-0.712170779705,-0.701889336109
1608810898815404463,,17920,,1608810898,815251973,"""world""",,,2.8835170269,1.30765104294,0.438930988312,,-0.00226327683777,-0.0126270009205,-0.712177813053,-0.701881945133
1608810898815680573,,17921,,1608810898,815340666,"""world""",,,2.88352322578,1.30767035484,0.438936561346,,-0.00233689695597,-0.0125434948131,-0.712192177773,-0.701868593693
1608810898825385977,,17922,,1608810898,825249186,"""world""",,,2.88351750374,1.30765628815,0.438938856125,,-0.00231934990734,-0.0126202329993,-0.712177753448,-0.701881945133
1608810898855582681,,17923,,1608810898,855324265,"""world""",,,2.88352251053,1.30765461922,0.438930362463,,-0.00230138353072,-0.0125722354278,-0.712196171284,-0.701864242554
1608810898926533741,,17924,,1608810898,925484286,"""world""",,,2.88351893425,1.30765104294,0.438937008381,,-0.00233240379021,-0.012664665468,-0.712225496769,-0.701832711697
1608810898926552787,,17925,,1608810898,925535690,"""world""",,,2.88351750374,1.30765235424,0.43893456459,,-0.00224014488049,-0.0125950044021,-0.712223052979,-0.701836705208
1608810898926577624,,17926,,1608810898,925641229,"""world""",,,2.88352060318,1.30764877796,0.438929319382,,-0.00233003124595,-0.0126326326281,-0.712220907211,-0.701837897301
1608810898926606792,,17928,,1608810898,925708147,"""world""",,,2.88348293304,1.30781817436,0.438907563686,,-0.00186686543748,-0.0124031547457,-0.712235093117,-0.701828956604
1608810898926620187,,17929,,1608810898,925793632,"""world""",,,2.88352060318,1.30765497684,0.438928872347,,-0.00231704348698,-0.012600989081,-0.712195754051,-0.701864004135
1608810898926648154,,17931,,1608810898,925855215,"""world""",,,2.88351869583,1.30766260624,0.438936173916,,-0.00232328684069,-0.0126244304702,-0.712195575237,-0.701863765717
1608810898926731632,,17932,,1608810898,925987113,"""world""",,,2.88352012634,1.3076685667,0.438924729824,,-0.00228451518342,-0.0126120625064,-0.712209939957,-0.701849520206
1608810898926752318,,17933,,1608810898,926095555,"""world""",,,2.88353228569,1.30765366554,0.43893763423,,-0.00231633405201,-0.0125981383026,-0.712191998959,-0.701867938042
1608810898945531994,,17934,,1608810898,945302565,"""world""",,,2.88352584839,1.30765855312,0.438933283091,,-0.00229556043632,-0.0126020964235,-0.712171256542,-0.701888918877
1608810898945791525,,17935,,1608810898,945387692,"""world""",,,2.88351488113,1.30765473843,0.438938081264,,-0.00235040835105,-0.0125703914091,-0.712209284306,-0.701850712299
1608810898955685223,,17936,,1608810898,955294405,"""world""",,,2.88352036476,1.3076697588,0.438940048218,,-0.00232082931325,-0.0125829931349,-0.712192177773,-0.701867938042
1608810898955710678,,17937,,1608810898,955404928,"""world""",,,2.88283586502,1.30684483051,0.439718574286,,-0.00855151191354,-0.00758053176105,-0.716263175011,-0.697736799717
1608810898965489842,,17938,,1608810898,965289033,"""world""",,,2.88348913193,1.30780947208,0.438914239407,,-0.00182560889516,-0.0123176416382,-0.712206661701,-0.701859414577
1608810898975547767,,17939,,1608810898,975278130,"""world""",,,2.8835234642,1.30766808987,0.438930690289,,-0.00233411672525,-0.0125500420108,-0.712191700935,-0.70186907053
1608810898975571409,,17940,,1608810898,975386512,"""world""",,,2.8835208416,1.30765986443,0.438928574324,,-0.00236199982464,-0.0125671438873,-0.71221601963,-0.70184391737
1608810898995500309,,17941,,1608810898,995268359,"""world""",,,2.88351964951,1.30766522884,0.438931643963,,-0.00234788958915,-0.012574294582,-0.712222874165,-0.701836884022
1608810898995522559,,17942,,1608810898,995308607,"""world""",,,2.8835246563,1.30765914917,0.438927441835,,-0.00233434233814,-0.0126438643783,-0.71218919754,-0.70186984539
1608810899005609362,,17943,,1608810899,5281894,"""world""",,,2.88352155685,1.30766677856,0.438932150602,,-0.00237359805033,-0.0125350914896,-0.712153315544,-0.701908111572
1608810899015712707,,17944,,1608810899,15332303,"""world""",,,2.88352370262,1.30766260624,0.438935875893,,-0.00231010792777,-0.0126065993682,-0.712212026119,-0.701847434044
1608810899025651054,,17945,,1608810899,25363039,"""world""",,,2.88352608681,1.30765080452,0.438941240311,,-0.00232176715508,-0.0125468708575,-0.712207138538,-0.701853454113
1608810899036445797,,17946,,1608810899,35285522,"""world""",,,2.88352370262,1.30766487122,0.438942551613,,-0.00232176948339,-0.0127202002332,-0.712201178074,-0.701856374741
1608810899036489792,,17947,,1608810899,35576704,"""world""",,,2.88352441788,1.30766737461,0.438931792974,,-0.0022615424823,-0.0126106999815,-0.712195038795,-0.701864719391
1608810899055512073,,17948,,1608810899,55261396,"""world""",,,2.88352394104,1.30766093731,0.438937842846,,-0.0023392951116,-0.0126663036644,-0.712181031704,-0.701877713203
1608810899055872683,,17949,,1608810899,55343108,"""world""",,,2.8834900856,1.30782496929,0.438906490803,,-0.00190523953643,-0.0122956456617,-0.712215483189,-0.701850712299
1608810899055886749,,17950,,1608810899,55386284,"""world""",,,2.88352203369,1.30767059326,0.438938677311,,-0.00230997079052,-0.0125535847619,-0.712213337421,-0.701847016811
1608810899065886069,,17951,,1608810899,65270321,"""world""",,,2.88352584839,1.3076583147,0.438923358917,,-0.0023386136163,-0.0126602090895,-0.71220946312,-0.701848983765
1608810899075501797,,17952,,1608810899,75290961,"""world""",,,2.88352108002,1.30765461922,0.438936710358,,-0.00227304338478,-0.0125555507839,-0.71220266819,-0.701857924461
1608810899085578905,,17953,,1608810899,85293696,"""world""",,,2.88352584839,1.30766606331,0.438933968544,,-0.00229272758588,-0.0125548709184,-0.712211489677,-0.70184892416
1608810899115723416,,17954,,1608810899,115399539,"""world""",,,2.8835234642,1.3076633215,0.438926786184,,-0.00231930962764,-0.01259189751,-0.712217390537,-0.701842188835
1608810899115754890,,17955,,1608810899,115455629,"""world""",,,2.88353180885,1.30765628815,0.438939869404,,-0.00234880764037,-0.0126647176221,-0.712208390236,-0.701849877834
1608810899116400918,,17956,,1608810899,115579012,"""world""",,,2.88352060318,1.30766570568,0.438929080963,,-0.00231883837841,-0.012581824325,-0.712164998055,-0.701895654202
1608810899126031396,,17957,,1608810899,125292457,"""world""",,,2.88352560997,1.30765867233,0.438923835754,,-0.00229117553681,-0.0126476241276,-0.71221524477,-0.701843440533
1608810899387149891,,17958,,1608810899,385284493,"""world""",,,2.88352513313,1.30765461922,0.438927024603,,-0.00231950636953,-0.0125944539905,-0.712209582329,-0.701850175858
1608810899387164453,,17987,,1608810899,386249976,"""world""",,,2.8835299015,1.30765163898,0.438938468695,,-0.00228057731874,-0.0126503026113,-0.712182402611,-0.701876759529
1608810899455594425,,17988,,1608810899,455282158,"""world""",,,2.88352227211,1.30766868591,0.438939452171,,-0.00235128356144,-0.0125975655392,-0.712205827236,-0.701853752136
1608810899456270500,,17989,,1608810899,455594852,"""world""",,,2.88352560997,1.30765581131,0.438936948776,,-0.00238324026577,-0.012706479989,-0.712211787701,-0.701845645905
1608810899456290772,,17996,,1608810899,455884648,"""world""",,,2.88352513313,1.30767786503,0.438930153847,,-0.00231332215481,-0.0125815579668,-0.712174296379,-0.701886177063
1608810899466485611,,17997,,1608810899,465317799,"""world""",,,2.88352894783,1.30767118931,0.438931912184,,-0.00237048580311,-0.0125855905935,-0.712190747261,-0.701869189739
1608810899466492276,,17998,,1608810899,465375027,"""world""",,,2.88353037834,1.30766403675,0.438933700323,,-0.00235857395455,-0.0126164155081,-0.712180674076,-0.701878964901
1608810899475987048,,17999,,1608810899,475280975,"""world""",,,2.88352131844,1.30767142773,0.43894225359,,-0.00230308808386,-0.0126380436122,-0.712198495865,-0.701860666275
1608810899510223622,,18000,,1608810899,505346817,"""world""",,,2.88353085518,1.30766141415,0.43893417716,,-0.00229380954988,-0.0126269431785,-0.712210118771,-0.701849043369
1608810899510676543,,18001,,1608810899,505496859,"""world""",,,2.8835310936,1.30766224861,0.438940495253,,-0.00236514932476,-0.0125636635348,-0.712202072144,-0.70185816288
1608810899510754487,,18004,,1608810899,505616437,"""world""",,,2.88352704048,1.30766689777,0.438939630985,,-0.00239468319342,-0.0126084797084,-0.712221622467,-0.701837420464
1608810899525849552,,18005,,1608810899,525300860,"""world""",,,2.88352823257,1.30766403675,0.438931941986,,-0.00228483160026,-0.0126527138054,-0.712175488472,-0.701883733273
1608810899525867426,,18006,,1608810899,525363882,"""world""",,,2.88352441788,1.30765974522,0.438929736614,,-0.00232408451848,-0.0126825058833,-0.712204456329,-0.701853752136
1608810899545565853,,18007,,1608810899,545292162,"""world""",,,2.88352513313,1.30767166615,0.438931614161,,-0.00226811179891,-0.0125903300941,-0.712185561657,-0.701874732971
1608810899555809401,,18008,,1608810899,555273201,"""world""",,,2.88352680206,1.30766201019,0.438928961754,,-0.00239973166026,-0.0126264737919,-0.712219774723,-0.701838970184
1608810899555878285,,18009,,1608810899,555362005,"""world""",,,2.8835299015,1.30766367912,0.438929319382,,-0.00228008395061,-0.0126382457092,-0.712215423584,-0.701843500137
1608810899566843544,,18010,,1608810899,565384394,"""world""",,,2.88352537155,1.30766892433,0.438933342695,,-0.00229024584405,-0.0126549331471,-0.712188780308,-0.701870203018
1608810899615429299,,18011,,1608810899,615276454,"""world""",,,2.88352775574,1.30766272545,0.438940674067,,-0.00228630634956,-0.0125941075385,-0.712228119373,-0.701831459999
1608810899615460937,,18012,,1608810899,615350203,"""world""",,,2.88352918625,1.30766165257,0.438937008381,,-0.00233385129832,-0.0125990379602,-0.712173640728,-0.701886475086
1608810899675815067,,18013,,1608810899,675283662,"""world""",,,2.88352680206,1.30766141415,0.4389308393,,-0.00234523392282,-0.0126637304202,-0.712182819843,-0.701875925064
1608810899675936474,,18023,,1608810899,675511503,"""world""",,,2.88352942467,1.30766773224,0.43893301487,,-0.00233551091515,-0.0126020088792,-0.712217986584,-0.70184135437
1608810899695546268,,18024,,1608810899,695254837,"""world""",,,2.88353300095,1.30767345428,0.438938856125,,-0.0023435105104,-0.0125896604732,-0.712185382843,-0.701874673367
1608810899695558191,,18026,,1608810899,695315957,"""world""",,,2.8835208416,1.3076723814,0.438936442137,,-0.00235810014419,-0.0126128867269,-0.71220934391,-0.701849877834
1608810899706004888,,18027,,1608810899,705276803,"""world""",,,2.88352847099,1.30764997005,0.438948124647,,-0.00234509841539,-0.012621880509,-0.712205290794,-0.70185393095
1608810899706018007,,18028,,1608810899,705315165,"""world""",,,2.88352966309,1.30766475201,0.438934624195,,-0.00235366984271,-0.0126384971663,-0.712209105492,-0.701849639416
1608810899715449065,,18029,,1608810899,715266429,"""world""",,,2.88352513313,1.30764615536,0.438934922218,,-0.00229664635845,-0.0126421609893,-0.712204813957,-0.701854169369
1608810899725590651,,18030,,1608810899,725270557,"""world""",,,2.88352060318,1.30766510963,0.43893250823,,-0.00236137956381,-0.0126002365723,-0.712213099003,-0.701846301556
1608810899735428173,,18031,,1608810899,735280415,"""world""",,,2.88352584839,1.30766606331,0.438924372196,,-0.00231318408623,-0.0126252742484,-0.712196469307,-0.701862871647
1608810899745441681,,18032,,1608810899,745288786,"""world""",,,2.88353228569,1.30767500401,0.438930600882,,-0.00233358354308,-0.0125657049939,-0.712212622166,-0.701847553253
1608810899765390623,,18033,,1608810899,765249422,"""world""",,,2.88352942467,1.30766475201,0.438930600882,,-0.00233910162933,-0.0126636363566,-0.712202012539,-0.70185649395
1608810899765620095,,18034,,1608810899,765302908,"""world""",,,2.88352274895,1.30766904354,0.438933372498,,-0.00240548560396,-0.012569533661,-0.712208092213,-0.701851785183
1608810899765639909,,18035,,1608810899,765323036,"""world""",,,2.88352417946,1.30766916275,0.438924103975,,-0.0023006554693,-0.0126223769039,-0.712189257145,-0.701870322227
1608810899776809548,,18036,,1608810899,775700874,"""world""",,,2.88353300095,1.30767154694,0.438934087753,,-0.00230820034631,-0.0125785600394,-0.712186276913,-0.701874136925
1608810899806238355,,18037,,1608810899,806021187,"""world""",,,2.88352823257,1.3076633215,0.438930094242,,-0.00235447846353,-0.0126366820186,-0.712228238583,-0.701830267906
1608810899806475279,,18038,,1608810899,806091550,"""world""",,,2.88352942467,1.30767011642,0.438928186893,,-0.00232970062643,-0.0125795397907,-0.712167441845,-0.701893150806
1608810899815609261,,18039,,1608810899,815266286,"""world""",,,2.88352942467,1.3076634407,0.438933432102,,-0.00228046718985,-0.0125988088548,-0.712220489979,-0.701839148998
1608810899815638268,,18040,,1608810899,815332990,"""world""",,,2.88352227211,1.30766439438,0.438938051462,,-0.00229954556562,-0.0125726638362,-0.712208449841,-0.701851725578
1608810899825471363,,18041,,1608810899,825258960,"""world""",,,2.88352584839,1.30766141415,0.438931256533,,-0.00235089031048,-0.0126710981131,-0.712239444256,-0.701818287373
1608810899835413309,,18042,,1608810899,835245429,"""world""",,,2.88352584839,1.3076646328,0.438940644264,,-0.00232072686777,-0.0126039665192,-0.712252378464,-0.701806545258
1608810899835430356,,18043,,1608810899,835271871,"""world""",,,2.88352870941,1.30766642094,0.438927143812,,-0.00235526263714,-0.0127196405083,-0.712205171585,-0.701852202415
1608810899845434550,,18044,,1608810899,845255348,"""world""",,,2.88352823257,1.30766689777,0.438934624195,,-0.00234939483926,-0.0126112448052,-0.712226867676,-0.701832175255
1608810899855502953,,18045,,1608810899,855316830,"""world""",,,2.88351917267,1.30766308308,0.438927471638,,-0.00229393062182,-0.0126640154049,-0.712216615677,-0.701841771603
1608810899875401902,,18046,,1608810899,875257516,"""world""",,,2.88352584839,1.30766677856,0.438924759626,,-0.00235206191428,-0.01269000303,-0.712205708027,-0.70185226202
1608810899875694811,,18047,,1608810899,875313448,"""world""",,,2.88352370262,1.30766475201,0.438933759928,,-0.00234355940484,-0.0127176139504,-0.712216615677,-0.70184057951
1608810899875709218,,18048,,1608810899,875334887,"""world""",,,2.88353347778,1.30767202377,0.438937485218,,-0.00229598884471,-0.012553085573,-0.712201654911,-0.701858997345
1608810899885545653,,18049,,1608810899,885358264,"""world""",,,2.88352537155,1.30765640736,0.438928604126,,-0.00230855727568,-0.0126347355545,-0.712200045586,-0.701859116554
1608810899905519227,,18050,,1608810899,905267410,"""world""",,,2.88352823257,1.30765688419,0.438933759928,,-0.00233799079433,-0.0126365348697,-0.712214171886,-0.701844632626
1608810899905533138,,18051,,1608810899,905301422,"""world""",,,2.88351941109,1.30765843391,0.438929468393,,-0.00230145431124,-0.0126624619588,-0.712205052376,-0.701853513718
1608810899915971744,,18052,,1608810899,915694947,"""world""",,,2.88352608681,1.30765914917,0.438932329416,,-0.00236488226801,-0.0126769402996,-0.71220189333,-0.701856255531
1608810899915985456,,18053,,1608810899,915731996,"""world""",,,2.88353180885,1.3076570034,0.438933461905,,-0.00230703316629,-0.0126363839954,-0.712248325348,-0.701810121536
1608810899935533708,,18054,,1608810899,935260175,"""world""",,,2.88353276253,1.3076621294,0.438935160637,,-0.00228066672571,-0.0126044601202,-0.71220523119,-0.701854526997
1608810899935554319,,18055,,1608810899,935293601,"""world""",,,2.88353443146,1.30766320229,0.438939779997,,-0.00231577176601,-0.0125425970182,-0.71218252182,-0.701878547668
1608810899965428378,,18056,,1608810899,965248992,"""world""",,,2.88353323936,1.30766141415,0.438933104277,,-0.00230651046149,-0.0126366382465,-0.712182164192,-0.701877176762
1608810899965546295,,18057,,1608810899,965322731,"""world""",,,2.88352608681,1.30766892433,0.438930541277,,-0.00232645659707,-0.0126308379695,-0.712222993374,-0.701835751534
1608810899965648198,,18058,,1608810899,965343156,"""world""",,,2.88352608681,1.3076608181,0.438936650753,,-0.00237726583146,-0.0126686971635,-0.712208926678,-0.701849222183
1608810899995397165,,18059,,1608810899,995247043,"""world""",,,2.88353586197,1.30766105652,0.438934445381,,-0.00233095046133,-0.0127029214054,-0.712210953236,-0.701846778393
1608810899995585587,,18060,,1608810899,995296532,"""world""",,,2.8835337162,1.30765342712,0.438919395208,,-0.00231661321595,-0.0127323539928,-0.712185144424,-0.701872348785
1608810899995604753,,18061,,1608810899,995315237,"""world""",,,2.88352584839,1.30767083168,0.438927739859,,-0.00232659163885,-0.0126198846847,-0.712218403816,-0.701840639114
1608810900005467903,,18062,,1608810900,5246990,"""world""",,,2.88352775574,1.30765020847,0.438931375742,,-0.00237152562477,-0.0126509405673,-0.712201476097,-0.701857149601
1608810900005479339,,18063,,1608810900,5271857,"""world""",,,2.88352799416,1.30765402317,0.438932210207,,-0.00233032437973,-0.0126470122486,-0.712222337723,-0.701836228371
1608810900015407609,,18064,,1608810900,15243106,"""world""",,,2.8835246563,1.30765330791,0.438930511475,,-0.00236956519075,-0.01255133003,-0.712211728096,-0.701848506927
1608810900025427372,,18065,,1608810900,25258020,"""world""",,,2.8835208416,1.30765986443,0.438929975033,,-0.00239715864882,-0.0126111898571,-0.712198138237,-0.701861262321
1608810900045373653,,18066,,1608810900,45253667,"""world""",,,2.88353395462,1.30765914917,0.438922405243,,-0.00236963341013,-0.0126058580354,-0.712179601192,-0.701880216599
1608810900045554288,,18067,,1608810900,45324251,"""world""",,,2.8835299015,1.30766534805,0.438933938742,,-0.00238174130209,-0.0126577075571,-0.712192237377,-0.701866328716
1608810900045603965,,18068,,1608810900,45346108,"""world""",,,2.88352227211,1.30766451359,0.438925027847,,-0.00236482871696,-0.0126499990001,-0.712231576443,-0.701826632023
1608810900055721590,,18069,,1608810900,55547999,"""world""",,,2.88352227211,1.30766248703,0.438927054405,,-0.00232242443599,-0.012631746009,-0.712172269821,-0.701887369156
1608810900065388784,,18070,,1608810900,65246156,"""world""",,,2.88352155685,1.30765640736,0.438925683498,,-0.00231336778961,-0.0126001341268,-0.712200164795,-0.701859593391
1608810900065554219,,18071,,1608810900,65332635,"""world""",,,2.88352131844,1.30765795708,0.438927203417,,-0.00231547374278,-0.0126006742939,-0.712200582027,-0.701859176159
1608810900085366320,,18072,,1608810900,85244287,"""world""",,,2.88352608681,1.30766999722,0.438926130533,,-0.00238190661184,-0.0125896045938,-0.712195038795,-0.701864778996
1608810900095651039,,18073,,1608810900,95402948,"""world""",,,2.88353514671,1.30767178535,0.438923746347,,-0.00232833344489,-0.0126167284325,-0.712194502354,-0.701865017414
1608810900095675960,,18074,,1608810900,95431032,"""world""",,,2.8835246563,1.30767405033,0.438919067383,,-0.00233954912983,-0.012629953213,-0.712201356888,-0.701857745647
1608810900125417113,,18075,,1608810900,125253918,"""world""",,,2.88353729248,1.30766963959,0.438925147057,,-0.00233388692141,-0.0126543287188,-0.712180972099,-0.701877951622
1608810900125434897,,18076,,1608810900,125287847,"""world""",,,2.88353562355,1.30767011642,0.438932538033,,-0.00239480100572,-0.012618468143,-0.71219086647,-0.701868474483
1608810900126031985,,18077,,1608810900,125335993,"""world""",,,2.88353180885,1.30765259266,0.438930869102,,-0.00230758055113,-0.0125584769994,-0.712190032005,-0.701870620251
1608810900135765922,,18078,,1608810900,135286343,"""world""",,,2.88352894783,1.30766248703,0.43892672658,,-0.00233539612964,-0.0126206465065,-0.712223351002,-0.701835632324
1608810900145498142,,18079,,1608810900,145262242,"""world""",,,2.88352775574,1.3076723814,0.438922941685,,-0.00232343142852,-0.0126528525725,-0.712168335915,-0.70189088583
1608810900145526240,,18080,,1608810900,145328579,"""world""",,,2.88353419304,1.30767035484,0.438913196325,,-0.00240642926656,-0.0125833526254,-0.712203025818,-0.701856613159
1608810900165519301,,18081,,1608810900,165286190,"""world""",,,2.88351607323,1.30766451359,0.438924074173,,-0.00238076457754,-0.0126527342945,-0.712184906006,-0.701873898506
1608810900205682313,,18082,,1608810900,205313399,"""world""",,,2.88352656364,1.3076672554,0.438927531242,,-0.00230328738689,-0.012633793056,-0.712205171585,-0.70185393095
1608810900206018778,,18083,,1608810900,205459952,"""world""",,,2.88352584839,1.30765378475,0.43892249465,,-0.00236747832969,-0.0126460362226,-0.712146937847,-0.701912641525
1608810900206037832,,18086,,1608810900,205604211,"""world""",,,2.88352775574,1.30766105652,0.438928842545,,-0.00239680730738,-0.0126246586442,-0.712177157402,-0.701882243156
1608810900285512005,,18087,,1608810900,285281043,"""world""",,,2.8835246563,1.30767154694,0.438927084208,,-0.00235213548876,-0.0125791411847,-0.712195217609,-0.701864778996
1608810900295425314,,18088,,1608810900,295247662,"""world""",,,2.88352179527,1.3076581955,0.43892326951,,-0.00237477640621,-0.0126475906,-0.712221205235,-0.70183712244
1608810900295885248,,18089,,1608810900,295305294,"""world""",,,2.88352847099,1.30766630173,0.438919126987,,-0.00232171686366,-0.0126642584801,-0.712189137936,-0.701869606972
1608810900295894006,,18091,,1608810900,295339910,"""world""",,,2.88352203369,1.30767083168,0.438920110464,,-0.00234072119929,-0.0126213729382,-0.712214589119,-0.701844453812
1608810900305499593,,18092,,1608810900,305261303,"""world""",,,2.88352966309,1.30765795708,0.438920766115,,-0.00237685325556,-0.0126681113616,-0.71221023798,-0.701847970486
1608810900305754805,,18093,,1608810900,305417857,"""world""",,,2.88352847099,1.30766785145,0.43892377615,,-0.00241128820926,-0.01261140313,-0.712166130543,-0.701893627644
1608810900305768051,,18097,,1608810900,305502100,"""world""",,,2.88352560997,1.30766308308,0.43892750144,,-0.0023422925733,-0.0125551829115,-0.712210178375,-0.701850175858
1608810900315536461,,18098,,1608810900,315248644,"""world""",,,2.8835272789,1.30766367912,0.438925087452,,-0.00234751286916,-0.012628457509,-0.712192356586,-0.701866865158
1608810900345603985,,18099,,1608810900,345256007,"""world""",,,2.88352537155,1.30766057968,0.438923031092,,-0.00232066912577,-0.012670696713,-0.712178766727,-0.70187997818
1608810900345621708,,18100,,1608810900,345326834,"""world""",,,2.88352584839,1.30766522884,0.438919961452,,-0.00233794609085,-0.0126559669152,-0.712202310562,-0.701856374741
1608810900345642922,,18101,,1608810900,345441739,"""world""",,,2.88352131844,1.30766427517,0.438926160336,,-0.00235477415845,-0.0126601606607,-0.712202250957,-0.701856195927
1608810900345652472,,18104,,1608810900,345522379,"""world""",,,2.88352489471,1.30766272545,0.438926488161,,-0.00233463523909,-0.012585695833,-0.712209582329,-0.701850175858
1608810900355411196,,18105,,1608810900,355262170,"""world""",,,2.88352489471,1.30766046047,0.438917458057,,-0.00234471168369,-0.0126640889794,-0.712195277214,-0.701863288879
1608810900365381363,,18106,,1608810900,365246635,"""world""",,,2.88352537155,1.30766260624,0.438928365707,,-0.0023290256504,-0.0126162916422,-0.712198317051,-0.701861143112
1608810900396368201,,18107,,1608810900,395319004,"""world""",,,2.88353085518,1.30766260624,0.438930541277,,-0.00235090963542,-0.0126711605117,-0.712192118168,-0.701866388321
1608810900396376774,,18110,,1608810900,395393953,"""world""",,,2.88352584839,1.30765914917,0.438918232918,,-0.00235194060951,-0.0126908514649,-0.712163865566,-0.701894640923
1608810900405473447,,18111,,1608810900,405242203,"""world""",,,2.88352108002,1.30766987801,0.438923418522,,-0.00236408179626,-0.0126012191176,-0.712210357189,-0.701849043369
1608810900415458880,,18112,,1608810900,415257240,"""world""",,,2.88352370262,1.3076710701,0.438927382231,,-0.00232104607858,-0.0126712443307,-0.712193191051,-0.701865315437
1608810900435606458,,18113,,1608810900,435244119,"""world""",,,2.88348770142,1.30782949924,0.43889939785,,-0.00194485473912,-0.0123237166554,-0.712198317051,-0.701867461205
1608810900435638235,,18114,,1608810900,435302398,"""world""",,,2.88352680206,1.30767059326,0.438925206661,,-0.00233892211691,-0.0125775057822,-0.712204158306,-0.701855897903
1608810900435641441,,18115,,1608810900,435331294,"""world""",,,2.88352179527,1.30767130852,0.43892416358,,-0.00235723867081,-0.0126438094303,-0.71221268177,-0.701845943928
1608810900445473502,,18116,,1608810900,445250065,"""world""",,,2.8835234642,1.30766177177,0.438923180103,,-0.00236028712243,-0.0126789491624,-0.712230145931,-0.701827645302
1608810900455673062,,18117,,1608810900,455336037,"""world""",,,2.88353157043,1.30767595768,0.438924372196,,-0.00233157165349,-0.0125857144594,-0.712190926075,-0.701869189739
1608810900475807354,,18118,,1608810900,475273568,"""world""",,,2.88352799416,1.30768418312,0.438926309347,,-0.00231969705783,-0.0126227028668,-0.712188601494,-0.701870918274
1608810900476504795,,18119,,1608810900,476106778,"""world""",,,2.88352560997,1.30766308308,0.438931256533,,-0.0023438592907,-0.0126022482291,-0.712169706821,-0.701890349388
1608810900476515985,,18120,,1608810900,476164748,"""world""",,,2.88352704048,1.3076748848,0.438929140568,,-0.00238475925289,-0.0125133702531,-0.712181389332,-0.70187997818
1608810900485902818,,18121,,1608810900,485299107,"""world""",,,2.88353085518,1.30766284466,0.438928931952,,-0.00235625263304,-0.0126322824508,-0.712222456932,-0.701836287975
1608810900495832390,,18122,,1608810900,495284378,"""world""",,,2.88352227211,1.30766570568,0.43892878294,,-0.00240016379394,-0.0126370927319,-0.712179601192,-0.701879441738
1608810900505568803,,18123,,1608810900,505260813,"""world""",,,2.88353133202,1.30766654015,0.438929289579,,-0.00235254107974,-0.0125889861956,-0.712196469307,-0.701863348484
1608810900515447377,,18124,,1608810900,515249357,"""world""",,,2.88352680206,1.30767178535,0.438932478428,,-0.0023296836298,-0.012627100572,-0.712172031403,-0.701887607574
1608810900525614256,,18125,,1608810900,525305745,"""world""",,,2.88352584839,1.30767595768,0.43892788887,,-0.00231710448861,-0.0125584909692,-0.712177932262,-0.701882898808
1608810900625735318,,18126,,1608810900,625312850,"""world""",,,2.88353037834,1.30766546726,0.438927084208,,-0.00237245880999,-0.0125746475533,-0.712197482586,-0.701862573624
1608810900626136542,,18127,,1608810900,625495850,"""world""",,,2.88353157043,1.30767440796,0.438931465149,,-0.00229286006652,-0.0125845763832,-0.712208509445,-0.70185148716
1608810900655720391,,18128,,1608810900,655294506,"""world""",,,2.88285112381,1.30684232712,0.439728438854,,-0.0086593683809,-0.00753570720553,-0.716238617897,-0.697761118412
1608810900656099366,,18129,,1608810900,655350308,"""world""",,,2.88348507881,1.30783498287,0.438901126385,,-0.00191014667507,-0.0122634656727,-0.712209939957,-0.701856851578
1608810900721197506,,18130,,1608810900,715305748,"""world""",,,2.88353061676,1.30766367912,0.438930779696,,-0.00237184297293,-0.0126228146255,-0.712201595306,-0.701857566833
1608810900721205561,,18131,,1608810900,715433196,"""world""",,,2.88351988792,1.30766940117,0.438932687044,,-0.00236832094379,-0.0125754838809,-0.712182223797,-0.701878011227
1608810900721212558,,18134,,1608810900,715551829,"""world""",,,2.88284444809,1.30684554577,0.4397341609,,-0.00867558177561,-0.00746657140553,-0.716266512871,-0.69773298502
1608810900721220830,,18135,,1608810900,715664936,"""world""",,,2.88348293304,1.30783557892,0.438905626535,,-0.00189021520782,-0.0123497089371,-0.712212920189,-0.701852381229
1608810900721228339,,18138,,1608810900,715791962,"""world""",,,2.88352441788,1.30767989159,0.438925951719,,-0.0023172586225,-0.0125860497355,-0.712152957916,-0.701907753944
1608810900721235024,,18139,,1608810900,715891228,"""world""",,,2.88352370262,1.30767309666,0.438930720091,,-0.00229791854508,-0.0126010021195,-0.712198138237,-0.701861739159
1608810900721241452,,18141,,1608810900,715991286,"""world""",,,2.88351607323,1.30766832829,0.438934147358,,-0.00235848408192,-0.0125915687531,-0.712222278118,-0.70183712244
1608810900825538815,,18142,,1608810900,825302600,"""world""",,,2.88353133202,1.30767607689,0.438926696777,,-0.00238009449095,-0.01256044209,-0.712194681168,-0.701865673065
1608810900825729809,,18143,,1608810900,825469767,"""world""",,,2.88353347778,1.30767476559,0.438927829266,,-0.00235523818992,-0.0126278698444,-0.712186932564,-0.701872348785
1608810900828665487,,18144,,1608810900,825923133,"""world""",,,2.88351726532,1.30767118931,0.438933670521,,-0.00231299572624,-0.0126421554014,-0.712193191051,-0.701865911484
1608810900828688880,,18162,,1608810900,826647855,"""world""",,,2.88352417946,1.3076646328,0.438945770264,,-0.00231980602257,-0.0125832632184,-0.712177634239,-0.701882719994
1608810900850735770,,18163,,1608810900,836164952,"""world""",,,2.8835234642,1.30767524242,0.438931018114,,-0.00237952778116,-0.0125976735726,-0.712189257145,-0.701870501041
1608810900850786152,,18164,,1608810900,845281100,"""world""",,,2.88349199295,1.3078250885,0.438911497593,,-0.00185898935888,-0.0123004317284,-0.712235271931,-0.701830625534
1608810900856516756,,18165,,1608810900,855296055,"""world""",,,2.88353013992,1.30766701698,0.438940256834,,-0.0023608985357,-0.012591380626,-0.712215840816,-0.701843619347
1608810900869951617,,18166,,1608810900,865286241,"""world""",,,2.88352799416,1.3076723814,0.438930749893,,-0.00231671379879,-0.0126160541549,-0.712217092514,-0.70184212923
1608810900875573273,,18167,,1608810900,875294548,"""world""",,,2.88353180885,1.30766892433,0.438930273056,,-0.00236202054657,-0.0125823915005,-0.712165951729,-0.701894402504
1608810900908390487,,18168,,1608810900,905296885,"""world""",,,2.88353276253,1.30767428875,0.438944190741,,-0.0023583935108,-0.0125663401559,-0.712191462517,-0.701868951321
1608810900908397166,,18170,,1608810900,905417110,"""world""",,,2.88285756111,1.30672550201,0.439952373505,,-0.0092429658398,-0.0071512227878,-0.71619361639,-0.697803854942
1608810900955682129,,18171,,1608810900,955343759,"""world""",,,2.88278055191,1.30658864975,0.440119624138,,-0.00999468099326,-0.00671962508932,-0.716495394707,-0.697487831116
1608810900956075544,,18172,,1608810900,955467763,"""world""",,,2.88348507881,1.30721151829,0.439502984285,,-0.00461146887392,-0.0111127207056,-0.712510347366,-0.701558530331
1608810900956107204,,18176,,1608810900,955657256,"""world""",,,2.88368606567,1.30885720253,0.439365804195,,-0.00468892091885,-0.00991463661194,-0.713531911373,-0.700536906719
1608810900971560474,,18177,,1608810900,965283385,"""world""",,,2.88339042664,1.30925154686,0.44020986557,,-0.0103297736496,-0.00512751750648,-0.717434287071,-0.696530818939
1608810900971578738,,18179,,1608810900,965369790,"""world""",,,2.88379955292,1.31442320347,0.439217835665,,-0.00370906572789,-0.0121503081173,-0.714249551296,-0.69977581501
1608810900975733795,,18180,,1608810900,975290327,"""world""",,,2.88379955292,1.31705057621,0.439244478941,,-0.00366147398017,-0.0106909917668,-0.715150952339,-0.698878705502
1608810900985772538,,18181,,1608810900,985296598,"""world""",,,2.88410639763,1.31884133816,0.439384371042,,-0.00224938266911,-0.011402990669,-0.713363587856,-0.700697720051
1608810900995654956,,18182,,1608810900,995269375,"""world""",,,2.88379073143,1.32132554054,0.439265429974,,-0.00274593103677,-0.012914144434,-0.713288247585,-0.700746417046
1608810901005526307,,18183,,1608810901,5266919,"""world""",,,2.88309049606,1.32252144814,0.440113276243,,-0.00873544905335,-0.00805781874806,-0.716896533966,-0.697078287601
1608810901015641704,,18184,,1608810901,15365630,"""world""",,,2.88321042061,1.32422685623,0.440112441778,,-0.00769489491358,-0.00839308835566,-0.716310560703,-0.697688758373
1608810901025678369,,18185,,1608810901,25281807,"""world""",,,2.88379359245,1.32679867744,0.439306855202,,-0.00159436231479,-0.0129525065422,-0.712329566479,-0.701723814011
1608810901035506784,,18186,,1608810901,35272374,"""world""",,,2.88360977173,1.32890069485,0.439115226269,,-0.00259960512631,-0.0129127707332,-0.713351905346,-0.700682222843
1608810901035857079,,18187,,1608810901,35398364,"""world""",,,2.88356971741,1.32982075214,0.439141362906,,-0.00119369337335,-0.0135040041059,-0.712693750858,-0.701344311237
1608810901045637780,,18188,,1608810901,45296659,"""world""",,,2.88279390335,1.3302795887,0.440035372972,,-0.0080854985863,-0.00781551469117,-0.716506898403,-0.697489380836
1608810901055870369,,18189,,1608810901,55291232,"""world""",,,2.88321113586,1.33239042759,0.439322561026,,-0.0015495485859,-0.0123442420736,-0.713447451591,-0.700598299503
1608810901055900135,,18190,,1608810901,55426113,"""world""",,,2.88286161423,1.33428168297,0.439258426428,,-0.00306074158289,-0.0124787855893,-0.71498966217,-0.699017047882
1608810901075515665,,18191,,1608810901,75268462,"""world""",,,2.88262057304,1.33586215973,0.43920391798,,-0.00448311958462,-0.0121984416619,-0.716595292091,-0.697368144989
1608810901085502494,,18192,,1608810901,85262616,"""world""",,,2.8825340271,1.33680474758,0.43911460042,,-0.00295501411892,-0.0129889119416,-0.715422272682,-0.698565363884
1608810901085527014,,18193,,1608810901,85304527,"""world""",,,2.88238024712,1.33799886703,0.439066559076,,-0.00281776627526,-0.0131245432422,-0.715493142605,-0.698490858078
1608810901097376778,,18194,,1608810901,95278759,"""world""",,,2.88238358498,1.33867967129,0.439178526402,,-0.00120748660993,-0.0133987702429,-0.714486002922,-0.699520468712
1608810901105736522,,18195,,1608810901,105309848,"""world""",,,2.88212347031,1.33996474743,0.43914064765,,-0.00197176146321,-0.013463630341,-0.714357495308,-0.699648678303
1608810901125904597,,18196,,1608810901,125280373,"""world""",,,2.8820707798,1.34095144272,0.439122200012,,-0.00221017561853,-0.0140893924981,-0.714150965214,-0.699846446514
1608810901125929008,,18197,,1608810901,125381140,"""world""",,,2.88195872307,1.34225785732,0.439125299454,,-0.00222276546992,-0.013910616748,-0.713944196701,-0.700060963631
1608810901135544236,,18198,,1608810901,135270137,"""world""",,,2.88182902336,1.34394311905,0.439182728529,,-0.00344087136909,-0.0127063952386,-0.714966118336,-0.699035167694
1608810901135568915,,18199,,1608810901,135313210,"""world""",,,2.88198947906,1.34462213516,0.439314126968,,-0.00201735086739,-0.0128392856568,-0.713415801525,-0.700620532036
1608810901145500156,,18200,,1608810901,145271910,"""world""",,,2.88192772865,1.34573793411,0.43935713172,,-0.00220654346049,-0.0127988662571,-0.713174521923,-0.700866222382
1608810901155610268,,18201,,1608810901,155323228,"""world""",,,2.88174271584,1.34693169594,0.439297884703,,-0.0030047155451,-0.0129866199568,-0.712978363037,-0.701059401035
1608810901166276395,,18202,,1608810901,165286373,"""world""",,,2.88164949417,1.34792387486,0.439338713884,,-0.00317514897324,-0.0128063857555,-0.713182747364,-0.700854063034
1608810901175686252,,18203,,1608810901,175346066,"""world""",,,2.88162493706,1.34894645214,0.439345419407,,-0.0031640289817,-0.0128167113289,-0.713181436062,-0.700855195522
1608810901175721121,,18204,,1608810901,175401515,"""world""",,,2.88161730766,1.34995543957,0.439346790314,,-0.00325663783588,-0.0127981910482,-0.713203966618,-0.700832128525
