rosbagTimestamp,linear,x,y,z,angular,x,y,z
1608810900751527031,,0.199967480045,0.0,0.0,,0.0,0.0,-0.0206071058304
1608810901024121993,,0.199962919678,0.0,0.0,,0.0,0.0,-0.0220055061751
1608810901245077472,,0.199955935819,0.0,0.0,,0.0,0.0,-0.023987941585
1608810901523962539,,0.199964246406,0.0,0.0,,0.0,0.0,-0.0216109243915
1608810901786749563,,0.199975217609,0.0,0.0,,0.0,0.0,-0.0179886740066
1608810902045796402,,0.199978157944,0.0,0.0,,0.0,0.0,-0.016890552199
1608810902292790977,,0.199976389035,0.0,0.0,,0.0,0.0,-0.0175608539279
1608810902544952535,,0.199984685174,0.0,0.0,,0.0,0.0,-0.0141395254352
1608810902864649423,,0.199987288903,0.0,0.0,,0.0,0.0,-0.0128834049628
1608810903174930889,,0.199998570502,0.0,0.0,,0.0,0.0,-0.00432949499221
1608810903387378619,,0.199990520685,0.0,0.0,,0.0,0.0,-0.011128296378
1608810903650515289,,0.199996751851,0.0,0.0,,0.0,0.0,-0.00651773202044
1608810903888322258,,0.199997115571,0.0,0.0,,0.0,0.0,-0.00613247991201
1608810904215891088,,0.199996410093,0.0,0.0,,0.0,0.0,0.00685272763514
1608810904458463407,,0.199949824288,0.0,0.0,,0.0,0.0,-0.0255964603143
1608810904710009339,,0.199997026436,0.0,0.0,,0.0,0.0,-0.00623771279973
1608810904996420754,,0.199996409437,0.0,0.0,,0.0,0.0,-0.00684978948897
1608810905237087490,,0.177162630548,0.0,0.0,,0.0,0.0,-0.0937135925917
1608810905473596314,,0.162257121431,0.0,0.0,,0.0,0.0,-0.171973052047
1608810905731365572,,0.144350499213,0.0,0.0,,0.0,0.0,-0.303859697765
1608810905996939795,,0.138697654096,0.0,0.0,,0.0,0.0,-0.426351865346
1608810906259779363,,0.100366534277,0.0,0.0,,0.0,0.0,-0.436128339783
1608810906511693270,,0.0915599018332,0.0,0.0,,0.0,0.0,-0.449696986194
1608810906770647757,,0.0980037904294,0.0,0.0,,0.0,0.0,-0.434719556348
1608810907022460348,,0.10430185108,0.0,0.0,,0.0,0.0,-0.409819929498
1608810907275522472,,0.116865199762,0.0,0.0,,0.0,0.0,-0.314530609902
1608810907561125898,,0.125065779764,0.0,0.0,,0.0,0.0,-0.0278365287408
1608810907809802672,,0.124948947061,0.0,0.0,,0.0,0.0,0.433649023518
1608810908058775739,,0.133341699723,0.0,0.0,,0.0,0.0,0.427991259646
1608810908313852424,,0.141988534061,0.0,0.0,,0.0,0.0,0.492723211024
1608810908622728242,,0.157817822881,0.0,0.0,,0.0,0.0,0.502592816178
1608810908970207690,,0.162780666243,0.0,0.0,,0.0,0.0,0.386440192589
1608810909193851564,,0.163102201064,0.0,0.0,,0.0,0.0,0.221385232337
1608810909420009866,,0.174792181682,0.0,0.0,,0.0,0.0,0.188313560987
1608810909736280821,,0.178017020814,0.0,0.0,,0.0,0.0,0.230540124325
1608810909990813596,,0.180795087789,0.0,0.0,,0.0,0.0,0.169444989625
1608810910247706649,,0.189742740989,0.0,0.0,,0.0,0.0,0.0427881041215
1608810910533541288,,0.179856884329,0.0,0.0,,0.0,0.0,-0.0403648109443
1608810910838640223,,0.1834227059,0.0,0.0,,0.0,0.0,-0.109274313689
1608810911099553289,,0.158270421143,0.0,0.0,,0.0,0.0,-0.184828192194
1608810911347371093,,0.165697879718,0.0,0.0,,0.0,0.0,-0.203518253201
1608810911612951395,,0.142077452864,0.0,0.0,,0.0,0.0,-0.276372373302
1608810911876746764,,0.123937912731,0.0,0.0,,0.0,0.0,-0.316871162102
1608810912156828608,,0.112371047909,0.0,0.0,,0.0,0.0,-0.267762177083
1608810912370473308,,0.122979306185,0.0,0.0,,0.0,0.0,-0.200553212451
1608810912635376356,,0.134970013446,0.0,0.0,,0.0,0.0,-0.142039761453
1608810912905032610,,0.135525516128,0.0,0.0,,0.0,0.0,-0.112734407079
1608810913179514580,,0.136434631932,0.0,0.0,,0.0,0.0,-0.0530663008732
1608810913449409736,,0.125744933777,0.0,0.0,,0.0,0.0,-0.0174563259495
1608810913711806822,,0.1280088998,0.0,0.0,,0.0,0.0,0.0726146264931
1608810913985621395,,0.129777299986,0.0,0.0,,0.0,0.0,0.0644547225219
1608810914231239352,,0.140550574325,0.0,0.0,,0.0,0.0,0.171575824698
1608810914521401664,,0.139312101374,0.0,0.0,,0.0,0.0,0.409818189935
1608810914791587737,,0.14959881846,0.0,0.0,,0.0,0.0,0.557364170113
1608810915050762994,,0.167065013319,0.0,0.0,,0.0,0.0,0.54086960881
1608810915290000941,,0.173418362945,0.0,0.0,,0.0,0.0,0.483992596049
1608810915538935822,,0.186613152763,0.0,0.0,,0.0,0.0,0.374254157253
1608810915854548515,,0.191708857383,0.0,0.0,,0.0,0.0,0.261218751172
1608810916104728921,,0.197006905157,0.0,0.0,,0.0,0.0,0.177765383067
1608810916366430640,,0.198327480813,0.0,0.0,,0.0,0.0,0.147491633775
1608810916634117304,,0.19860718866,0.0,0.0,,0.0,0.0,0.121164685329
1608810916864822184,,0.1991924693,0.0,0.0,,0.0,0.0,0.102596579781
1608810917145628871,,0.199368274158,0.0,0.0,,0.0,0.0,0.0907637110567
1608810917387918011,,0.199475652594,0.0,0.0,,0.0,0.0,0.0827018657014
1608810917643462506,,0.197521899353,0.0,0.0,,0.0,0.0,0.0795236632033
1608810917947030790,,0.196248563642,0.0,0.0,,0.0,0.0,0.075849245327
1608810918211373037,,0.191035532682,0.0,0.0,,0.0,0.0,0.0665641454996
1608810918462525172,,0.18637079593,0.0,0.0,,0.0,0.0,0.0605713191534
1608810918749684478,,0.179880692481,0.0,0.0,,0.0,0.0,0.0538019826201
1608810918981632864,,0.171263208234,0.0,0.0,,0.0,0.0,0.0424437905726
1608810919254818461,,0.16618656623,0.0,0.0,,0.0,0.0,0.0344858401165
1608810919506138119,,0.155315990324,0.0,0.0,,0.0,0.0,0.0246891762825
1608810919729919544,,0.153110392379,0.0,0.0,,0.0,0.0,0.0195527761692
1608810919989159719,,0.140793575754,0.0,0.0,,0.0,0.0,0.007827221295
1608810920250235129,,0.129815721587,0.0,0.0,,0.0,0.0,0.00128774196561
1608810920535519475,,0.124198729487,0.0,0.0,,0.0,0.0,-0.00389302621075
1608810920794967114,,0.0924264997332,0.0,0.0,,0.0,0.0,-0.0219815859224
1608810921052569085,,0.0866277127196,0.0,0.0,,0.0,0.0,-0.0223537716175
1608810921304091463,,0.0864290920878,0.0,0.0,,0.0,0.0,-0.0220717730478
1608810921576064289,,0.0793860495841,0.0,0.0,,0.0,0.0,-0.0274855307555
1608810921852287164,,0.0748448370291,0.0,0.0,,0.0,0.0,-0.0263548714129
1608810922100855857,,0.0720657440694,0.0,0.0,,0.0,0.0,-0.0284096260488
1608810922350981400,,0.0638456799943,0.0,0.0,,0.0,0.0,-0.0284184359441
1608810922606205929,,0.0577387718457,0.0,0.0,,0.0,0.0,-0.0289648147993
1608810922872552387,,0.0525089206405,0.0,0.0,,0.0,0.0,-0.029716844366
1608810923112522539,,0.0472002575661,0.0,0.0,,0.0,0.0,-0.0314429798231
1608810923404273426,,0.0430039515731,0.0,0.0,,0.0,0.0,-0.0319923242614
1608810923646550550,,0.0398674963781,0.0,0.0,,0.0,0.0,-0.0321722646413
1608810923917581799,,0.0383274854378,0.0,0.0,,0.0,0.0,-0.0334042551238
1608810924167782761,,0.0342671305548,0.0,0.0,,0.0,0.0,-0.032044335143
1608810924454950861,,0.0317190630095,0.0,0.0,,0.0,0.0,-0.0337854776814
1608810924669827832,,0.0298103459462,0.0,0.0,,0.0,0.0,-0.0338169530643
1608810924980120439,,0.027992646688,0.0,0.0,,0.0,0.0,-0.0344747790512
1608810925226059995,,0.0263956007512,0.0,0.0,,0.0,0.0,-0.0333221699701
1608810925488719000,,0.023641165989,0.0,0.0,,0.0,0.0,-0.0339335211416
1608810925774796127,,0.0218330446828,0.0,0.0,,0.0,0.0,-0.0338662313926
1608810926106098330,,0.0196012490672,0.0,0.0,,0.0,0.0,-0.0339956505572
1608810926270038647,,0.0182115065403,0.0,0.0,,0.0,0.0,-0.0339643844714
1608810926537566919,,0.0165189199982,0.0,0.0,,0.0,0.0,-0.0339766568422
1608810926855675376,,0.0151094774658,0.0,0.0,,0.0,0.0,-0.0336025597362
1608810927109413036,,0.0138230054983,0.0,0.0,,0.0,0.0,-0.0345516462313
1608810927404857609,,0.0128522456796,0.0,0.0,,0.0,0.0,-0.0337267096576
1608810927655923430,,0.0120738082298,0.0,0.0,,0.0,0.0,-0.0342989701507
1608810927933213231,,0.0120066392649,0.0,0.0,,0.0,0.0,-0.0342264148923
1608810928242378217,,0.0109809216032,0.0,0.0,,0.0,0.0,-0.0340478060021
1608810928440331807,,0.0109482328348,0.0,0.0,,0.0,0.0,-0.0340770364923
1608810928714158356,,0.00994381907635,0.0,0.0,,0.0,0.0,-0.033701261859
1608810928958450787,,0.00924361995176,0.0,0.0,,0.0,0.0,-0.0336004731761
1608810929206601794,,0.00774457417087,0.0,0.0,,0.0,0.0,-0.033437406241
1608810929463529964,,0.00754162472143,0.0,0.0,,0.0,0.0,-0.0330645591392
1608810929710647863,,0.00681712432172,0.0,0.0,,0.0,0.0,-0.0336824770675
1608810930003445876,,0.00635166917963,0.0,0.0,,0.0,0.0,-0.0334380411185
1608810930285044497,,0.00587887735052,0.0,0.0,,0.0,0.0,-0.0334009588342
1608810930572426113,,0.00458406854224,0.0,0.0,,0.0,0.0,-0.0332195416827
1608810930811380781,,0.00404936547868,0.0,0.0,,0.0,0.0,-0.0330744922562
1608810931092931356,,0.0031023040928,0.0,0.0,,0.0,0.0,-0.032751050891
