rosbagTimestamp,header,seq,stamp,secs,nsecs,frame_id,time_stamp,bumper,wheel_drop,cliff,left_encoder,right_encoder,left_pwm,right_pwm,buttons,charger,battery,bottom,current,over_current,digital_input,analog_input
1608810897630130960,,102748,,1608810897,410266148,'',55160,0,0,0,61031,21104,0,0,0,0,149,"[1549, 1702, 1497]","[0, 0]",0,0,"[4095, 4095, 4095, 4095]"
1608810897630149773,,102749,,1608810897,425540828,'',55180,0,0,0,61031,21104,0,0,0,0,149,"[1548, 1725, 1497]","[0, 0]",0,0,"[4095, 4095, 4095, 4095]"
1608810897630159859,,102750,,1608810897,445532414,'',55200,0,0,0,61031,21104,0,0,0,0,149,"[1548, 1725, 1488]","[0, 0]",0,0,"[4095, 4095, 4095, 4095]"
1608810897630169285,,102751,,1608810897,465369141,'',55220,0,0,0,61031,21104,0,0,0,0,149,"[1548, 1724, 1488]","[0, 0]",0,0,"[4095, 4095, 4095, 4095]"
1608810897630300030,,102752,,1608810897,485373851,'',55240,0,0,0,61031,21104,0,0,0,0,149,"[1548, 1724, 1490]","[0, 0]",0,0,"[4095, 4095, 4095, 4095]"
1608810897686412956,,102753,,1608810897,505742521,'',55260,0,0,0,61031,21104,0,0,0,0,149,"[1552, 1720, 1490]","[0, 0]",0,0,"[4095, 4095, 4095, 4095]"
1608810897686438366,,102754,,1608810897,525683654,'',55280,0,0,0,61031,21104,0,0,0,0,149,"[1552, 1700, 1486]","[0, 0]",0,0,"[4095, 4095, 4095, 4095]"
1608810897686448446,,102755,,1608810897,545670865,'',55300,0,0,0,61031,21104,0,0,0,0,149,"[1552, 1726, 1486]","[0, 0]",0,0,"[4095, 4095, 4095, 4095]"
1608810897686461479,,102756,,1608810897,564693931,'',55320,0,0,0,61031,21104,0,0,0,0,149,"[1551, 1726, 1495]","[0, 0]",0,0,"[4095, 4095, 4095, 4095]"
1608810897686469801,,102757,,1608810897,586065825,'',55340,0,0,0,61031,21104,0,0,0,0,149,"[1551, 1726, 1495]","[0, 0]",0,0,"[4095, 4095, 4095, 4095]"
1608810897686480072,,102758,,1608810897,606046037,'',55360,0,0,0,61031,21104,0,0,0,0,149,"[1550, 1722, 1487]","[0, 0]",0,0,"[4095, 4095, 4095, 4095]"
1608810897686491189,,102759,,1608810897,626027999,'',55380,0,0,0,61031,21104,0,0,0,0,149,"[1550, 1725, 1493]","[0, 0]",0,0,"[4095, 4095, 4095, 4095]"
1608810897731066713,,102760,,1608810897,650210090,'',55400,0,0,0,61031,21104,0,0,0,0,149,"[1549, 1725, 1493]","[0, 0]",0,0,"[4095, 4095, 4095, 4095]"
1608810897731089251,,102761,,1608810897,666237771,'',55420,0,0,0,61031,21104,0,0,0,0,149,"[1549, 1682, 1488]","[0, 0]",0,0,"[4095, 4095, 4095, 4095]"
1608810897731175884,,102762,,1608810897,685963969,'',55440,0,0,0,61031,21104,0,0,0,0,149,"[1549, 1703, 1489]","[0, 0]",0,0,"[4095, 4095, 4095, 4095]"
1608810897731197486,,102763,,1608810897,705837151,'',55460,0,0,0,61031,21104,0,0,0,0,149,"[1549, 1703, 1489]","[0, 0]",0,0,"[4095, 4095, 4095, 4095]"
1608810897758025448,,102764,,1608810897,725805115,'',55480,0,0,0,61031,21104,0,0,0,0,149,"[1549, 1701, 1489]","[0, 0]",0,0,"[4095, 4095, 4095, 4095]"
1608810897776329508,,102765,,1608810897,746778053,'',55500,0,0,0,61031,21104,0,0,0,0,149,"[1549, 1727, 1487]","[0, 0]",0,0,"[4095, 4095, 4095, 4095]"
1608810897804268658,,102766,,1608810897,765932937,'',55520,0,0,0,61031,21104,0,0,0,0,149,"[1549, 1727, 1487]","[0, 0]",0,0,"[4095, 4095, 4095, 4095]"
1608810897866613045,,102767,,1608810897,785900609,'',55540,0,0,0,61031,21104,0,0,0,0,149,"[1547, 1720, 1488]","[0, 0]",0,0,"[4095, 4095, 4095, 4095]"
1608810897866636539,,102768,,1608810897,805910860,'',55560,0,0,0,61031,21104,0,0,0,0,149,"[1544, 1702, 1488]","[0, 0]",0,0,"[4095, 4095, 4095, 4095]"
1608810897899635187,,102769,,1608810897,824808814,'',55580,0,0,0,61031,21104,0,0,0,0,149,"[1526, 1702, 1487]","[0, 0]",0,0,"[4095, 4095, 4095, 4095]"
1608810897899826011,,102770,,1608810897,845704760,'',55600,0,0,0,61031,21104,0,0,0,0,149,"[1526, 1702, 1487]","[0, 0]",0,0,"[4095, 4095, 4095, 4095]"
1608810897899852393,,102771,,1608810897,865854412,'',55620,0,0,0,61031,21104,0,0,0,0,149,"[1526, 1681, 1488]","[0, 0]",0,0,"[4095, 4095, 4095, 4095]"
1608810897925900037,,102772,,1608810897,885868746,'',55640,0,0,0,61031,21104,0,0,0,0,149,"[1526, 1701, 1488]","[0, 0]",0,0,"[4095, 4095, 4095, 4095]"
1608810897925908385,,102773,,1608810897,905876663,'',55660,0,0,0,61031,21104,0,0,0,0,149,"[1525, 1703, 1499]","[0, 0]",0,0,"[4095, 4095, 4095, 4095]"
1608810897956244139,,102774,,1608810897,925867374,'',55680,0,0,0,61031,21104,0,0,0,0,149,"[1529, 1703, 1499]","[0, 0]",0,0,"[4095, 4095, 4095, 4095]"
1608810897986776131,,102775,,1608810897,945846128,'',55700,0,0,0,61031,21104,0,0,0,0,149,"[1529, 1700, 1497]","[0, 0]",0,0,"[4095, 4095, 4095, 4095]"
1608810898013159422,,102776,,1608810897,965901873,'',55720,0,0,0,61031,21104,0,0,0,0,149,"[1525, 1726, 1498]","[0, 0]",0,0,"[4095, 4095, 4095, 4095]"
1608810898013172640,,102777,,1608810897,985855547,'',55740,0,0,0,61031,21104,0,0,0,0,149,"[1545, 1726, 1498]","[0, 0]",0,0,"[4095, 4095, 4095, 4095]"
1608810898031900455,,102778,,1608810898,5889420,'',55760,0,0,0,61031,21104,0,0,0,0,149,"[1545, 1723, 1490]","[0, 0]",0,0,"[4095, 4095, 4095, 4095]"
1608810898047798793,,102779,,1608810898,25842526,'',55780,0,0,0,61031,21104,0,0,0,0,149,"[1547, 1722, 1490]","[0, 0]",0,0,"[4095, 4095, 4095, 4095]"
1608810898060667474,,102780,,1608810898,46584796,'',55800,0,0,0,61031,21104,0,0,0,0,149,"[1547, 1723, 1487]","[0, 0]",0,0,"[4095, 4095, 4095, 4095]"
1608810898082617584,,102781,,1608810898,66034831,'',55820,0,0,0,61031,21104,0,0,0,0,149,"[1547, 1723, 1487]","[0, 0]",0,0,"[4095, 4095, 4095, 4095]"
1608810898109314810,,102782,,1608810898,86570331,'',55840,0,0,0,61031,21104,0,0,0,0,149,"[1548, 1723, 1487]","[0, 0]",0,0,"[4095, 4095, 4095, 4095]"
1608810898129268961,,102783,,1608810898,105847717,'',55860,0,0,0,61031,21104,0,0,0,0,149,"[1548, 1723, 1487]","[0, 0]",0,0,"[4095, 4095, 4095, 4095]"
1608810898152661377,,102784,,1608810898,125818612,'',55880,0,0,0,61031,21104,0,0,0,0,149,"[1551, 1723, 1488]","[0, 0]",0,0,"[4095, 4095, 4095, 4095]"
1608810898174885514,,102785,,1608810898,145822462,'',55900,0,0,0,61031,21104,0,0,0,0,149,"[1551, 1702, 1497]","[0, 0]",0,0,"[4095, 4095, 4095, 4095]"
1608810898198886267,,102786,,1608810898,164855749,'',55920,0,0,0,61031,21104,0,0,0,0,149,"[1544, 1702, 1497]","[0, 0]",0,0,"[4095, 4095, 4095, 4095]"
1608810898224939741,,102787,,1608810898,184937757,'',55940,0,0,0,61031,21104,0,0,0,0,149,"[1548, 1702, 1489]","[0, 0]",0,0,"[4095, 4095, 4095, 4095]"
1608810898246036023,,102788,,1608810898,205097632,'',55960,0,0,0,61031,21104,0,0,0,0,149,"[1548, 1702, 1488]","[0, 0]",0,0,"[4095, 4095, 4095, 4095]"
1608810898246069193,,102789,,1608810898,225864108,'',55980,0,0,0,61031,21104,0,0,0,0,149,"[1545, 1702, 1488]","[0, 0]",0,0,"[4095, 4095, 4095, 4095]"
1608810898268691376,,102790,,1608810898,245805256,'',56000,0,0,0,61031,21104,0,0,0,0,149,"[1546, 1702, 1488]","[0, 0]",0,0,"[4095, 4095, 4095, 4095]"
1608810898284891711,,102791,,1608810898,265751362,'',56020,0,0,0,61031,21104,0,0,0,0,149,"[1547, 1702, 1487]","[0, 0]",0,0,"[4095, 4095, 4095, 4095]"
1608810898316341448,,102792,,1608810898,285724006,'',56040,0,0,0,61031,21104,0,0,0,0,149,"[1548, 1724, 1487]","[0, 0]",0,0,"[4095, 4095, 4095, 4095]"
1608810898341973307,,102793,,1608810898,305713566,'',56060,0,0,0,61031,21104,0,0,0,0,149,"[1548, 1724, 1489]","[0, 0]",0,0,"[4095, 4095, 4095, 4095]"
1608810898342056589,,102794,,1608810898,325844568,'',56080,0,0,0,61031,21104,0,0,0,0,149,"[1549, 1722, 1489]","[0, 0]",0,0,"[4095, 4095, 4095, 4095]"
1608810898361439781,,102795,,1608810898,345702017,'',56100,0,0,0,61031,21104,0,0,0,0,149,"[1549, 1723, 1489]","[0, 0]",0,0,"[4095, 4095, 4095, 4095]"
1608810898382320509,,102796,,1608810898,365716074,'',56120,0,0,0,61031,21104,0,0,0,0,149,"[1549, 1724, 1487]","[0, 0]",0,0,"[4095, 4095, 4095, 4095]"
1608810898422672298,,102797,,1608810898,385656639,'',56140,0,0,0,61031,21104,0,0,0,0,149,"[1549, 1724, 1489]","[0, 0]",0,0,"[4095, 4095, 4095, 4095]"
1608810898442469791,,102798,,1608810898,405670696,'',56160,0,0,0,61031,21104,0,0,0,0,149,"[1549, 1701, 1489]","[0, 0]",0,0,"[4095, 4095, 4095, 4095]"
1608810898443286637,,102799,,1608810898,425653256,'',56180,0,0,0,61031,21104,0,0,0,0,149,"[1546, 1703, 1489]","[0, 0]",0,0,"[4095, 4095, 4095, 4095]"
1608810898460857184,,102800,,1608810898,445516246,'',56200,0,0,0,61031,21104,0,0,0,0,149,"[1545, 1724, 1491]","[0, 0]",0,0,"[4095, 4095, 4095, 4095]"
1608810898482656337,,102801,,1608810898,465681661,'',56220,0,0,0,61031,21104,0,0,0,0,149,"[1545, 1724, 1491]","[0, 0]",0,0,"[4095, 4095, 4095, 4095]"
1608810898498818884,,102802,,1608810898,485883531,'',56240,0,0,0,61031,21104,0,0,0,0,149,"[1548, 1702, 1495]","[0, 0]",0,0,"[4095, 4095, 4095, 4095]"
1608810898527289745,,102803,,1608810898,505386060,'',56260,0,0,0,61031,21104,0,0,0,0,149,"[1548, 1725, 1495]","[0, 0]",0,0,"[4095, 4095, 4095, 4095]"
1608810898543525169,,102804,,1608810898,524612993,'',56280,0,0,0,61031,21104,0,0,0,0,149,"[1546, 1725, 1489]","[0, 0]",0,0,"[4095, 4095, 4095, 4095]"
1608810898564850316,,102805,,1608810898,544679253,'',56300,0,0,0,61031,21104,0,0,0,0,149,"[1551, 1723, 1489]","[0, 0]",0,0,"[4095, 4095, 4095, 4095]"
1608810898594258420,,102806,,1608810898,565535261,'',56320,0,0,0,61031,21104,0,0,0,0,149,"[1551, 1703, 1498]","[0, 0]",0,0,"[4095, 4095, 4095, 4095]"
1608810898631713430,,102807,,1608810898,585565941,'',56340,0,0,0,61031,21104,0,0,0,0,149,"[1545, 1703, 1498]","[0, 0]",0,0,"[4095, 4095, 4095, 4095]"
1608810898658762738,,102808,,1608810898,605510005,'',56360,0,0,0,61031,21104,0,0,0,0,149,"[1551, 1698, 1488]","[0, 0]",0,0,"[4095, 4095, 4095, 4095]"
1608810898658777186,,102809,,1608810898,625501315,'',56380,0,0,0,61031,21104,0,0,0,0,149,"[1551, 1725, 1488]","[0, 0]",0,0,"[4095, 4095, 4095, 4095]"
1608810898658801017,,102810,,1608810898,645490583,'',56400,0,0,0,61031,21104,0,0,0,0,149,"[1548, 1725, 1486]","[0, 0]",0,0,"[4095, 4095, 4095, 4095]"
1608810898684453999,,102811,,1608810898,665682829,'',56420,0,0,0,61031,21104,0,0,0,0,149,"[1550, 1725, 1499]","[0, 0]",0,0,"[4095, 4095, 4095, 4095]"
1608810898717733225,,102812,,1608810898,685509947,'',56440,0,0,0,61031,21104,0,0,0,0,149,"[1550, 1703, 1499]","[0, 0]",0,0,"[4095, 4095, 4095, 4095]"
1608810898745931402,,102813,,1608810898,705513797,'',56460,0,0,0,61031,21104,0,0,0,0,149,"[1550, 1706, 1487]","[0, 0]",0,0,"[4095, 4095, 4095, 4095]"
1608810898898583280,,102814,,1608810898,727774321,'',56480,0,0,0,61031,21104,0,0,0,0,149,"[1550, 1706, 1487]","[0, 0]",0,0,"[4095, 4095, 4095, 4095]"
1608810898898681148,,102815,,1608810898,746145304,'',56500,0,0,0,61031,21104,0,0,0,0,149,"[1548, 1704, 1486]","[0, 0]",0,0,"[4095, 4095, 4095, 4095]"
1608810898933620643,,102816,,1608810898,766904198,'',56520,0,0,0,61031,21104,0,0,0,0,149,"[1546, 1724, 1486]","[0, 0]",0,0,"[4095, 4095, 4095, 4095]"
1608810898933643689,,102817,,1608810898,785554859,'',56540,0,0,0,61031,21104,0,0,0,0,149,"[1569, 1725, 1487]","[0, 0]",0,0,"[4095, 4095, 4095, 4095]"
1608810898933654514,,102818,,1608810898,805694611,'',56560,0,0,0,61031,21104,0,0,0,0,149,"[1569, 1725, 1487]","[0, 0]",0,0,"[4095, 4095, 4095, 4095]"
1608810898933666518,,102819,,1608810898,826447089,'',56580,0,0,0,61031,21104,0,0,0,0,149,"[1569, 1703, 1492]","[0, 0]",0,0,"[4095, 4095, 4095, 4095]"
1608810898933718827,,102820,,1608810898,846428482,'',56600,0,0,0,61031,21104,0,0,0,0,149,"[1544, 1703, 1492]","[0, 0]",0,0,"[4095, 4095, 4095, 4095]"
1608810898933807310,,102821,,1608810898,866723384,'',56620,0,0,0,61031,21104,0,0,0,0,149,"[1545, 1703, 1491]","[0, 0]",0,0,"[4095, 4095, 4095, 4095]"
1608810898933838399,,102822,,1608810898,885451329,'',56640,0,0,0,61031,21104,0,0,0,0,149,"[1549, 1701, 1491]","[0, 0]",0,0,"[4095, 4095, 4095, 4095]"
1608810898933874177,,102823,,1608810898,905815348,'',56660,0,0,0,61031,21104,0,0,0,0,149,"[1549, 1701, 1485]","[0, 0]",0,0,"[4095, 4095, 4095, 4095]"
1608810898956876797,,102824,,1608810898,925503649,'',56680,0,0,0,61031,21104,0,0,0,0,149,"[1548, 1704, 1486]","[0, 0]",0,0,"[4095, 4095, 4095, 4095]"
1608810898980259752,,102825,,1608810898,947527073,'',56700,0,0,0,61031,21104,0,0,0,0,149,"[1529, 1704, 1486]","[0, 0]",0,0,"[4095, 4095, 4095, 4095]"
1608810899002642037,,102826,,1608810898,966637935,'',56720,0,0,0,61031,21104,0,0,0,0,149,"[1526, 1704, 1486]","[0, 0]",0,0,"[4095, 4095, 4095, 4095]"
1608810899035996664,,102827,,1608810898,986610872,'',56740,0,0,0,61031,21104,0,0,0,0,149,"[1531, 1724, 1488]","[0, 0]",0,0,"[4095, 4095, 4095, 4095]"
1608810899036054728,,102828,,1608810899,5502132,'',56760,0,0,0,61031,21104,0,0,0,0,149,"[1531, 1724, 1494]","[0, 0]",0,0,"[4095, 4095, 4095, 4095]"
1608810899070593957,,102829,,1608810899,25443005,'',56780,0,0,0,61031,21104,0,0,0,0,149,"[1525, 1703, 1494]","[0, 0]",0,0,"[4095, 4095, 4095, 4095]"
1608810899070633940,,102830,,1608810899,45412165,'',56800,0,0,0,61031,21104,0,0,0,0,149,"[1525, 1703, 1489]","[0, 0]",0,0,"[4095, 4095, 4095, 4095]"
1608810899093993221,,102831,,1608810899,66499164,'',56820,0,0,0,61031,21104,0,0,0,0,149,"[1525, 1703, 1489]","[0, 0]",0,0,"[4095, 4095, 4095, 4095]"
1608810899123529797,,102832,,1608810899,86566605,'',56840,0,0,0,61031,21104,0,0,0,0,149,"[1526, 1703, 1489]","[0, 0]",0,0,"[4095, 4095, 4095, 4095]"
1608810899147599117,,102833,,1608810899,106461107,'',56860,0,0,0,61031,21104,0,0,0,0,149,"[1528, 1702, 1484]","[0, 0]",0,0,"[4095, 4095, 4095, 4095]"
1608810899147651248,,102834,,1608810899,125336925,'',56880,0,0,0,61031,21104,0,0,0,0,149,"[1545, 1702, 1497]","[0, 0]",0,0,"[4095, 4095, 4095, 4095]"
1608810899162855532,,102835,,1608810899,145417198,'',56900,0,0,0,61031,21104,0,0,0,0,149,"[1548, 1701, 1497]","[0, 0]",0,0,"[4095, 4095, 4095, 4095]"
1608810899187428378,,102836,,1608810899,165442936,'',56920,0,0,0,61031,21104,0,0,0,0,149,"[1548, 1724, 1489]","[0, 0]",0,0,"[4095, 4095, 4095, 4095]"
1608810899211932592,,102837,,1608810899,186681585,'',56940,0,0,0,61031,21104,0,0,0,0,149,"[1549, 1725, 1499]","[0, 0]",0,0,"[4095, 4095, 4095, 4095]"
1608810899237889753,,102838,,1608810899,206336654,'',56960,0,0,0,61031,21104,0,0,0,0,149,"[1549, 1725, 1499]","[0, 0]",0,0,"[4095, 4095, 4095, 4095]"
1608810899260874319,,102839,,1608810899,226333811,'',56980,0,0,0,61031,21104,0,0,0,0,149,"[1549, 1703, 1486]","[0, 0]",0,0,"[4095, 4095, 4095, 4095]"
1608810899285559079,,102840,,1608810899,246255434,'',57000,0,0,0,61031,21104,0,0,0,0,149,"[1549, 1725, 1487]","[0, 0]",0,0,"[4095, 4095, 4095, 4095]"
1608810899285587298,,102841,,1608810899,265460801,'',57020,0,0,0,61031,21104,0,0,0,0,149,"[1559, 1725, 1487]","[0, 0]",0,0,"[4095, 4095, 4095, 4095]"
1608810899302796495,,102842,,1608810899,285729179,'',57040,0,0,0,61031,21104,0,0,0,0,149,"[1559, 1720, 1487]","[0, 0]",0,0,"[4095, 4095, 4095, 4095]"
1608810899331897884,,102843,,1608810899,306540291,'',57060,0,0,0,61031,21104,0,0,0,0,149,"[1550, 1724, 1486]","[0, 0]",0,0,"[4095, 4095, 4095, 4095]"
1608810899357721154,,102844,,1608810899,326308514,'',57080,0,0,0,61031,21104,0,0,0,0,149,"[1550, 1724, 1486]","[0, 0]",0,0,"[4095, 4095, 4095, 4095]"
1608810899385877929,,102845,,1608810899,346517690,'',57100,0,0,0,61031,21104,0,0,0,0,149,"[1545, 1719, 1487]","[0, 0]",0,0,"[4095, 4095, 4095, 4095]"
1608810899415952016,,102846,,1608810899,365983779,'',57120,0,0,0,61031,21104,0,0,0,0,149,"[1546, 1720, 1487]","[0, 0]",0,0,"[4095, 4095, 4095, 4095]"
1608810899415978668,,102847,,1608810899,385070450,'',57140,0,0,0,61031,21104,0,0,0,0,149,"[1549, 1723, 1487]","[0, 0]",0,0,"[4095, 4095, 4095, 4095]"
1608810899435140657,,102848,,1608810899,405736910,'',57160,0,0,0,61031,21104,0,0,0,0,149,"[1549, 1723, 1487]","[0, 0]",0,0,"[4095, 4095, 4095, 4095]"
1608810899466773891,,102849,,1608810899,426149065,'',57180,0,0,0,61031,21104,0,0,0,0,149,"[1566, 1697, 1488]","[0, 0]",0,0,"[4095, 4095, 4095, 4095]"
1608810899466842995,,102850,,1608810899,446290873,'',57200,0,0,0,61031,21104,0,0,0,0,149,"[1574, 1726, 1488]","[0, 0]",0,0,"[4095, 4095, 4095, 4095]"
1608810899489720686,,102851,,1608810899,466317777,'',57220,0,0,0,61031,21104,0,0,0,0,149,"[1574, 1726, 1488]","[0, 0]",0,0,"[4095, 4095, 4095, 4095]"
1608810899515955919,,102852,,1608810899,486183990,'',57240,0,0,0,61031,21104,0,0,0,0,149,"[1545, 1705, 1496]","[0, 0]",0,0,"[4095, 4095, 4095, 4095]"
1608810899537291947,,102853,,1608810899,505332196,'',57260,0,0,0,61031,21104,0,0,0,0,149,"[1546, 1723, 1496]","[0, 0]",0,0,"[4095, 4095, 4095, 4095]"
1608810899565047125,,102854,,1608810899,526769157,'',57280,0,0,0,61031,21104,0,0,0,0,149,"[1547, 1723, 1498]","[0, 0]",0,0,"[4095, 4095, 4095, 4095]"
1608810899599461643,,102855,,1608810899,546885010,'',57300,0,0,0,61031,21104,0,0,0,0,149,"[1547, 1716, 1498]","[0, 0]",0,0,"[4095, 4095, 4095, 4095]"
1608810899599526573,,102856,,1608810899,566160077,'',57320,0,0,0,61031,21104,0,0,0,0,149,"[1547, 1702, 1491]","[0, 0]",0,0,"[4095, 4095, 4095, 4095]"
1608810899628481719,,102857,,1608810899,586570190,'',57340,0,0,0,61031,21104,0,0,0,0,149,"[1547, 1703, 1491]","[0, 0]",0,0,"[4095, 4095, 4095, 4095]"
1608810899628536412,,102858,,1608810899,606118229,'',57360,0,0,0,61031,21104,0,0,0,0,149,"[1549, 1703, 1491]","[0, 0]",0,0,"[4095, 4095, 4095, 4095]"
1608810899651103121,,102859,,1608810899,625214815,'',57380,0,0,0,61031,21104,0,0,0,0,149,"[1549, 1702, 1486]","[0, 0]",0,0,"[4095, 4095, 4095, 4095]"
1608810899674705022,,102860,,1608810899,645186600,'',57400,0,0,0,61031,21104,0,0,0,0,149,"[1547, 1726, 1487]","[0, 0]",0,0,"[4095, 4095, 4095, 4095]"
1608810899695380657,,102861,,1608810899,665800275,'',57420,0,0,0,61031,21104,0,0,0,0,149,"[1547, 1726, 1488]","[0, 0]",0,0,"[4095, 4095, 4095, 4095]"
1608810899711407830,,102862,,1608810899,686657756,'',57440,0,0,0,61031,21104,0,0,0,0,149,"[1546, 1726, 1488]","[0, 0]",0,0,"[4095, 4095, 4095, 4095]"
1608810899728443365,,102863,,1608810899,706481099,'',57460,0,0,0,61031,21104,0,0,0,0,149,"[1548, 1679, 1495]","[0, 0]",0,0,"[4095, 4095, 4095, 4095]"
1608810899752889243,,102864,,1608810899,726072882,'',57480,0,0,0,61031,21104,0,0,0,0,149,"[1548, 1700, 1495]","[0, 0]",0,0,"[4095, 4095, 4095, 4095]"
1608810899784808456,,102865,,1608810899,745258126,'',57500,0,0,0,61031,21104,0,0,0,0,149,"[1549, 1702, 1496]","[0, 0]",0,0,"[4095, 4095, 4095, 4095]"
1608810899784812831,,102866,,1608810899,765742606,'',57520,0,0,0,61031,21104,0,0,0,0,149,"[1549, 1702, 1496]","[0, 0]",0,0,"[4095, 4095, 4095, 4095]"
1608810899823620520,,102867,,1608810899,785230276,'',57540,0,0,0,61031,21104,0,0,0,0,149,"[1547, 1703, 1494]","[0, 0]",0,0,"[4095, 4095, 4095, 4095]"
1608810899850739512,,102868,,1608810899,806685902,'',57560,0,0,0,61031,21104,0,0,0,0,149,"[1547, 1703, 1489]","[0, 0]",0,0,"[4095, 4095, 4095, 4095]"
1608810899850769078,,102869,,1608810899,826087540,'',57580,0,0,0,61031,21104,0,0,0,0,149,"[1544, 1702, 1490]","[0, 0]",0,0,"[4095, 4095, 4095, 4095]"
1608810899874250553,,102870,,1608810899,846097820,'',57600,0,0,0,61031,21104,0,0,0,0,149,"[1549, 1701, 1490]","[0, 0]",0,0,"[4095, 4095, 4095, 4095]"
1608810899899680431,,102871,,1608810899,865315144,'',57620,0,0,0,61031,21104,0,0,0,0,149,"[1549, 1703, 1487]","[0, 0]",0,0,"[4095, 4095, 4095, 4095]"
1608810899920817507,,102872,,1608810899,885467451,'',57640,0,0,0,61031,21104,0,0,0,0,149,"[1548, 1703, 1487]","[0, 0]",0,0,"[4095, 4095, 4095, 4095]"
1608810899977302283,,102873,,1608810899,905851025,'',57660,0,0,0,61031,21104,0,0,0,0,149,"[1570, 1722, 1489]","[0, 0]",0,0,"[4095, 4095, 4095, 4095]"
1608810899977311353,,102874,,1608810899,925650453,'',57680,0,0,0,61031,21104,0,0,0,0,149,"[1570, 1722, 1489]","[0, 0]",0,0,"[4095, 4095, 4095, 4095]"
1608810899998519966,,102875,,1608810899,948335032,'',57700,0,0,0,61031,21104,0,0,0,0,149,"[1567, 1722, 1489]","[0, 0]",0,0,"[4095, 4095, 4095, 4095]"
1608810899998523871,,102876,,1608810899,965993855,'',57720,0,0,0,61031,21104,0,0,0,0,149,"[1549, 1704, 1487]","[0, 0]",0,0,"[4095, 4095, 4095, 4095]"
1608810900022792871,,102877,,1608810899,985890690,'',57740,0,0,0,61031,21104,0,0,0,0,149,"[1549, 1704, 1487]","[0, 0]",0,0,"[4095, 4095, 4095, 4095]"
1608810900022829171,,102878,,1608810900,5722198,'',57760,0,0,0,61031,21104,0,0,0,0,149,"[1549, 1702, 1487]","[0, 0]",0,0,"[4095, 4095, 4095, 4095]"
1608810900052316172,,102879,,1608810900,24689605,'',57780,0,0,0,61031,21104,0,0,0,0,149,"[1545, 1702, 1485]","[0, 0]",0,0,"[4095, 4095, 4095, 4095]"
1608810900068485829,,102880,,1608810900,44972872,'',57800,0,0,0,61031,21104,0,0,0,0,149,"[1553, 1703, 1485]","[0, 0]",0,0,"[4095, 4095, 4095, 4095]"
1608810900086788573,,102881,,1608810900,65065409,'',57820,0,0,0,61031,21104,0,0,0,0,149,"[1553, 1729, 1485]","[0, 0]",0,0,"[4095, 4095, 4095, 4095]"
1608810900103560918,,102882,,1608810900,85001629,'',57840,0,0,0,61031,21104,0,0,0,0,149,"[1526, 1729, 1491]","[0, 0]",0,0,"[4095, 4095, 4095, 4095]"
1608810900124281915,,102883,,1608810900,104040194,'',57860,0,0,0,61031,21104,0,0,0,0,149,"[1526, 1721, 1491]","[0, 0]",0,0,"[4095, 4095, 4095, 4095]"
1608810900158210091,,102884,,1608810900,124025409,'',57880,0,0,0,61031,21104,0,0,0,0,149,"[1541, 1725, 1491]","[0, 0]",0,0,"[4095, 4095, 4095, 4095]"
1608810900190499532,,102885,,1608810900,144049703,'',57900,0,0,0,61031,21104,0,0,0,0,149,"[1541, 1725, 1487]","[0, 0]",0,0,"[4095, 4095, 4095, 4095]"
1608810900190508324,,102886,,1608810900,164844207,'',57920,0,0,0,61031,21104,0,0,0,0,149,"[1526, 1720, 1487]","[0, 0]",0,0,"[4095, 4095, 4095, 4095]"
1608810900226941547,,102887,,1608810900,184971157,'',57940,0,0,0,61031,21104,0,0,0,0,149,"[1524, 1702, 1487]","[0, 0]",0,0,"[4095, 4095, 4095, 4095]"
1608810900227006378,,102888,,1608810900,204963663,'',57960,0,0,0,61031,21104,0,0,0,0,149,"[1544, 1702, 1486]","[0, 0]",0,0,"[4095, 4095, 4095, 4095]"
1608810900249246281,,102889,,1608810900,224069013,'',57980,0,0,0,61031,21104,0,0,0,0,149,"[1557, 1702, 1487]","[0, 0]",0,0,"[4095, 4095, 4095, 4095]"
1608810900281273213,,102890,,1608810900,243949530,'',58000,0,0,0,61031,21104,0,0,0,0,149,"[1557, 1702, 1487]","[0, 0]",0,0,"[4095, 4095, 4095, 4095]"
1608810900281301692,,102891,,1608810900,263998905,'',58020,0,0,0,61031,21104,0,0,0,0,149,"[1549, 1727, 1499]","[0, 0]",0,0,"[4095, 4095, 4095, 4095]"
1608810900304123490,,102892,,1608810900,284913272,'',58040,0,0,0,61031,21104,0,0,0,0,149,"[1574, 1727, 1499]","[0, 0]",0,0,"[4095, 4095, 4095, 4095]"
1608810900326443562,,102893,,1608810900,304960897,'',58060,0,0,0,61031,21104,0,0,0,0,149,"[1574, 1722, 1499]","[0, 0]",0,0,"[4095, 4095, 4095, 4095]"
1608810900339268885,,102894,,1608810900,324954569,'',58080,0,0,0,61031,21104,0,0,0,0,149,"[1564, 1702, 1486]","[0, 0]",0,0,"[4095, 4095, 4095, 4095]"
1608810900363514369,,102895,,1608810900,344036879,'',58100,0,0,0,61031,21104,0,0,0,0,149,"[1547, 1702, 1489]","[0, 0]",0,0,"[4095, 4095, 4095, 4095]"
1608810900407203287,,102896,,1608810900,364156830,'',58120,0,0,0,61031,21104,0,0,0,0,149,"[1547, 1702, 1489]","[0, 0]",0,0,"[4095, 4095, 4095, 4095]"
1608810900433885499,,102897,,1608810900,383989228,'',58140,0,0,0,61031,21104,0,0,0,0,149,"[1546, 1728, 1484]","[0, 0]",0,0,"[4095, 4095, 4095, 4095]"
1608810900433938395,,102898,,1608810900,404845559,'',58160,0,0,0,61031,21104,0,0,0,0,149,"[1546, 1728, 1486]","[0, 0]",0,0,"[4095, 4095, 4095, 4095]"
1608810900452219774,,102899,,1608810900,424887643,'',58180,0,0,0,61031,21104,0,0,0,0,149,"[1544, 1728, 1488]","[0, 0]",0,0,"[4095, 4095, 4095, 4095]"
1608810900477833007,,102900,,1608810900,444902896,'',58200,0,0,0,61031,21104,0,0,0,0,149,"[1549, 1702, 1498]","[0, 0]",0,0,"[4095, 4095, 4095, 4095]"
1608810900504676703,,102901,,1608810900,464197226,'',58220,0,0,0,61031,21104,0,0,0,0,149,"[1549, 1725, 1498]","[0, 0]",0,0,"[4095, 4095, 4095, 4095]"
1608810900504703598,,102902,,1608810900,483958173,'',58240,0,0,0,61031,21104,0,0,0,0,149,"[1549, 1725, 1489]","[0, 0]",0,0,"[4095, 4095, 4095, 4095]"
1608810900572303744,,102903,,1608810900,503935222,'',58260,0,0,0,61031,21104,0,0,0,0,149,"[1549, 1725, 1489]","[0, 0]",0,0,"[4095, 4095, 4095, 4095]"
1608810900591543298,,102904,,1608810900,524918123,'',58280,0,0,0,61031,21104,0,0,0,0,149,"[1544, 1712, 1489]","[0, 0]",0,0,"[4095, 4095, 4095, 4095]"
1608810900591591094,,102905,,1608810900,544842386,'',58300,0,0,0,61031,21104,0,0,0,0,149,"[1543, 1712, 1489]","[0, 0]",0,0,"[4095, 4095, 4095, 4095]"
1608810900591656655,,102906,,1608810900,564853848,'',58320,0,0,0,61031,21104,0,0,0,0,149,"[1544, 1703, 1494]","[0, 0]",0,0,"[4095, 4095, 4095, 4095]"
1608810900618836088,,102907,,1608810900,584001776,'',58340,0,0,0,61031,21104,0,0,0,0,149,"[1564, 1704, 1494]","[0, 0]",0,0,"[4095, 4095, 4095, 4095]"
1608810900647542561,,102908,,1608810900,604009156,'',58360,0,0,0,61031,21104,0,0,0,0,149,"[1564, 1724, 1491]","[0, 0]",0,0,"[4095, 4095, 4095, 4095]"
1608810900647619715,,102909,,1608810900,623960832,'',58380,0,0,0,61031,21104,0,0,0,0,149,"[1547, 1724, 1491]","[0, 0]",0,0,"[4095, 4095, 4095, 4095]"
1608810900684352480,,102910,,1608810900,644841077,'',58400,0,0,0,61031,21104,0,0,0,0,149,"[1548, 1721, 1491]","[0, 0]",0,0,"[4095, 4095, 4095, 4095]"
1608810900719539585,,102911,,1608810900,664441625,'',58420,0,0,0,61031,21104,0,0,0,0,149,"[1548, 1729, 1488]","[0, 0]",0,0,"[4095, 4095, 4095, 4095]"
1608810900719603026,,102912,,1608810900,683957598,'',58440,0,0,0,61031,21104,0,0,0,0,149,"[1559, 1729, 1488]","[0, 0]",0,0,"[4095, 4095, 4095, 4095]"
1608810900757350693,,102913,,1608810900,703888277,'',58460,0,0,0,61031,21104,0,0,0,0,149,"[1559, 1727, 1487]","[0, 0]",0,0,"[4095, 4095, 4095, 4095]"
1608810900757429717,,102914,,1608810900,723865326,'',58480,0,0,0,61031,21104,0,0,0,0,149,"[1544, 1706, 1487]","[0, 0]",0,0,"[4095, 4095, 4095, 4095]"
1608810900790357384,,102915,,1608810900,743913242,'',58500,0,0,0,61031,21104,0,0,0,0,149,"[1547, 1703, 1491]","[0, 0]",0,0,"[4095, 4095, 4095, 4095]"
1608810900790387083,,102916,,1608810900,764684416,'',58520,0,0,0,61031,21104,79,77,0,0,149,"[1547, 1703, 1491]","[0, 0]",0,0,"[4095, 4095, 4095, 4095]"
1608810900817919866,,102917,,1608810900,784698794,'',58540,0,0,0,61031,21104,79,77,0,0,149,"[1547, 1701, 1490]","[0, 0]",0,0,"[4095, 4095, 4095, 4095]"
1608810900852974508,,102918,,1608810900,804722213,'',58560,0,0,0,61031,21104,79,77,0,0,149,"[1526, 1706, 1490]","[0, 0]",0,0,"[4095, 4095, 4095, 4095]"
1608810900853116517,,102919,,1608810900,823689036,'',58580,0,0,0,61031,21104,79,77,0,0,149,"[1526, 1724, 1490]","[0, 0]",0,0,"[4095, 4095, 4095, 4095]"
1608810900889548304,,102920,,1608810900,843778948,'',58600,0,0,0,61031,21104,79,77,0,0,149,"[1526, 1724, 1496]","[0, 0]",0,0,"[4095, 4095, 4095, 4095]"
1608810900889560249,,102921,,1608810900,863850487,'',58620,0,0,0,61031,21104,77,76,0,0,149,"[1548, 1704, 1496]","[0, 0]",0,0,"[4095, 4095, 4095, 4095]"
1608810900908373975,,102922,,1608810900,884698944,'',58640,0,0,0,61066,21138,60,59,0,0,149,"[1570, 1709, 1493]","[23, 25]",0,0,"[4095, 4095, 4095, 4095]"
1608810900930662123,,102923,,1608810900,904702532,'',58660,0,0,0,61121,21192,33,32,0,0,149,"[1570, 1709, 1493]","[16, 17]",0,0,"[4095, 4095, 4095, 4095]"
1608810900985033654,,102924,,1608810900,924669082,'',58680,0,0,0,61167,21233,10,12,0,0,149,"[1570, 1702, 1488]","[7, 8]",0,0,"[4095, 4095, 4095, 4095]"
1608810900985063095,,102925,,1608810900,944071317,'',58700,0,0,0,61192,21255,15,18,0,0,149,"[1552, 1679, 1488]","[2, 3]",0,0,"[4095, 4095, 4095, 4095]"
1608810901026125886,,102926,,1608810900,963810683,'',58720,0,0,0,61214,21278,32,33,0,0,149,"[1541, 1677, 1472]","[2, 3]",0,0,"[4095, 4095, 4095, 4095]"
1608810901026148112,,102927,,1608810900,983911969,'',58740,0,0,0,61246,21312,39,37,0,0,149,"[1547, 1675, 1468]","[5, 6]",0,0,"[4095, 4095, 4095, 4095]"
1608810901048268510,,102928,,1608810901,5701826,'',58760,0,0,0,61281,21348,34,30,0,0,149,"[1548, 1704, 1491]","[6, 6]",0,0,"[4095, 4095, 4095, 4095]"
1608810901048300420,,102929,,1608810901,24697537,'',58780,0,0,0,61321,21385,25,23,0,0,149,"[1548, 1704, 1491]","[5, 3]",0,0,"[4095, 4095, 4095, 4095]"
1608810901080983683,,102930,,1608810901,44769091,'',58800,0,0,0,61358,21421,23,22,0,0,149,"[1567, 1704, 1487]","[3, 2]",0,0,"[4095, 4095, 4095, 4095]"
1608810901105185004,,102931,,1608810901,64842686,'',58820,0,0,0,61395,21457,22,22,0,0,149,"[1571, 1704, 1493]","[1, 1]",0,0,"[4095, 4095, 4095, 4095]"
1608810901105205476,,102932,,1608810901,84661975,'',58840,0,0,0,61434,21495,22,22,0,0,149,"[1571, 1701, 1493]","[1, 1]",0,0,"[4095, 4095, 4095, 4095]"
1608810901124352272,,102933,,1608810901,104762692,'',58860,0,0,0,61471,21533,22,21,0,0,149,"[1552, 1702, 1487]","[1, 0]",0,0,"[4095, 4095, 4095, 4095]"
1608810901144808741,,102934,,1608810901,125519299,'',58880,0,0,0,61508,21570,22,20,0,0,149,"[1581, 1706, 1487]","[1, 0]",0,0,"[4095, 4095, 4095, 4095]"
1608810901179764410,,102935,,1608810901,145171480,'',58900,0,0,0,61545,21605,23,22,0,0,149,"[1581, 1706, 1473]","[1, 0]",0,0,"[4095, 4095, 4095, 4095]"
1608810901195849011,,102936,,1608810901,164959856,'',58920,0,0,0,61582,21640,23,23,0,0,149,"[1553, 1705, 1473]","[1, 1]",0,0,"[4095, 4095, 4095, 4095]"
1608810901222456064,,102937,,1608810901,183751128,'',58940,0,0,0,61619,21677,23,23,0,0,149,"[1549, 1702, 1470]","[1, 1]",0,0,"[4095, 4095, 4095, 4095]"
1608810901222515190,,102938,,1608810901,203839596,'',58960,0,0,0,61655,21714,24,22,0,0,149,"[1548, 1698, 1470]","[1, 1]",0,0,"[4095, 4095, 4095, 4095]"
1608810901245021880,,102939,,1608810901,223684549,'',58980,0,0,0,61691,21750,25,22,0,0,149,"[1548, 1704, 1463]","[1, 1]",0,0,"[4095, 4095, 4095, 4095]"
1608810901263115537,,102940,,1608810901,244657550,'',59000,0,0,0,61727,21786,25,22,0,0,149,"[1551, 1708, 1463]","[1, 1]",0,0,"[4095, 4095, 4095, 4095]"
1608810901291185464,,102941,,1608810901,263803743,'',59020,0,0,0,61763,21821,25,23,0,0,149,"[1551, 1708, 1464]","[1, 1]",0,0,"[4095, 4095, 4095, 4095]"
1608810901333934627,,102942,,1608810901,283731229,'',59040,0,0,0,61800,21857,25,23,0,0,149,"[1551, 1726, 1493]","[2, 1]",0,0,"[4095, 4095, 4095, 4095]"
1608810901363204856,,102943,,1608810901,303690211,'',59060,0,0,0,61835,21893,25,23,0,0,149,"[1550, 1726, 1493]","[2, 1]",0,0,"[4095, 4095, 4095, 4095]"
1608810901363239018,,102944,,1608810901,324155182,'',59080,0,0,0,61869,21926,26,25,0,0,149,"[1550, 1701, 1493]","[2, 1]",0,0,"[4095, 4095, 4095, 4095]"
1608810901388066728,,102945,,1608810901,345929306,'',59100,0,0,0,61903,21959,28,26,0,0,149,"[1548, 1702, 1464]","[2, 2]",0,0,"[4095, 4095, 4095, 4095]"
1608810901388425351,,102946,,1608810901,365543284,'',59120,0,0,0,61939,21995,28,26,0,0,149,"[1549, 1702, 1464]","[2, 2]",0,0,"[4095, 4095, 4095, 4095]"
1608810901411349399,,102947,,1608810901,384535201,'',59140,0,0,0,61975,22032,27,24,0,0,149,"[1549, 1702, 1482]","[3, 2]",0,0,"[4095, 4095, 4095, 4095]"
1608810901464432759,,102948,,1608810901,404807109,'',59160,0,0,0,62012,22069,25,22,0,0,149,"[1549, 1703, 1482]","[2, 1]",0,0,"[4095, 4095, 4095, 4095]"
1608810901498322465,,102949,,1608810901,424683267,'',59180,0,0,0,62049,22105,25,22,0,0,149,"[1570, 1703, 1467]","[2, 1]",0,0,"[4095, 4095, 4095, 4095]"
1608810901498363540,,102950,,1608810901,444911429,'',59200,0,0,0,62087,22140,24,23,0,0,149,"[1572, 1703, 1465]","[1, 1]",0,0,"[4095, 4095, 4095, 4095]"
1608810901498509273,,102951,,1608810901,464500034,'',59220,0,0,0,62126,22177,23,23,0,0,149,"[1572, 1702, 1484]","[1, 1]",0,0,"[4095, 4095, 4095, 4095]"
1608810901523859250,,102952,,1608810901,485199480,'',59240,0,0,0,62164,22215,23,22,0,0,149,"[1570, 1703, 1484]","[1, 1]",0,0,"[4095, 4095, 4095, 4095]"
1608810901523888174,,102953,,1608810901,505508717,'',59260,0,0,0,62201,22252,23,22,0,0,149,"[1547, 1703, 1484]","[1, 1]",0,0,"[4095, 4095, 4095, 4095]"
1608810901546247621,,102954,,1608810901,525398582,'',59280,0,0,0,62238,22289,24,22,0,0,149,"[1549, 1701, 1490]","[1, 0]",0,0,"[4095, 4095, 4095, 4095]"
1608810901569978505,,102955,,1608810901,545447680,'',59300,0,0,0,62275,22325,25,23,0,0,149,"[1549, 1703, 1490]","[1, 0]",0,0,"[4095, 4095, 4095, 4095]"
1608810901604106781,,102956,,1608810901,564714902,'',59320,0,0,0,62311,22361,25,24,0,0,149,"[1549, 1703, 1490]","[1, 1]",0,0,"[4095, 4095, 4095, 4095]"
1608810901604134880,,102957,,1608810901,584554897,'',59340,0,0,0,62347,22397,26,24,0,0,149,"[1549, 1701, 1470]","[2, 1]",0,0,"[4095, 4095, 4095, 4095]"
1608810901626186550,,102958,,1608810901,605630262,'',59360,0,0,0,62383,22434,26,24,0,0,149,"[1563, 1676, 1470]","[2, 1]",0,0,"[4095, 4095, 4095, 4095]"
1608810901672054391,,102959,,1608810901,624468195,'',59380,0,0,0,62418,22470,27,24,0,0,149,"[1563, 1683, 1441]","[2, 1]",0,0,"[4095, 4095, 4095, 4095]"
1608810901693897919,,102960,,1608810901,644923834,'',59400,0,0,0,62455,22506,26,24,0,0,149,"[1549, 1683, 1473]","[2, 1]",0,0,"[4095, 4095, 4095, 4095]"
1608810901693973212,,102961,,1608810901,664746622,'',59420,0,0,0,62492,22542,26,24,0,0,149,"[1549, 1679, 1473]","[2, 1]",0,0,"[4095, 4095, 4095, 4095]"
1608810901717576694,,102962,,1608810901,686091750,'',59440,0,0,0,62527,22578,26,24,0,0,149,"[1548, 1679, 1473]","[2, 1]",0,0,"[4095, 4095, 4095, 4095]"
1608810901764365775,,102963,,1608810901,709009380,'',59460,0,0,0,62566,22615,25,24,0,0,149,"[1551, 1680, 1473]","[2, 1]",0,0,"[4095, 4095, 4095, 4095]"
1608810901787529541,,102964,,1608810901,728734762,'',59480,0,0,0,62604,22652,25,23,0,0,149,"[1551, 1680, 1473]","[1, 1]",0,0,"[4095, 4095, 4095, 4095]"
1608810901787548087,,102965,,1608810901,745500913,'',59500,0,0,0,62642,22689,23,23,0,0,149,"[1550, 1679, 1468]","[1, 1]",0,0,"[4095, 4095, 4095, 4095]"
1608810901787641703,,102966,,1608810901,764417881,'',59520,0,0,0,62679,22726,24,23,0,0,149,"[1550, 1681, 1493]","[1, 1]",0,0,"[4095, 4095, 4095, 4095]"
1608810901814358584,,102967,,1608810901,784388237,'',59540,0,0,0,62718,22763,24,23,0,0,149,"[1549, 1681, 1493]","[1, 1]",0,0,"[4095, 4095, 4095, 4095]"
1608810901849311807,,102968,,1608810901,804335262,'',59560,0,0,0,62755,22799,25,24,0,0,149,"[1549, 1680, 1493]","[1, 1]",0,0,"[4095, 4095, 4095, 4095]"
1608810901849323857,,102969,,1608810901,824323991,'',59580,0,0,0,62793,22837,24,24,0,0,149,"[1549, 1707, 1503]","[1, 1]",0,0,"[4095, 4095, 4095, 4095]"
1608810901876465320,,102970,,1608810901,844740842,'',59600,0,0,0,62830,22875,25,23,0,0,149,"[1549, 1707, 1503]","[1, 1]",0,0,"[4095, 4095, 4095, 4095]"
1608810901905973373,,102971,,1608810901,865521363,'',59620,0,0,0,62867,22913,25,22,0,0,149,"[1549, 1703, 1503]","[1, 1]",0,0,"[4095, 4095, 4095, 4095]"
1608810901905998240,,102972,,1608810901,885429309,'',59640,0,0,0,62903,22949,26,23,0,0,149,"[1537, 1725, 1495]","[2, 1]",0,0,"[4095, 4095, 4095, 4095]"
1608810901933979252,,102973,,1608810901,905319757,'',59660,0,0,0,62940,22986,26,24,0,0,149,"[1537, 1725, 1495]","[2, 1]",0,0,"[4095, 4095, 4095, 4095]"
1608810901965194567,,102974,,1608810901,924250723,'',59680,0,0,0,62978,23022,26,25,0,0,149,"[1531, 1725, 1507]","[2, 1]",0,0,"[4095, 4095, 4095, 4095]"
1608810902029758230,,102975,,1608810901,944489968,'',59700,0,0,0,63016,23059,25,24,0,0,149,"[1531, 1723, 1507]","[2, 1]",0,0,"[4095, 4095, 4095, 4095]"
1608810902029768120,,102976,,1608810901,964292050,'',59720,0,0,0,63054,23097,24,24,0,0,149,"[1550, 1741, 1489]","[2, 1]",0,0,"[4095, 4095, 4095, 4095]"
1608810902029777824,,102977,,1608810901,985279632,'',59740,0,0,0,63092,23135,25,23,0,0,149,"[1550, 1741, 1489]","[2, 1]",0,0,"[4095, 4095, 4095, 4095]"
1608810902055980457,,102978,,1608810902,4875820,'',59760,0,0,0,63129,23173,25,23,0,0,149,"[1550, 1727, 1517]","[2, 1]",0,0,"[4095, 4095, 4095, 4095]"
1608810902055984387,,102979,,1608810902,24406404,'',59780,0,0,0,63167,23209,25,24,0,0,149,"[1526, 1748, 1517]","[2, 1]",0,0,"[4095, 4095, 4095, 4095]"
1608810902055987870,,102980,,1608810902,44016021,'',59800,0,0,0,63203,23246,26,24,0,0,149,"[1527, 1748, 1517]","[2, 1]",0,0,"[4095, 4095, 4095, 4095]"
1608810902080164844,,102981,,1608810902,62602287,'',59820,0,0,0,63242,23282,25,25,0,0,149,"[1546, 1748, 1490]","[2, 1]",0,0,"[4095, 4095, 4095, 4095]"
1608810902097511510,,102982,,1608810902,82521330,'',59840,0,0,0,63280,23320,25,24,0,0,149,"[1551, 1753, 1487]","[1, 1]",0,0,"[4095, 4095, 4095, 4095]"
1608810902122561738,,102983,,1608810902,103911677,'',59860,0,0,0,63317,23358,25,24,0,0,149,"[1551, 1753, 1487]","[2, 1]",0,0,"[4095, 4095, 4095, 4095]"
1608810902143156429,,102984,,1608810902,123203410,'',59880,0,0,0,63355,23396,25,23,0,0,149,"[1547, 1748, 1486]","[2, 1]",0,0,"[4095, 4095, 4095, 4095]"
1608810902168585500,,102985,,1608810902,144198882,'',59900,0,0,0,63394,23433,25,23,0,0,149,"[1547, 1725, 1485]","[1, 1]",0,0,"[4095, 4095, 4095, 4095]"
1608810902197442908,,102986,,1608810902,163073576,'',59920,0,0,0,63431,23469,25,24,0,0,149,"[1549, 1724, 1492]","[2, 1]",0,0,"[4095, 4095, 4095, 4095]"
1608810902218709919,,102987,,1608810902,182917669,'',59940,0,0,0,63467,23506,26,25,0,0,149,"[1550, 1724, 1492]","[2, 1]",0,0,"[4095, 4095, 4095, 4095]"
1608810902242288267,,102988,,1608810902,203112016,'',59960,0,0,0,63504,23543,27,25,0,0,149,"[1550, 1724, 1492]","[2, 1]",0,0,"[4095, 4095, 4095, 4095]"
1608810902242317611,,102989,,1608810902,224116237,'',59980,0,0,0,63543,23581,26,24,0,0,149,"[1549, 1725, 1498]","[2, 1]",0,0,"[4095, 4095, 4095, 4095]"
1608810902257977132,,102990,,1608810902,244149602,'',60000,0,0,0,63581,23618,25,24,0,0,149,"[1549, 1725, 1498]","[2, 1]",0,0,"[4095, 4095, 4095, 4095]"
1608810902285267276,,102991,,1608810902,265598859,'',60020,0,0,0,63618,23655,25,24,0,0,149,"[1551, 1725, 1487]","[2, 1]",0,0,"[4095, 4095, 4095, 4095]"
1608810902315591859,,102992,,1608810902,284803977,'',60040,0,0,0,63656,23692,26,25,0,0,149,"[1551, 1703, 1490]","[2, 1]",0,0,"[4095, 4095, 4095, 4095]"
1608810902358958639,,102993,,1608810902,304216156,'',60060,0,0,0,63693,23730,26,24,0,0,149,"[1551, 1726, 1490]","[2, 1]",0,0,"[4095, 4095, 4095, 4095]"
1608810902358978226,,102994,,1608810902,324185652,'',60080,0,0,0,63731,23768,26,24,0,0,149,"[1551, 1726, 1490]","[2, 1]",0,0,"[4095, 4095, 4095, 4095]"
1608810902384882957,,102995,,1608810902,345065636,'',60100,0,0,0,63771,23806,25,23,0,0,149,"[1551, 1726, 1494]","[2, 1]",0,0,"[4095, 4095, 4095, 4095]"
1608810902384920697,,102996,,1608810902,366121477,'',60120,0,0,0,63808,23843,25,24,0,0,149,"[1551, 1703, 1494]","[1, 1]",0,0,"[4095, 4095, 4095, 4095]"
1608810902408332445,,102997,,1608810902,384994421,'',60140,0,0,0,63846,23880,25,24,0,0,149,"[1550, 1703, 1491]","[1, 1]",0,0,"[4095, 4095, 4095, 4095]"
1608810902450792074,,102998,,1608810902,404054012,'',60160,0,0,0,63884,23918,26,24,0,0,149,"[1548, 1703, 1486]","[1, 1]",0,0,"[4095, 4095, 4095, 4095]"
1608810902450837217,,102999,,1608810902,424065795,'',60180,0,0,0,63922,23956,25,24,0,0,149,"[1548, 1680, 1486]","[1, 1]",0,0,"[4095, 4095, 4095, 4095]"
1608810902480135550,,103000,,1608810902,443818897,'',60200,0,0,0,63960,23994,26,23,0,0,149,"[1548, 1680, 1494]","[2, 1]",0,0,"[4095, 4095, 4095, 4095]"
1608810902506951556,,103001,,1608810902,465113588,'',60220,0,0,0,63999,24032,25,23,0,0,149,"[1548, 1680, 1494]","[2, 1]",0,0,"[4095, 4095, 4095, 4095]"
1608810902506992071,,103002,,1608810902,484967596,'',60240,0,0,0,64037,24069,25,24,0,0,149,"[1548, 1678, 1494]","[2, 1]",0,0,"[4095, 4095, 4095, 4095]"
1608810902539945081,,103003,,1608810902,504674911,'',60260,0,0,0,64074,24107,26,24,0,0,149,"[1548, 1705, 1485]","[2, 1]",0,0,"[4095, 4095, 4095, 4095]"
1608810902563643108,,103004,,1608810902,522870967,'',60280,0,0,0,64110,24144,27,25,0,0,149,"[1547, 1705, 1485]","[2, 1]",0,0,"[4095, 4095, 4095, 4095]"
1608810902563650474,,103005,,1608810902,542888000,'',60300,0,0,0,64148,24181,27,25,0,0,149,"[1552, 1698, 1485]","[2, 1]",0,0,"[4095, 4095, 4095, 4095]"
1608810902580096696,,103006,,1608810902,562895992,'',60320,0,0,0,64187,24219,26,25,0,0,149,"[1552, 1703, 1495]","[2, 1]",0,0,"[4095, 4095, 4095, 4095]"
1608810902596588104,,103007,,1608810902,583893214,'',60340,0,0,0,64226,24257,25,25,0,0,149,"[1545, 1703, 1495]","[2, 1]",0,0,"[4095, 4095, 4095, 4095]"
1608810902614250595,,103008,,1608810902,603910538,'',60360,0,0,0,64265,24296,24,24,0,0,149,"[1547, 1702, 1523]","[2, 1]",0,0,"[4095, 4095, 4095, 4095]"
1608810902640823751,,103009,,1608810902,622786982,'',60380,0,0,0,64303,24334,25,24,0,0,149,"[1547, 1679, 1523]","[1, 1]",0,0,"[4095, 4095, 4095, 4095]"
1608810902762839494,,103010,,1608810902,642822096,'',60400,0,0,0,64341,24372,26,24,0,0,149,"[1549, 1701, 1523]","[1, 1]",0,0,"[4095, 4095, 4095, 4095]"
1608810902789884579,,103011,,1608810902,662863918,'',60420,0,0,0,64379,24409,26,25,0,0,149,"[1549, 1701, 1469]","[1, 1]",0,0,"[4095, 4095, 4095, 4095]"
1608810902789922910,,103012,,1608810902,684846578,'',60440,0,0,0,64417,24447,26,25,0,0,149,"[1547, 1701, 1462]","[2, 1]",0,0,"[4095, 4095, 4095, 4095]"
1608810902789949539,,103013,,1608810902,707625114,'',60460,0,0,0,64456,24486,26,24,0,0,149,"[1557, 1699, 1461]","[2, 1]",0,0,"[4095, 4095, 4095, 4095]"
1608810902790004435,,103014,,1608810902,727597818,'',60480,0,0,0,64495,24524,25,24,0,0,149,"[1557, 1699, 1464]","[1, 1]",0,0,"[4095, 4095, 4095, 4095]"
1608810902790026920,,103015,,1608810902,747878781,'',60500,0,0,0,64534,24562,25,24,0,0,149,"[1548, 1699, 1474]","[2, 1]",0,0,"[4095, 4095, 4095, 4095]"
1608810902790141764,,103016,,1608810902,766793429,'',60520,0,0,0,64572,24600,25,25,0,0,149,"[1548, 1702, 1474]","[1, 1]",0,0,"[4095, 4095, 4095, 4095]"
1608810902837019205,,103017,,1608810902,786430751,'',60540,0,0,0,64611,24638,25,25,0,0,149,"[1549, 1702, 1466]","[1, 1]",0,0,"[4095, 4095, 4095, 4095]"
1608810902865185825,,103018,,1608810902,804317673,'',60560,0,0,0,64650,24677,26,24,0,0,149,"[1549, 1702, 1471]","[2, 1]",0,0,"[4095, 4095, 4095, 4095]"
1608810902865195131,,103019,,1608810902,824947142,'',60580,0,0,0,64688,24715,26,24,0,0,149,"[1549, 1701, 1471]","[2, 1]",0,0,"[4095, 4095, 4095, 4095]"
1608810902865211934,,103020,,1608810902,845478038,'',60600,0,0,0,64727,24753,26,24,0,0,149,"[1571, 1703, 1464]","[2, 1]",0,0,"[4095, 4095, 4095, 4095]"
1608810902896715082,,103021,,1608810902,864072469,'',60620,0,0,0,64765,24791,26,25,0,0,149,"[1571, 1703, 1484]","[2, 1]",0,0,"[4095, 4095, 4095, 4095]"
1608810902896803816,,103022,,1608810902,884769597,'',60640,0,0,0,64803,24829,26,25,0,0,149,"[1570, 1702, 1484]","[2, 1]",0,0,"[4095, 4095, 4095, 4095]"
1608810902998993696,,103023,,1608810902,904218814,'',60660,0,0,0,64841,24867,27,25,0,0,149,"[1549, 1701, 1484]","[2, 1]",0,0,"[4095, 4095, 4095, 4095]"
1608810903170389914,,103024,,1608810902,923790518,'',60680,0,0,0,64879,24906,27,25,0,0,149,"[1551, 1724, 1494]","[2, 1]",0,0,"[4095, 4095, 4095, 4095]"
1608810903170401645,,103025,,1608810902,945105915,'',60700,0,0,0,64919,24945,26,24,0,0,149,"[1551, 1724, 1494]","[2, 1]",0,0,"[4095, 4095, 4095, 4095]"
1608810903170411524,,103026,,1608810902,963897784,'',60720,0,0,0,64958,24983,25,24,0,0,149,"[1547, 1723, 1469]","[2, 1]",0,0,"[4095, 4095, 4095, 4095]"
1608810903170421244,,103027,,1608810902,983729920,'',60740,0,0,0,64997,25022,25,24,0,0,149,"[1547, 1705, 1474]","[2, 1]",0,0,"[4095, 4095, 4095, 4095]"
1608810903170427261,,103028,,1608810903,3894229,'',60760,0,0,0,65036,25060,26,25,0,0,149,"[1546, 1702, 1474]","[1, 1]",0,0,"[4095, 4095, 4095, 4095]"
1608810903203217016,,103029,,1608810903,24024132,'',60780,0,0,0,65075,25099,26,24,0,0,149,"[1543, 1701, 1464]","[1, 1]",0,0,"[4095, 4095, 4095, 4095]"
1608810903203225868,,103030,,1608810903,43870572,'',60800,0,0,0,65114,25138,26,24,0,0,149,"[1543, 1701, 1468]","[1, 1]",0,0,"[4095, 4095, 4095, 4095]"
1608810903203244691,,103031,,1608810903,64979506,'',60820,0,0,0,65154,25176,25,24,0,0,149,"[1532, 1701, 1468]","[1, 1]",0,0,"[4095, 4095, 4095, 4095]"
1608810903203255672,,103032,,1608810903,83813093,'',60840,0,0,0,65192,25215,26,25,0,0,149,"[1527, 1701, 1475]","[1, 1]",0,0,"[4095, 4095, 4095, 4095]"
1608810903203286966,,103033,,1608810903,104211017,'',60860,0,0,0,65231,25253,26,25,0,0,149,"[1527, 1678, 1475]","[2, 1]",0,0,"[4095, 4095, 4095, 4095]"
1608810903203297913,,103034,,1608810903,124032377,'',60880,0,0,0,65268,25291,27,25,0,0,149,"[1527, 1679, 1463]","[2, 1]",0,0,"[4095, 4095, 4095, 4095]"
1608810903203304714,,103035,,1608810903,143784326,'',60900,0,0,0,65308,25330,26,25,0,0,149,"[1527, 1679, 1464]","[2, 1]",0,0,"[4095, 4095, 4095, 4095]"
1608810903203327538,,103036,,1608810903,163841036,'',60920,0,0,0,65348,25370,26,24,0,0,149,"[1526, 1656, 1464]","[1, 1]",0,0,"[4095, 4095, 4095, 4095]"
1608810903242571649,,103037,,1608810903,185514286,'',60940,0,0,0,65387,25409,25,24,0,0,149,"[1576, 1679, 1515]","[1, 1]",0,0,"[4095, 4095, 4095, 4095]"
1608810903242580763,,103038,,1608810903,203787640,'',60960,0,0,0,65427,25447,25,25,0,0,149,"[1576, 1679, 1515]","[1, 1]",0,0,"[4095, 4095, 4095, 4095]"
1608810903269404199,,103039,,1608810903,223749859,'',60980,0,0,0,65466,25486,25,25,0,0,149,"[1570, 1677, 1465]","[1, 1]",0,0,"[4095, 4095, 4095, 4095]"
1608810903269416127,,103040,,1608810903,243804819,'',61000,0,0,0,65505,25525,25,25,0,0,149,"[1570, 1699, 1488]","[1, 1]",0,0,"[4095, 4095, 4095, 4095]"
1608810903304619051,,103041,,1608810903,263824783,'',61020,0,0,0,7,25563,26,25,0,0,149,"[1570, 1699, 1491]","[2, 1]",0,0,"[4095, 4095, 4095, 4095]"
1608810903331049799,,103042,,1608810903,284574712,'',61040,0,0,0,46,25601,26,26,0,0,149,"[1568, 1698, 1491]","[2, 1]",0,0,"[4095, 4095, 4095, 4095]"
1608810903331499757,,103043,,1608810903,305339515,'',61060,0,0,0,86,25640,26,26,0,0,149,"[1549, 1678, 1506]","[2, 1]",0,0,"[4095, 4095, 4095, 4095]"
1608810903368883431,,103044,,1608810903,324102526,'',61080,0,0,0,125,25679,25,25,0,0,149,"[1548, 1701, 1506]","[2, 1]",0,0,"[4095, 4095, 4095, 4095]"
1608810903387284398,,103045,,1608810903,342793503,'',61100,0,0,0,163,25718,26,25,0,0,149,"[1546, 1701, 1487]","[2, 1]",0,0,"[4095, 4095, 4095, 4095]"
1608810903387332947,,103046,,1608810903,362778761,'',61120,0,0,0,202,25758,26,24,0,0,149,"[1546, 1700, 1487]","[2, 1]",0,0,"[4095, 4095, 4095, 4095]"
1608810903418546309,,103047,,1608810903,382707151,'',61140,0,0,0,242,25796,26,25,0,0,149,"[1555, 1679, 1486]","[2, 1]",0,0,"[4095, 4095, 4095, 4095]"
1608810903454520357,,103048,,1608810903,402497597,'',61160,0,0,0,282,25835,25,25,0,0,149,"[1555, 1679, 1486]","[1, 1]",0,0,"[4095, 4095, 4095, 4095]"
1608810903454697352,,103049,,1608810903,423401510,'',61180,0,0,0,321,25874,26,25,0,0,149,"[1553, 1679, 1486]","[1, 1]",0,0,"[4095, 4095, 4095, 4095]"
1608810903469622510,,103050,,1608810903,442355835,'',61200,0,0,0,360,25913,26,25,0,0,149,"[1548, 1680, 1469]","[2, 1]",0,0,"[4095, 4095, 4095, 4095]"
1608810903497245724,,103051,,1608810903,462409045,'',61220,0,0,0,399,25953,27,25,0,0,149,"[1548, 1680, 1469]","[2, 1]",0,0,"[4095, 4095, 4095, 4095]"
1608810903518973571,,103052,,1608810903,483638425,'',61240,0,0,0,439,25991,26,25,0,0,149,"[1560, 1678, 1471]","[2, 1]",0,0,"[4095, 4095, 4095, 4095]"
1608810903536078527,,103053,,1608810903,503627475,'',61260,0,0,0,476,26029,27,26,0,0,149,"[1560, 1679, 1471]","[2, 1]",0,0,"[4095, 4095, 4095, 4095]"
1608810903563524027,,103054,,1608810903,524354948,'',61280,0,0,0,515,26067,27,27,0,0,149,"[1560, 1679, 1487]","[2, 1]",0,0,"[4095, 4095, 4095, 4095]"
1608810903563615644,,103055,,1608810903,545228532,'',61300,0,0,0,555,26107,27,26,0,0,149,"[1547, 1679, 1487]","[2, 1]",0,0,"[4095, 4095, 4095, 4095]"
1608810903584996785,,103056,,1608810903,563700489,'',61320,0,0,0,595,26147,26,25,0,0,149,"[1549, 1679, 1487]","[2, 1]",0,0,"[4095, 4095, 4095, 4095]"
1608810903623950761,,103057,,1608810903,583659501,'',61340,0,0,0,635,26186,25,24,0,0,149,"[1549, 1678, 1487]","[1, 1]",0,0,"[4095, 4095, 4095, 4095]"
1608810903650177627,,103058,,1608810903,604055675,'',61360,0,0,0,675,26225,25,25,0,0,149,"[1549, 1678, 1487]","[2, 1]",0,0,"[4095, 4095, 4095, 4095]"
1608810903650214653,,103059,,1608810903,623665015,'',61380,0,0,0,715,26264,25,25,0,0,149,"[1549, 1678, 1473]","[2, 1]",0,0,"[4095, 4095, 4095, 4095]"
1608810903688883414,,103060,,1608810903,643655232,'',61400,0,0,0,756,26304,25,25,0,0,149,"[1549, 1660, 1468]","[1, 1]",0,0,"[4095, 4095, 4095, 4095]"
1608810903688891235,,103061,,1608810903,663577205,'',61420,0,0,0,795,26344,25,25,0,0,149,"[1549, 1681, 1521]","[2, 1]",0,0,"[4095, 4095, 4095, 4095]"
1608810903715047595,,103062,,1608810903,684521365,'',61440,0,0,0,835,26384,25,24,0,0,149,"[1551, 1681, 1521]","[1, 1]",0,0,"[4095, 4095, 4095, 4095]"
1608810903730678586,,103063,,1608810903,703590594,'',61460,0,0,0,874,26423,26,25,0,0,149,"[1551, 1656, 1494]","[1, 1]",0,0,"[4095, 4095, 4095, 4095]"
1608810903749848097,,103064,,1608810903,723733919,'',61480,0,0,0,913,26461,26,26,0,0,149,"[1551, 1679, 1494]","[2, 1]",0,0,"[4095, 4095, 4095, 4095]"
1608810903783707301,,103065,,1608810903,743585317,'',61500,0,0,0,952,26500,27,26,0,0,149,"[1527, 1679, 1518]","[2, 1]",0,0,"[4095, 4095, 4095, 4095]"
1608810903783809691,,103066,,1608810903,763564160,'',61520,0,0,0,992,26540,26,26,0,0,149,"[1518, 1679, 1518]","[2, 1]",0,0,"[4095, 4095, 4095, 4095]"
1608810903809773860,,103067,,1608810903,783629036,'',61540,0,0,0,1031,26580,26,25,0,0,149,"[1506, 1679, 1518]","[2, 1]",0,0,"[4095, 4095, 4095, 4095]"
1608810903842492091,,103068,,1608810903,804658644,'',61560,0,0,0,1072,26620,25,24,0,0,149,"[1505, 1679, 1510]","[1, 1]",0,0,"[4095, 4095, 4095, 4095]"
1608810903876031453,,103069,,1608810903,823552600,'',61580,0,0,0,1111,26658,26,25,0,0,149,"[1526, 1678, 1484]","[2, 1]",0,0,"[4095, 4095, 4095, 4095]"
1608810903906438765,,103070,,1608810903,843273345,'',61600,0,0,0,1150,26697,26,26,0,0,149,"[1528, 1660, 1497]","[2, 1]",0,0,"[4095, 4095, 4095, 4095]"
1608810903906462648,,103071,,1608810903,863562780,'',61620,0,0,0,1190,26737,27,26,0,0,149,"[1528, 1660, 1497]","[2, 1]",0,0,"[4095, 4095, 4095, 4095]"
1608810903906473714,,103072,,1608810903,883522375,'',61640,0,0,0,1230,26777,26,25,0,0,149,"[1522, 1658, 1466]","[2, 1]",0,0,"[4095, 4095, 4095, 4095]"
1608810903924785971,,103073,,1608810903,903689907,'',61660,0,0,0,1270,26817,26,25,0,0,149,"[1527, 1656, 1466]","[2, 1]",0,0,"[4095, 4095, 4095, 4095]"
1608810903967428760,,103074,,1608810903,924555908,'',61680,0,0,0,1311,26857,25,25,0,0,149,"[1527, 1655, 1463]","[1, 1]",0,0,"[4095, 4095, 4095, 4095]"
1608810903968148912,,103075,,1608810903,943222678,'',61700,0,0,0,1352,26896,25,25,0,0,149,"[1528, 1678, 1463]","[1, 1]",0,0,"[4095, 4095, 4095, 4095]"
1608810903993861678,,103076,,1608810903,963624102,'',61720,0,0,0,1391,26936,25,25,0,0,149,"[1541, 1678, 1469]","[1, 1]",0,0,"[4095, 4095, 4095, 4095]"
1608810904029460583,,103077,,1608810903,983815256,'',61740,0,0,0,1431,26976,26,25,0,0,149,"[1541, 1659, 1469]","[2, 1]",0,0,"[4095, 4095, 4095, 4095]"
1608810904029592585,,103078,,1608810904,3559624,'',61760,0,0,0,1470,27015,27,25,0,0,149,"[1528, 1686, 1474]","[2, 1]",0,0,"[4095, 4095, 4095, 4095]"
1608810904076153780,,103079,,1608810904,23588635,'',61780,0,0,0,1510,27055,26,25,0,0,149,"[1529, 1686, 1474]","[2, 1]",0,0,"[4095, 4095, 4095, 4095]"
1608810904076222263,,103080,,1608810904,44668129,'',61800,0,0,0,1551,27095,26,25,0,0,149,"[1529, 1677, 1474]","[1, 1]",0,0,"[4095, 4095, 4095, 4095]"
1608810904103158971,,103081,,1608810904,64587493,'',61820,0,0,0,1591,27135,25,25,0,0,149,"[1529, 1677, 1466]","[1, 1]",0,0,"[4095, 4095, 4095, 4095]"
1608810904103258174,,103082,,1608810904,83277316,'',61840,0,0,0,1631,27175,26,25,0,0,149,"[1527, 1677, 1465]","[1, 1]",0,0,"[4095, 4095, 4095, 4095]"
1608810904137874131,,103083,,1608810904,103464110,'',61860,0,0,0,1670,27215,27,25,0,0,149,"[1527, 1677, 1463]","[2, 1]",0,0,"[4095, 4095, 4095, 4095]"
1608810904177142411,,103084,,1608810904,123291608,'',61880,0,0,0,1711,27255,26,25,0,0,149,"[1527, 1679, 1477]","[2, 1]",0,0,"[4095, 4095, 4095, 4095]"
1608810904177159594,,103085,,1608810904,143105691,'',61900,0,0,0,1751,27294,26,26,0,0,149,"[1527, 1679, 1477]","[1, 1]",0,0,"[4095, 4095, 4095, 4095]"
1608810904215548443,,103086,,1608810904,165226619,'',61920,0,0,0,1793,27334,25,26,0,0,149,"[1527, 1679, 1479]","[1, 1]",0,0,"[4095, 4095, 4095, 4095]"
1608810904215552194,,103087,,1608810904,183124066,'',61940,0,0,0,1833,27374,25,26,0,0,149,"[1527, 1658, 1491]","[1, 1]",0,0,"[4095, 4095, 4095, 4095]"
1608810904247582431,,103088,,1608810904,204481781,'',61960,0,0,0,1873,27415,25,25,0,0,149,"[1526, 1680, 1517]","[1, 1]",0,0,"[4095, 4095, 4095, 4095]"
1608810904299801846,,103089,,1608810904,224036307,'',61980,0,0,0,1912,27454,26,26,0,0,149,"[1525, 1680, 1526]","[1, 1]",0,0,"[4095, 4095, 4095, 4095]"
1608810904299899896,,103090,,1608810904,243811019,'',62000,0,0,0,1952,27495,26,25,0,0,149,"[1503, 1677, 1526]","[2, 1]",0,0,"[4095, 4095, 4095, 4095]"
1608810904300040774,,103091,,1608810904,263202228,'',62020,0,0,0,1992,27536,26,25,0,0,149,"[1549, 1679, 1526]","[2, 1]",0,0,"[4095, 4095, 4095, 4095]"
1608810904316058605,,103092,,1608810904,284350257,'',62040,0,0,0,2032,27577,26,24,0,0,149,"[1549, 1679, 1489]","[2, 1]",0,0,"[4095, 4095, 4095, 4095]"
1608810904339772086,,103093,,1608810904,303156152,'',62060,0,0,0,2072,27617,26,25,0,0,149,"[1570, 1677, 1486]","[1, 1]",0,0,"[4095, 4095, 4095, 4095]"
1608810904339846921,,103094,,1608810904,323165339,'',62080,0,0,0,2113,27657,25,26,0,0,149,"[1570, 1681, 1463]","[1, 1]",0,0,"[4095, 4095, 4095, 4095]"
1608810904367695601,,103095,,1608810904,342913804,'',62100,0,0,0,2153,27697,25,26,0,0,149,"[1570, 1681, 1464]","[1, 1]",0,0,"[4095, 4095, 4095, 4095]"
1608810904404078789,,103096,,1608810904,362682391,'',62120,0,0,0,2193,27737,25,26,0,0,149,"[1546, 1681, 1473]","[1, 1]",0,0,"[4095, 4095, 4095, 4095]"
1608810904430467366,,103097,,1608810904,383800381,'',62140,0,0,0,2234,27778,25,26,0,0,149,"[1546, 1656, 1473]","[1, 1]",0,0,"[4095, 4095, 4095, 4095]"
1608810904430575724,,103098,,1608810904,404553533,'',62160,0,0,0,2274,27819,25,25,0,0,149,"[1544, 1700, 1467]","[1, 1]",0,0,"[4095, 4095, 4095, 4095]"
1608810904458340187,,103099,,1608810904,424197884,'',62180,0,0,0,2314,27859,25,25,0,0,149,"[1548, 1701, 1467]","[1, 1]",0,0,"[4095, 4095, 4095, 4095]"
1608810904483547513,,103100,,1608810904,444364263,'',62200,0,0,0,2355,27899,25,26,0,0,149,"[1548, 1701, 1464]","[1, 1]",0,0,"[4095, 4095, 4095, 4095]"
1608810904483571130,,103101,,1608810904,463206029,'',62220,0,0,0,2395,27940,27,24,0,0,149,"[1548, 1679, 1523]","[1, 1]",0,0,"[4095, 4095, 4095, 4095]"
1608810904504816743,,103102,,1608810904,482988907,'',62240,0,0,0,2436,27980,27,24,0,0,149,"[1546, 1701, 1523]","[1, 1]",0,0,"[4095, 4095, 4095, 4095]"
1608810904549610769,,103103,,1608810904,503020259,'',62260,0,0,0,2478,28019,26,25,0,0,149,"[1553, 1701, 1523]","[1, 1]",0,0,"[4095, 4095, 4095, 4095]"
1608810904579468526,,103104,,1608810904,524046966,'',62280,0,0,0,2520,28059,25,25,0,0,149,"[1553, 1701, 1488]","[1, 1]",0,0,"[4095, 4095, 4095, 4095]"
1608810904579533198,,103105,,1608810904,545189454,'',62300,0,0,0,2561,28099,25,25,0,0,149,"[1562, 1693, 1488]","[1, 1]",0,0,"[4095, 4095, 4095, 4095]"
1608810904593554246,,103106,,1608810904,566126046,'',62320,0,0,0,2602,28140,26,24,0,0,149,"[1562, 1693, 1465]","[1, 1]",0,0,"[4095, 4095, 4095, 4095]"
1608810904619478514,,103107,,1608810904,586626641,'',62340,0,0,0,2643,28180,26,24,0,0,149,"[1549, 1678, 1475]","[1, 1]",0,0,"[4095, 4095, 4095, 4095]"
1608810904641118871,,103108,,1608810904,604780728,'',62360,0,0,0,2684,28219,26,25,0,0,149,"[1549, 1679, 1484]","[1, 1]",0,0,"[4095, 4095, 4095, 4095]"
1608810904661762394,,103109,,1608810904,624413704,'',62380,0,0,0,2725,28259,26,25,0,0,149,"[1548, 1679, 1485]","[1, 1]",0,0,"[4095, 4095, 4095, 4095]"
1608810904661831794,,103110,,1608810904,644665533,'',62400,0,0,0,2765,28299,27,25,0,0,149,"[1549, 1679, 1485]","[2, 1]",0,0,"[4095, 4095, 4095, 4095]"
1608810904697556026,,103111,,1608810904,664018539,'',62420,0,0,0,2806,28339,27,25,0,0,149,"[1549, 1656, 1476]","[2, 1]",0,0,"[4095, 4095, 4095, 4095]"
1608810904730418701,,103112,,1608810904,684089261,'',62440,0,0,0,2848,28380,26,24,0,0,149,"[1548, 1709, 1464]","[2, 1]",0,0,"[4095, 4095, 4095, 4095]"
1608810904730478637,,103113,,1608810904,702995479,'',62460,0,0,0,2888,28420,26,24,0,0,149,"[1548, 1709, 1469]","[2, 1]",0,0,"[4095, 4095, 4095, 4095]"
1608810904759768166,,103114,,1608810904,722843683,'',62480,0,0,0,2929,28460,26,26,0,0,149,"[1548, 1659, 1469]","[2, 1]",0,0,"[4095, 4095, 4095, 4095]"
1608810904780681541,,103115,,1608810904,744074537,'',62500,0,0,0,2969,28500,27,26,0,0,149,"[1549, 1680, 1465]","[2, 1]",0,0,"[4095, 4095, 4095, 4095]"
1608810904780752778,,103116,,1608810904,764232459,'',62520,0,0,0,3010,28542,26,25,0,0,149,"[1549, 1680, 1465]","[2, 1]",0,0,"[4095, 4095, 4095, 4095]"
1608810904806094242,,103117,,1608810904,782859872,'',62540,0,0,0,3051,28583,26,25,0,0,149,"[1549, 1678, 1465]","[1, 1]",0,0,"[4095, 4095, 4095, 4095]"
1608810904821843748,,103118,,1608810904,802862060,'',62560,0,0,0,3091,28623,26,25,0,0,149,"[1549, 1678, 1477]","[2, 1]",0,0,"[4095, 4095, 4095, 4095]"
1608810904842922472,,103119,,1608810904,822961363,'',62580,0,0,0,3131,28663,27,26,0,0,149,"[1549, 1678, 1477]","[1, 1]",0,0,"[4095, 4095, 4095, 4095]"
1608810904857958629,,103120,,1608810904,842971718,'',62600,0,0,0,3172,28704,27,26,0,0,149,"[1546, 1674, 1464]","[1, 1]",0,0,"[4095, 4095, 4095, 4095]"
1608810904893846034,,103121,,1608810904,863021443,'',62620,0,0,0,3213,28745,27,25,0,0,149,"[1526, 1678, 1463]","[1, 1]",0,0,"[4095, 4095, 4095, 4095]"
1608810904915301216,,103122,,1608810904,884031235,'',62640,0,0,0,3255,28786,26,25,0,0,149,"[1526, 1678, 1475]","[1, 1]",0,0,"[4095, 4095, 4095, 4095]"
1608810904954024072,,103123,,1608810904,903162597,'',62660,0,0,0,3296,28827,26,25,0,0,149,"[1526, 1678, 1475]","[1, 1]",0,0,"[4095, 4095, 4095, 4095]"
1608810904996543876,,103124,,1608810904,922627590,'',62680,0,0,0,3338,28868,25,25,0,0,149,"[1542, 1655, 1469]","[2, 1]",0,0,"[4095, 4095, 4095, 4095]"
1608810904996576864,,103125,,1608810904,943952934,'',62700,0,0,0,3378,28909,26,25,0,0,149,"[1548, 1699, 1469]","[1, 1]",0,0,"[4095, 4095, 4095, 4095]"
1608810905025321201,,103126,,1608810904,963028301,'',62720,0,0,0,3419,28949,26,26,0,0,149,"[1548, 1702, 1462]","[1, 1]",0,0,"[4095, 4095, 4095, 4095]"
1608810905025529968,,103127,,1608810904,982683441,'',62740,0,0,0,3460,28990,27,25,0,0,149,"[1547, 1702, 1462]","[2, 1]",0,0,"[4095, 4095, 4095, 4095]"
1608810905042804984,,103128,,1608810905,3670778,'',62760,0,0,0,3502,29031,26,26,0,0,149,"[1547, 1678, 1463]","[2, 1]",0,0,"[4095, 4095, 4095, 4095]"
1608810905042847990,,103129,,1608810905,23616396,'',62780,0,0,0,3543,29072,26,25,0,0,149,"[1548, 1679, 1463]","[2, 1]",0,0,"[4095, 4095, 4095, 4095]"
1608810905065215665,,103130,,1608810905,43606642,'',62800,0,0,0,3584,29113,26,25,0,0,149,"[1549, 1679, 1463]","[2, 1]",0,0,"[4095, 4095, 4095, 4095]"
1608810905085976029,,103131,,1608810905,63279295,'',62820,0,0,0,3624,29153,27,26,0,0,149,"[1549, 1676, 1463]","[2, 1]",0,0,"[4095, 4095, 4095, 4095]"
1608810905112939036,,103132,,1608810905,82743136,'',62840,0,0,0,3666,29194,26,26,0,0,149,"[1572, 1677, 1463]","[2, 1]",0,0,"[4095, 4095, 4095, 4095]"
1608810905155679134,,103133,,1608810905,102686719,'',62860,0,0,0,3706,29235,27,26,0,0,149,"[1572, 1677, 1463]","[1, 1]",0,0,"[4095, 4095, 4095, 4095]"
1608810905155800453,,103134,,1608810905,123774686,'',62880,0,0,0,3746,29277,27,25,0,0,149,"[1571, 1675, 1462]","[2, 1]",0,0,"[4095, 4095, 4095, 4095]"
1608810905181237664,,103135,,1608810905,143781846,'',62900,0,0,0,3787,29317,28,25,0,0,149,"[1573, 1681, 1435]","[2, 1]",0,0,"[4095, 4095, 4095, 4095]"
1608810905209319803,,103136,,1608810905,163663311,'',62920,0,0,0,3828,29358,27,25,0,0,149,"[1573, 1681, 1442]","[2, 1]",0,0,"[4095, 4095, 4095, 4095]"
1608810905209334259,,103137,,1608810905,183743672,'',62940,0,0,0,3869,29399,27,26,0,0,149,"[1573, 1681, 1442]","[2, 1]",0,0,"[4095, 4095, 4095, 4095]"
1608810905237055486,,103138,,1608810905,202500002,'',62960,0,0,0,3911,29440,26,25,0,0,149,"[1574, 1655, 1437]","[1, 1]",0,0,"[4095, 4095, 4095, 4095]"
1608810905255648741,,103139,,1608810905,223054274,'',62980,0,0,0,3951,29481,27,25,0,0,149,"[1574, 1678, 1493]","[1, 1]",0,0,"[4095, 4095, 4095, 4095]"
1608810905266647636,,103140,,1608810905,250409807,'',63000,0,0,0,3992,29521,22,12,0,0,149,"[1577, 1678, 1493]","[1, 1]",0,0,"[4095, 4095, 4095, 4095]"
1608810905283815326,,103141,,1608810905,264825998,'',63020,0,0,0,4031,29557,23,15,0,0,149,"[1577, 1656, 1442]","[1, 0]",0,0,"[4095, 4095, 4095, 4095]"
