rosbagTimestamp,header,seq,stamp,secs,nsecs,frame_id,time_stamp,bumper,wheel_drop,cliff,left_encoder,right_encoder,left_pwm,right_pwm,buttons,charger,battery,bottom,current,over_current,digital_input,analog_input
1608810897552995160,,81008,,1608810897,548962856,'',28772,0,0,0,25280,36903,0,0,0,0,159,"[1524, 1826, 1578]","[0, 0]",0,0,"[4095, 4095, 4095, 4095]"
1608810897574432233,,81009,,1608810897,568907567,'',28792,0,0,0,25280,36903,0,0,0,0,159,"[1524, 1826, 1559]","[0, 0]",0,0,"[4095, 4095, 4095, 4095]"
1608810897609102424,,81010,,1608810897,589990959,'',28812,0,0,0,25280,36903,0,0,0,0,159,"[1514, 1826, 1590]","[0, 0]",0,0,"[4095, 4095, 4095, 4095]"
1608810897609245773,,81011,,1608810897,609445663,'',28832,0,0,0,25280,36903,0,0,0,0,159,"[1499, 1826, 1590]","[0, 0]",0,0,"[4095, 4095, 4095, 4095]"
1608810897654973953,,81012,,1608810897,629270498,'',28852,0,0,0,25280,36903,0,0,0,0,159,"[1498, 1823, 1584]","[0, 0]",0,0,"[4095, 4095, 4095, 4095]"
1608810897654989631,,81013,,1608810897,649225125,'',28872,0,0,0,25280,36903,0,0,0,0,159,"[1474, 1823, 1586]","[0, 0]",0,0,"[4095, 4095, 4095, 4095]"
1608810897669200710,,81014,,1608810897,670571312,'',28892,0,0,0,25280,36903,0,0,0,0,159,"[1496, 1819, 1586]","[0, 0]",0,0,"[4095, 4095, 4095, 4095]"
1608810897696067135,,81015,,1608810897,689249298,'',28912,0,0,0,25280,36903,0,0,0,0,159,"[1496, 1803, 1586]","[0, 0]",0,0,"[4095, 4095, 4095, 4095]"
1608810897696087953,,81016,,1608810897,709236301,'',28932,0,0,0,25280,36903,0,0,0,0,159,"[1496, 1829, 1582]","[0, 0]",0,0,"[4095, 4095, 4095, 4095]"
1608810897720036907,,81017,,1608810897,729175762,'',28952,0,0,0,25280,36903,0,0,0,0,159,"[1497, 1829, 1582]","[0, 0]",0,0,"[4095, 4095, 4095, 4095]"
1608810897749789715,,81018,,1608810897,750139277,'',28972,0,0,0,25280,36903,0,0,0,0,159,"[1497, 1829, 1582]","[0, 0]",0,0,"[4095, 4095, 4095, 4095]"
1608810897787456770,,81019,,1608810897,770506035,'',28992,0,0,0,25280,36903,0,0,0,0,159,"[1497, 1833, 1581]","[0, 0]",0,0,"[4095, 4095, 4095, 4095]"
1608810897787500019,,81020,,1608810897,791066754,'',29012,0,0,0,25280,36903,0,0,0,0,159,"[1498, 1833, 1579]","[0, 0]",0,0,"[4095, 4095, 4095, 4095]"
1608810897816351328,,81021,,1608810897,809979243,'',29032,0,0,0,25280,36903,0,0,0,0,159,"[1498, 1833, 1560]","[0, 0]",0,0,"[4095, 4095, 4095, 4095]"
1608810897840327210,,81022,,1608810897,831435389,'',29052,0,0,0,25280,36903,0,0,0,0,159,"[1518, 1827, 1581]","[0, 0]",0,0,"[4095, 4095, 4095, 4095]"
1608810897840334839,,81023,,1608810897,852417863,'',29072,0,0,0,25280,36903,0,0,0,0,159,"[1519, 1827, 1581]","[0, 0]",0,0,"[4095, 4095, 4095, 4095]"
1608810897861685574,,81024,,1608810897,869392787,'',29092,0,0,0,25280,36903,0,0,0,0,158,"[1519, 1826, 1581]","[0, 0]",0,0,"[4095, 4095, 4095, 4095]"
1608810897883132211,,81025,,1608810897,889077327,'',29112,0,0,0,25280,36903,0,0,0,0,158,"[1499, 1823, 1581]","[0, 0]",0,0,"[4095, 4095, 4095, 4095]"
1608810897903549869,,81026,,1608810897,909042163,'',29132,0,0,0,25280,36903,0,0,0,0,158,"[1498, 1827, 1581]","[0, 0]",0,0,"[4095, 4095, 4095, 4095]"
1608810897922188669,,81027,,1608810897,929078750,'',29152,0,0,0,25280,36903,0,0,0,0,159,"[1477, 1827, 1582]","[0, 0]",0,0,"[4095, 4095, 4095, 4095]"
1608810897945899434,,81028,,1608810897,949058461,'',29172,0,0,0,25280,36903,0,0,0,0,159,"[1477, 1822, 1582]","[0, 0]",0,0,"[4095, 4095, 4095, 4095]"
1608810897963934381,,81029,,1608810897,969073465,'',29192,0,0,0,25280,36903,0,0,0,0,159,"[1499, 1805, 1580]","[0, 0]",0,0,"[4095, 4095, 4095, 4095]"
1608810897997471703,,81030,,1608810897,990058564,'',29212,0,0,0,25280,36903,0,0,0,0,159,"[1499, 1806, 1581]","[0, 0]",0,0,"[4095, 4095, 4095, 4095]"
1608810898034939008,,81031,,1608810898,9218973,'',29232,0,0,0,25280,36903,0,0,0,0,159,"[1495, 1806, 1581]","[0, 0]",0,0,"[4095, 4095, 4095, 4095]"
1608810898034983634,,81032,,1608810898,29051974,'',29252,0,0,0,25280,36903,0,0,0,0,158,"[1477, 1830, 1579]","[0, 0]",0,0,"[4095, 4095, 4095, 4095]"
1608810898060119325,,81033,,1608810898,50742625,'',29272,0,0,0,25280,36903,0,0,0,0,158,"[1496, 1830, 1560]","[0, 0]",0,0,"[4095, 4095, 4095, 4095]"
1608810898060134231,,81034,,1608810898,69995494,'',29292,0,0,0,25280,36903,0,0,0,0,158,"[1523, 1824, 1559]","[0, 0]",0,0,"[4095, 4095, 4095, 4095]"
1608810898076355797,,81035,,1608810898,89842204,'',29312,0,0,0,25280,36903,0,0,0,0,158,"[1539, 1805, 1558]","[0, 0]",0,0,"[4095, 4095, 4095, 4095]"
1608810898108686434,,81036,,1608810898,109839708,'',29332,0,0,0,25280,36903,0,0,0,0,158,"[1539, 1827, 1584]","[0, 0]",0,0,"[4095, 4095, 4095, 4095]"
1608810898129580693,,81037,,1608810898,129847712,'',29352,0,0,0,25280,36903,0,0,0,0,158,"[1516, 1827, 1584]","[0, 0]",0,0,"[4095, 4095, 4095, 4095]"
1608810898151977171,,81038,,1608810898,150987105,'',29372,0,0,0,25280,36903,0,0,0,0,158,"[1523, 1827, 1583]","[0, 0]",0,0,"[4095, 4095, 4095, 4095]"
1608810898168824389,,81039,,1608810898,169899012,'',29392,0,0,0,25280,36903,0,0,0,0,158,"[1523, 1826, 1583]","[0, 0]",0,0,"[4095, 4095, 4095, 4095]"
1608810898189882315,,81040,,1608810898,190930779,'',29412,0,0,0,25280,36903,0,0,0,0,158,"[1523, 1824, 1581]","[0, 0]",0,0,"[4095, 4095, 4095, 4095]"
1608810898212509540,,81041,,1608810898,209752560,'',29432,0,0,0,25280,36903,0,0,0,0,158,"[1504, 1822, 1583]","[0, 0]",0,0,"[4095, 4095, 4095, 4095]"
1608810898237078213,,81042,,1608810898,231580295,'',29452,0,0,0,25280,36903,0,0,0,0,158,"[1479, 1826, 1583]","[0, 0]",0,0,"[4095, 4095, 4095, 4095]"
1608810898237120346,,81043,,1608810898,249713733,'',29472,0,0,0,25280,36903,0,0,0,0,158,"[1483, 1826, 1582]","[0, 0]",0,0,"[4095, 4095, 4095, 4095]"
1608810898281809527,,81044,,1608810898,269745654,'',29492,0,0,0,25280,36903,0,0,0,0,158,"[1495, 1822, 1582]","[0, 0]",0,0,"[4095, 4095, 4095, 4095]"
1608810898306589446,,81045,,1608810898,289755700,'',29512,0,0,0,25280,36903,0,0,0,0,158,"[1495, 1823, 1581]","[0, 0]",0,0,"[4095, 4095, 4095, 4095]"
1608810898306623331,,81046,,1608810898,309718495,'',29532,0,0,0,25280,36903,0,0,0,0,158,"[1495, 1825, 1576]","[0, 0]",0,0,"[4095, 4095, 4095, 4095]"
1608810898331787253,,81047,,1608810898,329744291,'',29552,0,0,0,25280,36903,0,0,0,0,158,"[1502, 1825, 1560]","[0, 0]",0,0,"[4095, 4095, 4095, 4095]"
1608810898331917802,,81048,,1608810898,349889380,'',29572,0,0,0,25280,36903,0,0,0,0,158,"[1502, 1827, 1582]","[0, 0]",0,0,"[4095, 4095, 4095, 4095]"
1608810898356203127,,81049,,1608810898,369845175,'',29592,0,0,0,25280,36903,0,0,0,0,158,"[1521, 1827, 1583]","[0, 0]",0,0,"[4095, 4095, 4095, 4095]"
1608810898388245816,,81050,,1608810898,390625814,'',29612,0,0,0,25280,36903,0,0,0,0,158,"[1521, 1804, 1587]","[0, 0]",0,0,"[4095, 4095, 4095, 4095]"
1608810898422188107,,81051,,1608810898,409841057,'',29632,0,0,0,25280,36903,0,0,0,0,158,"[1521, 1804, 1587]","[0, 0]",0,0,"[4095, 4095, 4095, 4095]"
1608810898459868341,,81052,,1608810898,430144232,'',29652,0,0,0,25280,36903,0,0,0,0,158,"[1495, 1824, 1557]","[0, 0]",0,0,"[4095, 4095, 4095, 4095]"
1608810898459917966,,81053,,1608810898,450054234,'',29672,0,0,0,25280,36903,0,0,0,0,158,"[1522, 1824, 1582]","[0, 0]",0,0,"[4095, 4095, 4095, 4095]"
1608810898482961637,,81054,,1608810898,469710776,'',29692,0,0,0,25280,36903,0,0,0,0,158,"[1522, 1827, 1582]","[0, 0]",0,0,"[4095, 4095, 4095, 4095]"
1608810898482987226,,81055,,1608810898,489748822,'',29712,0,0,0,25280,36903,0,0,0,0,158,"[1524, 1827, 1581]","[0, 0]",0,0,"[4095, 4095, 4095, 4095]"
1608810898504328248,,81056,,1608810898,509600782,'',29732,0,0,0,25280,36903,0,0,0,0,158,"[1524, 1827, 1584]","[0, 0]",0,0,"[4095, 4095, 4095, 4095]"
1608810898527049081,,81057,,1608810898,529544910,'',29752,0,0,0,25280,36903,0,0,0,0,158,"[1499, 1826, 1584]","[0, 0]",0,0,"[4095, 4095, 4095, 4095]"
1608810898544972097,,81058,,1608810898,549496038,'',29772,0,0,0,25280,36903,0,0,0,0,158,"[1493, 1826, 1581]","[0, 0]",0,0,"[4095, 4095, 4095, 4095]"
1608810898581050035,,81059,,1608810898,570528097,'',29792,0,0,0,25280,36903,0,0,0,0,158,"[1517, 1826, 1557]","[0, 0]",0,0,"[4095, 4095, 4095, 4095]"
1608810898581169085,,81060,,1608810898,590486225,'',29812,0,0,0,25280,36903,0,0,0,0,158,"[1519, 1825, 1579]","[0, 0]",0,0,"[4095, 4095, 4095, 4095]"
1608810898605578693,,81061,,1608810898,609570801,'',29832,0,0,0,25280,36903,0,0,0,0,158,"[1519, 1803, 1580]","[0, 0]",0,0,"[4095, 4095, 4095, 4095]"
1608810898631276392,,81062,,1608810898,628038493,'',29852,0,0,0,25280,36903,0,0,0,0,158,"[1498, 1826, 1584]","[0, 0]",0,0,"[4095, 4095, 4095, 4095]"
1608810898656061150,,81063,,1608810898,648017622,'',29872,0,0,0,25280,36903,0,0,0,0,158,"[1498, 1826, 1584]","[0, 0]",0,0,"[4095, 4095, 4095, 4095]"
1608810898656168931,,81064,,1608810898,668012501,'',29892,0,0,0,25280,36903,0,0,0,0,158,"[1526, 1839, 1582]","[0, 0]",0,0,"[4095, 4095, 4095, 4095]"
1608810898666396237,,81065,,1608810898,688566803,'',29912,0,0,0,25280,36903,0,0,0,0,158,"[1528, 1839, 1584]","[0, 0]",0,0,"[4095, 4095, 4095, 4095]"
1608810898691578045,,81066,,1608810898,708307345,'',29932,0,0,0,25280,36903,0,0,0,0,158,"[1528, 1826, 1584]","[0, 0]",0,0,"[4095, 4095, 4095, 4095]"
1608810898744074902,,81067,,1608810898,728381850,'',29952,0,0,0,25280,36903,0,0,0,0,158,"[1497, 1806, 1580]","[0, 0]",0,0,"[4095, 4095, 4095, 4095]"
1608810898744110876,,81068,,1608810898,748374396,'',29972,0,0,0,25280,36903,0,0,0,0,158,"[1522, 1826, 1584]","[0, 0]",0,0,"[4095, 4095, 4095, 4095]"
1608810898761795340,,81069,,1608810898,768370441,'',29992,0,0,0,25280,36903,0,0,0,0,158,"[1524, 1826, 1584]","[0, 0]",0,0,"[4095, 4095, 4095, 4095]"
1608810898776543411,,81070,,1608810898,788590489,'',30012,0,0,0,25280,36903,0,0,0,0,158,"[1524, 1822, 1580]","[0, 0]",0,0,"[4095, 4095, 4095, 4095]"
1608810898793904402,,81071,,1608810898,808423199,'',30032,0,0,0,25280,36903,0,0,0,0,158,"[1522, 1830, 1560]","[0, 0]",0,0,"[4095, 4095, 4095, 4095]"
1608810898809669246,,81072,,1608810898,828406995,'',30052,0,0,0,25280,36903,0,0,0,0,158,"[1517, 1830, 1581]","[0, 0]",0,0,"[4095, 4095, 4095, 4095]"
1608810898823376450,,81073,,1608810898,848350540,'',30072,0,0,0,25280,36903,0,0,0,0,158,"[1477, 1819, 1581]","[0, 0]",0,0,"[4095, 4095, 4095, 4095]"
1608810898846511472,,81074,,1608810898,868319751,'',30092,0,0,0,25280,36903,0,0,0,0,158,"[1493, 1824, 1582]","[0, 0]",0,0,"[4095, 4095, 4095, 4095]"
1608810898868333774,,81075,,1608810898,888473007,'',30112,0,0,0,25280,36903,0,0,0,0,158,"[1500, 1827, 1582]","[0, 0]",0,0,"[4095, 4095, 4095, 4095]"
1608810898889125566,,81076,,1608810898,907278162,'',30132,0,0,0,25280,36903,0,0,0,0,158,"[1504, 1827, 1581]","[0, 0]",0,0,"[4095, 4095, 4095, 4095]"
1608810898918886005,,81077,,1608810898,927393793,'',30152,0,0,0,25280,36903,0,0,0,0,158,"[1504, 1805, 1581]","[0, 0]",0,0,"[4095, 4095, 4095, 4095]"
1608810898940255703,,81078,,1608810898,947438547,'',30172,0,0,0,25280,36903,0,0,0,0,158,"[1498, 1825, 1581]","[0, 0]",0,0,"[4095, 4095, 4095, 4095]"
1608810898971756532,,81079,,1608810898,967337175,'',30192,0,0,0,25280,36903,0,0,0,0,158,"[1501, 1830, 1580]","[0, 0]",0,0,"[4095, 4095, 4095, 4095]"
1608810898992208802,,81080,,1608810898,988482693,'',30212,0,0,0,25280,36903,0,0,0,0,158,"[1516, 1830, 1585]","[0, 0]",0,0,"[4095, 4095, 4095, 4095]"
1608810899016344282,,81081,,1608810899,8329695,'',30232,0,0,0,25280,36903,0,0,0,0,158,"[1518, 1828, 1585]","[0, 0]",0,0,"[4095, 4095, 4095, 4095]"
1608810899047364764,,81082,,1608810899,29805093,'',30252,0,0,0,25280,36903,0,0,0,0,158,"[1518, 1828, 1585]","[0, 0]",0,0,"[4095, 4095, 4095, 4095]"
1608810899047400703,,81083,,1608810899,49103172,'',30272,0,0,0,25280,36903,0,0,0,0,158,"[1522, 1825, 1562]","[0, 0]",0,0,"[4095, 4095, 4095, 4095]"
1608810899070825026,,81084,,1608810899,69218220,'',30292,0,0,0,25280,36903,0,0,0,0,158,"[1525, 1826, 1582]","[0, 0]",0,0,"[4095, 4095, 4095, 4095]"
1608810899098538880,,81085,,1608810899,90885537,'',30312,0,0,0,25280,36903,0,0,0,0,158,"[1525, 1826, 1582]","[0, 0]",0,0,"[4095, 4095, 4095, 4095]"
1608810899098587715,,81086,,1608810899,108071339,'',30332,0,0,0,25280,36903,0,0,0,0,158,"[1514, 1826, 1581]","[0, 0]",0,0,"[4095, 4095, 4095, 4095]"
1608810899128602423,,81087,,1608810899,128296930,'',30352,0,0,0,25280,36903,0,0,0,0,158,"[1497, 1827, 1583]","[0, 0]",0,0,"[4095, 4095, 4095, 4095]"
1608810899153896900,,81088,,1608810899,148151516,'',30372,0,0,0,25280,36903,0,0,0,0,158,"[1477, 1827, 1583]","[0, 0]",0,0,"[4095, 4095, 4095, 4095]"
1608810899154014386,,81089,,1608810899,168188980,'',30392,0,0,0,25280,36903,0,0,0,0,158,"[1498, 1827, 1583]","[0, 0]",0,0,"[4095, 4095, 4095, 4095]"
1608810899174633907,,81090,,1608810899,188024607,'',30412,0,0,0,25280,36903,0,0,0,0,158,"[1504, 1828, 1582]","[0, 0]",0,0,"[4095, 4095, 4095, 4095]"
1608810899192944044,,81091,,1608810899,209017583,'',30432,0,0,0,25280,36903,0,0,0,0,158,"[1504, 1829, 1582]","[0, 0]",0,0,"[4095, 4095, 4095, 4095]"
1608810899212843267,,81092,,1608810899,229911974,'',30452,0,0,0,25280,36903,0,0,0,0,158,"[1478, 1829, 1582]","[0, 0]",0,0,"[4095, 4095, 4095, 4095]"
1608810899248911198,,81093,,1608810899,248974966,'',30472,0,0,0,25280,36903,0,0,0,0,158,"[1478, 1805, 1582]","[0, 0]",0,0,"[4095, 4095, 4095, 4095]"
1608810899268968709,,81094,,1608810899,268982971,'',30492,0,0,0,25280,36903,0,0,0,0,158,"[1520, 1828, 1586]","[0, 0]",0,0,"[4095, 4095, 4095, 4095]"
1608810899287495639,,81095,,1608810899,289746985,'',30512,0,0,0,25280,36903,0,0,0,0,158,"[1520, 1828, 1586]","[0, 0]",0,0,"[4095, 4095, 4095, 4095]"
1608810899305422253,,81096,,1608810899,308259013,'',30532,0,0,0,25280,36903,0,0,0,0,158,"[1520, 1828, 1582]","[0, 0]",0,0,"[4095, 4095, 4095, 4095]"
1608810899332530942,,81097,,1608810899,328254767,'',30552,0,0,0,25280,36903,0,0,0,0,158,"[1499, 1826, 1559]","[0, 0]",0,0,"[4095, 4095, 4095, 4095]"
1608810899332558520,,81098,,1608810899,347862892,'',30572,0,0,0,25280,36903,0,0,0,0,158,"[1520, 1823, 1582]","[0, 0]",0,0,"[4095, 4095, 4095, 4095]"
1608810899352692537,,81099,,1608810899,368024023,'',30592,0,0,0,25280,36903,0,0,0,0,158,"[1520, 1822, 1583]","[0, 0]",0,0,"[4095, 4095, 4095, 4095]"
1608810899380637800,,81100,,1608810899,387194642,'',30612,0,0,0,25280,36903,0,0,0,0,158,"[1518, 1827, 1583]","[0, 0]",0,0,"[4095, 4095, 4095, 4095]"
1608810899398841291,,81101,,1608810899,408084075,'',30632,0,0,0,25280,36903,0,0,0,0,158,"[1518, 1828, 1583]","[0, 0]",0,0,"[4095, 4095, 4095, 4095]"
1608810899416516758,,81102,,1608810899,428065538,'',30652,0,0,0,25280,36903,0,0,0,0,158,"[1516, 1828, 1579]","[0, 0]",0,0,"[4095, 4095, 4095, 4095]"
1608810899436660734,,81103,,1608810899,448679050,'',30672,0,0,0,25280,36903,0,0,0,0,158,"[1476, 1828, 1582]","[0, 0]",0,0,"[4095, 4095, 4095, 4095]"
1608810899467977832,,81104,,1608810899,468625512,'',30692,0,0,0,25280,36903,0,0,0,0,158,"[1520, 1825, 1586]","[0, 0]",0,0,"[4095, 4095, 4095, 4095]"
1608810899490015888,,81105,,1608810899,488814061,'',30712,0,0,0,25280,36903,0,0,0,0,158,"[1520, 1825, 1586]","[0, 0]",0,0,"[4095, 4095, 4095, 4095]"
1608810899511993998,,81106,,1608810899,507976805,'',30732,0,0,0,25280,36903,0,0,0,0,158,"[1520, 1824, 1586]","[0, 0]",0,0,"[4095, 4095, 4095, 4095]"
1608810899525113520,,81107,,1608810899,528954905,'',30752,0,0,0,25280,36903,0,0,0,0,158,"[1479, 1829, 1585]","[0, 0]",0,0,"[4095, 4095, 4095, 4095]"
1608810899549905509,,81108,,1608810899,550721974,'',30772,0,0,0,25280,36903,0,0,0,0,158,"[1479, 1829, 1578]","[0, 0]",0,0,"[4095, 4095, 4095, 4095]"
1608810899567264504,,81109,,1608810899,568605452,'',30792,0,0,0,25280,36903,0,0,0,0,158,"[1504, 1825, 1559]","[0, 0]",0,0,"[4095, 4095, 4095, 4095]"
1608810899589887429,,81110,,1608810899,587908781,'',30812,0,0,0,25280,36903,0,0,0,0,158,"[1519, 1827, 1583]","[0, 0]",0,0,"[4095, 4095, 4095, 4095]"
1608810899589909501,,81111,,1608810899,607757533,'',30832,0,0,0,25280,36903,0,0,0,0,158,"[1522, 1827, 1583]","[0, 0]",0,0,"[4095, 4095, 4095, 4095]"
1608810899615284740,,81112,,1608810899,628065375,'',30852,0,0,0,25280,36903,0,0,0,0,158,"[1522, 1827, 1580]","[0, 0]",0,0,"[4095, 4095, 4095, 4095]"
1608810899633745845,,81113,,1608810899,646736071,'',30872,0,0,0,25280,36903,0,0,0,0,158,"[1514, 1823, 1561]","[0, 0]",0,0,"[4095, 4095, 4095, 4095]"
1608810899650419489,,81114,,1608810899,666767993,'',30892,0,0,0,25280,36903,0,0,0,0,158,"[1499, 1823, 1560]","[0, 0]",0,0,"[4095, 4095, 4095, 4095]"
1608810899666173370,,81115,,1608810899,686820915,'',30912,0,0,0,25280,36903,0,0,0,0,158,"[1520, 1821, 1582]","[0, 0]",0,0,"[4095, 4095, 4095, 4095]"
1608810899687087199,,81116,,1608810899,706781085,'',30932,0,0,0,25280,36903,0,0,0,0,158,"[1520, 1827, 1582]","[0, 0]",0,0,"[4095, 4095, 4095, 4095]"
1608810899705639303,,81117,,1608810899,726831091,'',30952,0,0,0,25280,36903,0,0,0,0,158,"[1517, 1830, 1583]","[0, 0]",0,0,"[4095, 4095, 4095, 4095]"
1608810899724742089,,81118,,1608810899,746901804,'',30972,0,0,0,25280,36903,0,0,0,0,158,"[1474, 1830, 1583]","[0, 0]",0,0,"[4095, 4095, 4095, 4095]"
1608810899759339133,,81119,,1608810899,767005185,'',30992,0,0,0,25280,36903,0,0,0,0,158,"[1494, 1830, 1559]","[0, 0]",0,0,"[4095, 4095, 4095, 4095]"
1608810899778717581,,81120,,1608810899,786865605,'',31012,0,0,0,25280,36903,0,0,0,0,158,"[1497, 1826, 1557]","[0, 0]",0,0,"[4095, 4095, 4095, 4095]"
1608810899806487790,,81121,,1608810899,808009666,'',31032,0,0,0,25280,36903,0,0,0,0,158,"[1497, 1826, 1558]","[0, 0]",0,0,"[4095, 4095, 4095, 4095]"
1608810899836591516,,81122,,1608810899,826794988,'',31052,0,0,0,25280,36903,0,0,0,0,158,"[1478, 1826, 1558]","[0, 0]",0,0,"[4095, 4095, 4095, 4095]"
1608810899857055687,,81123,,1608810899,846722783,'',31072,0,0,0,25280,36903,0,0,0,0,158,"[1485, 1826, 1558]","[0, 0]",0,0,"[4095, 4095, 4095, 4095]"
1608810899857063320,,81124,,1608810899,866689663,'',31092,0,0,0,25280,36903,0,0,0,0,158,"[1528, 1826, 1588]","[0, 0]",0,0,"[4095, 4095, 4095, 4095]"
1608810899874277344,,81125,,1608810899,886737334,'',31112,0,0,0,25280,36903,0,0,0,0,158,"[1535, 1826, 1588]","[0, 0]",0,0,"[4095, 4095, 4095, 4095]"
1608810899904622991,,81126,,1608810899,906603296,'',31132,0,0,0,25280,36903,0,0,0,0,158,"[1535, 1828, 1569]","[0, 0]",0,0,"[4095, 4095, 4095, 4095]"
1608810899921396316,,81127,,1608810899,926617425,'',31152,0,0,0,25280,36903,0,0,0,0,158,"[1519, 1828, 1579]","[0, 0]",0,0,"[4095, 4095, 4095, 4095]"
1608810899940466416,,81128,,1608810899,946458595,'',31172,0,0,0,25280,36903,0,0,0,0,158,"[1517, 1828, 1579]","[0, 0]",0,0,"[4095, 4095, 4095, 4095]"
1608810899966870917,,81129,,1608810899,966446474,'',31192,0,0,0,25280,36903,0,0,0,0,158,"[1521, 1823, 1579]","[0, 0]",0,0,"[4095, 4095, 4095, 4095]"
1608810899966906019,,81130,,1608810899,986605564,'',31212,0,0,0,25280,36903,0,0,0,0,158,"[1524, 1827, 1582]","[0, 0]",0,0,"[4095, 4095, 4095, 4095]"
1608810899990905543,,81131,,1608810900,7563247,'',31232,0,0,0,25280,36903,0,0,0,0,158,"[1524, 1827, 1582]","[0, 0]",0,0,"[4095, 4095, 4095, 4095]"
1608810900008840336,,81132,,1608810900,26586282,'',31252,0,0,0,25280,36903,0,0,0,0,158,"[1501, 1806, 1582]","[0, 0]",0,0,"[4095, 4095, 4095, 4095]"
1608810900040977333,,81133,,1608810900,46565412,'',31272,0,0,0,25280,36903,0,0,0,0,158,"[1501, 1829, 1557]","[0, 0]",0,0,"[4095, 4095, 4095, 4095]"
1608810900071731306,,81134,,1608810900,66541917,'',31292,0,0,0,25280,36903,0,0,0,0,158,"[1501, 1829, 1584]","[0, 0]",0,0,"[4095, 4095, 4095, 4095]"
1608810900089628770,,81135,,1608810900,86470588,'',31312,0,0,0,25280,36903,0,0,0,0,158,"[1501, 1812, 1584]","[0, 0]",0,0,"[4095, 4095, 4095, 4095]"
1608810900089644120,,81136,,1608810900,106447093,'',31332,0,0,0,25280,36903,0,0,0,0,158,"[1499, 1804, 1582]","[0, 0]",0,0,"[4095, 4095, 4095, 4095]"
1608810900103682382,,81137,,1608810900,126485724,'',31352,0,0,0,25280,36903,0,0,0,0,158,"[1476, 1825, 1582]","[0, 0]",0,0,"[4095, 4095, 4095, 4095]"
1608810900128249460,,81138,,1608810900,146461937,'',31372,0,0,0,25280,36903,0,0,0,0,158,"[1476, 1825, 1579]","[0, 0]",0,0,"[4095, 4095, 4095, 4095]"
1608810900147359426,,81139,,1608810900,166467901,'',31392,0,0,0,25280,36903,0,0,0,0,158,"[1501, 1827, 1584]","[0, 0]",0,0,"[4095, 4095, 4095, 4095]"
1608810900167932586,,81140,,1608810900,186374405,'',31412,0,0,0,25280,36903,0,0,0,0,158,"[1501, 1827, 1584]","[0, 0]",0,0,"[4095, 4095, 4095, 4095]"
1608810900196427359,,81141,,1608810900,207559884,'',31432,0,0,0,25280,36903,0,0,0,0,158,"[1501, 1823, 1583]","[0, 0]",0,0,"[4095, 4095, 4095, 4095]"
1608810900225757851,,81142,,1608810900,226465083,'',31452,0,0,0,25280,36903,0,0,0,0,158,"[1500, 1830, 1582]","[0, 0]",0,0,"[4095, 4095, 4095, 4095]"
1608810900248817047,,81143,,1608810900,246469880,'',31472,0,0,0,25280,36903,0,0,0,0,158,"[1500, 1830, 1582]","[0, 0]",0,0,"[4095, 4095, 4095, 4095]"
1608810900292204461,,81144,,1608810900,266507636,'',31492,0,0,0,25280,36903,0,0,0,0,158,"[1521, 1826, 1582]","[0, 0]",0,0,"[4095, 4095, 4095, 4095]"
1608810900292210561,,81145,,1608810900,286404223,'',31512,0,0,0,25280,36903,0,0,0,0,158,"[1528, 1823, 1558]","[0, 0]",0,0,"[4095, 4095, 4095, 4095]"
1608810900320395614,,81146,,1608810900,307363074,'',31532,0,0,0,25280,36903,0,0,0,0,158,"[1528, 1825, 1558]","[0, 0]",0,0,"[4095, 4095, 4095, 4095]"
1608810900320439288,,81147,,1608810900,327242453,'',31552,0,0,0,25280,36903,0,0,0,0,158,"[1514, 1825, 1558]","[0, 0]",0,0,"[4095, 4095, 4095, 4095]"
1608810900339441277,,81148,,1608810900,347308209,'',31572,0,0,0,25280,36903,0,0,0,0,158,"[1499, 1825, 1582]","[0, 0]",0,0,"[4095, 4095, 4095, 4095]"
1608810900364149760,,81149,,1608810900,367305714,'',31592,0,0,0,25280,36903,0,0,0,0,158,"[1499, 1829, 1582]","[0, 0]",0,0,"[4095, 4095, 4095, 4095]"
1608810900388777864,,81150,,1608810900,387289511,'',31612,0,0,0,25280,36903,0,0,0,0,158,"[1497, 1829, 1580]","[0, 0]",0,0,"[4095, 4095, 4095, 4095]"
1608810900407552613,,81151,,1608810900,408700743,'',31632,0,0,0,25280,36903,0,0,0,0,158,"[1497, 1829, 1581]","[0, 0]",0,0,"[4095, 4095, 4095, 4095]"
1608810900434149593,,81152,,1608810900,427425690,'',31652,0,0,0,25280,36903,0,0,0,0,158,"[1471, 1804, 1581]","[0, 0]",0,0,"[4095, 4095, 4095, 4095]"
1608810900434184623,,81153,,1608810900,447459654,'',31672,0,0,0,25280,36903,0,0,0,0,158,"[1475, 1827, 1584]","[0, 0]",0,0,"[4095, 4095, 4095, 4095]"
1608810900472039652,,81154,,1608810900,468350254,'',31692,0,0,0,25280,36903,0,0,0,0,158,"[1497, 1827, 1584]","[0, 0]",0,0,"[4095, 4095, 4095, 4095]"
1608810900489967209,,81155,,1608810900,486386568,'',31712,0,0,0,25280,36903,0,0,0,0,158,"[1499, 1827, 1581]","[0, 0]",0,0,"[4095, 4095, 4095, 4095]"
1608810900490004947,,81156,,1608810900,506189820,'',31732,0,0,0,25280,36903,0,0,0,0,158,"[1520, 1827, 1581]","[0, 0]",0,0,"[4095, 4095, 4095, 4095]"
1608810900513374174,,81157,,1608810900,526331411,'',31752,0,0,0,25280,36903,0,0,0,0,158,"[1520, 1827, 1580]","[0, 0]",0,0,"[4095, 4095, 4095, 4095]"
1608810900526836492,,81158,,1608810900,546270582,'',31772,0,0,0,25280,36903,0,0,0,0,158,"[1518, 1826, 1580]","[0, 0]",0,0,"[4095, 4095, 4095, 4095]"
1608810900549406837,,81159,,1608810900,566239212,'',31792,0,0,0,25280,36903,0,0,0,0,158,"[1499, 1825, 1558]","[0, 0]",0,0,"[4095, 4095, 4095, 4095]"
1608810900571309417,,81160,,1608810900,586265593,'',31812,0,0,0,25280,36903,0,0,0,0,158,"[1500, 1825, 1582]","[0, 0]",0,0,"[4095, 4095, 4095, 4095]"
1608810900601247095,,81161,,1608810900,607260027,'',31832,0,0,0,25280,36903,0,0,0,0,158,"[1500, 1819, 1582]","[0, 0]",0,0,"[4095, 4095, 4095, 4095]"
1608810900623304807,,81162,,1608810900,626256520,'',31852,0,0,0,25280,36903,0,0,0,0,158,"[1497, 1805, 1580]","[0, 0]",0,0,"[4095, 4095, 4095, 4095]"
1608810900641558694,,81163,,1608810900,646290776,'',31872,0,0,0,25280,36903,0,0,0,0,158,"[1476, 1806, 1582]","[0, 0]",0,0,"[4095, 4095, 4095, 4095]"
1608810900672899589,,81164,,1608810900,666243072,'',31892,0,0,0,25280,36903,0,0,0,0,158,"[1476, 1825, 1582]","[0, 0]",0,0,"[4095, 4095, 4095, 4095]"
1608810900700988951,,81165,,1608810900,686186618,'',31912,0,0,0,25280,36903,0,0,0,0,158,"[1522, 1828, 1582]","[0, 0]",0,0,"[4095, 4095, 4095, 4095]"
1608810900701083185,,81166,,1608810900,706135998,'',31932,0,0,0,25280,36903,0,0,0,0,158,"[1522, 1828, 1580]","[0, 0]",0,0,"[4095, 4095, 4095, 4095]"
1608810900719863640,,81167,,1608810900,726104336,'',31952,0,0,0,25280,36903,0,0,0,0,158,"[1484, 1826, 1584]","[0, 0]",0,0,"[4095, 4095, 4095, 4095]"
1608810900748748231,,81168,,1608810900,746183801,'',31972,0,0,0,25280,36903,0,0,0,0,158,"[1498, 1825, 1584]","[0, 0]",0,0,"[4095, 4095, 4095, 4095]"
1608810900764434218,,81169,,1608810900,766154472,'',31992,0,0,0,25280,36903,0,0,0,0,158,"[1499, 1827, 1581]","[0, 0]",0,0,"[4095, 4095, 4095, 4095]"
1608810900782326430,,81170,,1608810900,786156061,'',32012,0,0,0,25280,36903,0,0,0,0,158,"[1499, 1827, 1579]","[0, 0]",0,0,"[4095, 4095, 4095, 4095]"
1608810900860256081,,81171,,1608810900,807013702,'',32032,0,0,0,25280,36903,0,0,0,0,158,"[1524, 1827, 1559]","[0, 0]",0,0,"[4095, 4095, 4095, 4095]"
1608810900889625832,,81172,,1608810900,826002319,'',32052,0,0,0,25280,36903,0,0,0,0,158,"[1524, 1828, 1559]","[0, 0]",0,0,"[4095, 4095, 4095, 4095]"
1608810900889642611,,81173,,1608810900,845991366,'',32072,0,0,0,25280,36903,0,0,0,0,158,"[1517, 1828, 1585]","[0, 0]",0,0,"[4095, 4095, 4095, 4095]"
1608810900889654799,,81174,,1608810900,866912300,'',32092,0,0,0,25280,36903,0,0,0,0,158,"[1519, 1804, 1585]","[0, 0]",0,0,"[4095, 4095, 4095, 4095]"
1608810900889665652,,81175,,1608810900,888742370,'',32112,0,0,0,25280,36903,0,0,0,0,158,"[1519, 1824, 1582]","[0, 0]",0,0,"[4095, 4095, 4095, 4095]"
1608810900917693431,,81176,,1608810900,906852185,'',32132,0,0,0,25280,36903,0,0,0,0,158,"[1518, 1824, 1559]","[0, 0]",0,0,"[4095, 4095, 4095, 4095]"
1608810900917702670,,81177,,1608810900,926592145,'',32152,0,0,0,25280,36903,0,0,0,0,158,"[1518, 1824, 1581]","[0, 0]",0,0,"[4095, 4095, 4095, 4095]"
1608810900957839555,,81178,,1608810900,946843112,'',32172,0,0,0,25280,36903,0,0,0,0,158,"[1481, 1805, 1581]","[0, 0]",0,0,"[4095, 4095, 4095, 4095]"
1608810900957883405,,81179,,1608810900,966799200,'',32192,0,0,0,25280,36903,0,0,0,0,158,"[1481, 1827, 1583]","[0, 0]",0,0,"[4095, 4095, 4095, 4095]"
1608810901027454363,,81180,,1608810900,986797289,'',32212,0,0,0,25280,36903,0,0,0,0,158,"[1493, 1827, 1583]","[0, 0]",0,0,"[4095, 4095, 4095, 4095]"
1608810901064623367,,81181,,1608810901,8028560,'',32232,0,0,0,25280,36903,0,0,0,0,158,"[1493, 1827, 1582]","[0, 0]",0,0,"[4095, 4095, 4095, 4095]"
1608810901064674018,,81182,,1608810901,26829634,'',32252,0,0,0,25280,36903,72,74,0,0,158,"[1474, 1827, 1580]","[0, 0]",0,0,"[4095, 4095, 4095, 4095]"
1608810901064744360,,81183,,1608810901,46836473,'',32272,0,0,0,25280,36903,72,74,0,0,158,"[1478, 1826, 1559]","[0, 0]",0,0,"[4095, 4095, 4095, 4095]"
1608810901164578977,,81184,,1608810901,66784103,'',32292,0,0,0,25280,36903,72,74,0,0,158,"[1500, 1824, 1578]","[0, 0]",0,0,"[4095, 4095, 4095, 4095]"
1608810901164616864,,81185,,1608810901,86756234,'',32312,0,0,0,25280,36903,72,74,0,0,158,"[1524, 1826, 1582]","[0, 0]",0,0,"[4095, 4095, 4095, 4095]"
1608810901164759724,,81186,,1608810901,106737698,'',32332,0,0,0,25280,36903,72,74,0,0,158,"[1524, 1826, 1583]","[0, 0]",0,0,"[4095, 4095, 4095, 4095]"
1608810901191509110,,81187,,1608810901,126731412,'',32352,0,0,0,25280,36903,71,73,0,0,158,"[1524, 1826, 1583]","[0, 0]",0,0,"[4095, 4095, 4095, 4095]"
1608810901191533925,,81188,,1608810901,146728335,'',32372,0,0,0,25316,36938,54,57,0,0,158,"[1518, 1829, 1568]","[21, 23]",0,0,"[4095, 4095, 4095, 4095]"
1608810901191599099,,81189,,1608810901,166706882,'',32392,0,0,0,25369,36991,30,32,0,0,158,"[1498, 1829, 1568]","[14, 16]",0,0,"[4095, 4095, 4095, 4095]"
1608810901191726601,,81190,,1608810901,186409218,'',32412,0,0,0,25408,37034,11,12,0,0,158,"[1498, 1829, 1559]","[6, 7]",0,0,"[4095, 4095, 4095, 4095]"
1608810901224062459,,81191,,1608810901,206960606,'',32432,0,0,0,25433,37059,17,17,0,0,158,"[1494, 1769, 1559]","[2, 3]",0,0,"[4095, 4095, 4095, 4095]"
1608810901224102048,,81192,,1608810901,226970070,'',32452,0,0,0,25457,37083,30,30,0,0,158,"[1474, 1731, 1532]","[2, 2]",0,0,"[4095, 4095, 4095, 4095]"
1608810901246149920,,81193,,1608810901,246767491,'',32472,0,0,0,25488,37112,34,37,0,0,158,"[1475, 1751, 1533]","[4, 5]",0,0,"[4095, 4095, 4095, 4095]"
1608810901267807203,,81194,,1608810901,267513714,'',32492,0,0,0,25525,37148,29,32,0,0,158,"[1480, 1755, 1557]","[4, 6]",0,0,"[4095, 4095, 4095, 4095]"
1608810901313000626,,81195,,1608810901,287569554,'',32512,0,0,0,25564,37189,21,24,0,0,158,"[1496, 1775, 1557]","[2, 4]",0,0,"[4095, 4095, 4095, 4095]"
1608810901313028882,,81196,,1608810901,306595798,'',32532,0,0,0,25599,37229,19,19,0,0,158,"[1496, 1775, 1569]","[1, 2]",0,0,"[4095, 4095, 4095, 4095]"
1608810901313129762,,81197,,1608810901,326817015,'',32552,0,0,0,25633,37266,21,19,0,0,158,"[1486, 1775, 1580]","[1, 1]",0,0,"[4095, 4095, 4095, 4095]"
1608810901337602164,,81198,,1608810901,346606269,'',32572,0,0,0,25668,37305,23,20,0,0,158,"[1489, 1771, 1580]","[1, 0]",0,0,"[4095, 4095, 4095, 4095]"
1608810901365162378,,81199,,1608810901,366604941,'',32592,0,0,0,25705,37344,22,20,0,0,158,"[1489, 1777, 1580]","[1, 0]",0,0,"[4095, 4095, 4095, 4095]"
1608810901392100357,,81200,,1608810901,386634239,'',32612,0,0,0,25741,37380,21,21,0,0,158,"[1495, 1777, 1560]","[1, 0]",0,0,"[4095, 4095, 4095, 4095]"
1608810901422354500,,81201,,1608810901,407121168,'',32632,0,0,0,25775,37413,22,24,0,0,158,"[1499, 1773, 1557]","[1, 1]",0,0,"[4095, 4095, 4095, 4095]"
1608810901422474377,,81202,,1608810901,426781211,'',32652,0,0,0,25808,37447,24,26,0,0,158,"[1499, 1776, 1557]","[1, 2]",0,0,"[4095, 4095, 4095, 4095]"
1608810901454176601,,81203,,1608810901,446506881,'',32672,0,0,0,25842,37481,25,27,0,0,158,"[1498, 1776, 1556]","[1, 2]",0,0,"[4095, 4095, 4095, 4095]"
1608810901518765303,,81204,,1608810901,467644818,'',32692,0,0,0,25876,37516,25,26,0,0,158,"[1498, 1774, 1556]","[2, 2]",0,0,"[4095, 4095, 4095, 4095]"
1608810901518835992,,81205,,1608810901,486454642,'',32712,0,0,0,25910,37552,24,25,0,0,158,"[1504, 1749, 1561]","[2, 2]",0,0,"[4095, 4095, 4095, 4095]"
1608810901539029442,,81206,,1608810901,506401689,'',32732,0,0,0,25945,37587,24,25,0,0,158,"[1506, 1749, 1561]","[1, 2]",0,0,"[4095, 4095, 4095, 4095]"
1608810901539179255,,81207,,1608810901,528877518,'',32752,0,0,0,25980,37622,23,25,0,0,158,"[1506, 1749, 1559]","[1, 2]",0,0,"[4095, 4095, 4095, 4095]"
1608810901539219589,,81208,,1608810901,546404576,'',32772,0,0,0,26015,37659,23,25,0,0,158,"[1474, 1750, 1558]","[1, 2]",0,0,"[4095, 4095, 4095, 4095]"
1608810901587228853,,81209,,1608810901,566453416,'',32792,0,0,0,26050,37695,23,24,0,0,158,"[1475, 1750, 1557]","[1, 2]",0,0,"[4095, 4095, 4095, 4095]"
1608810901621519240,,81210,,1608810901,586587424,'',32812,0,0,0,26085,37730,24,24,0,0,158,"[1499, 1748, 1557]","[1, 2]",0,0,"[4095, 4095, 4095, 4095]"
1608810901621527757,,81211,,1608810901,608245409,'',32832,0,0,0,26120,37766,24,24,0,0,158,"[1499, 1749, 1553]","[1, 2]",0,0,"[4095, 4095, 4095, 4095]"
1608810901621579350,,81212,,1608810901,626721562,'',32852,0,0,0,26155,37803,24,24,0,0,158,"[1476, 1749, 1534]","[1, 2]",0,0,"[4095, 4095, 4095, 4095]"
1608810901654047935,,81213,,1608810901,646800736,'',32872,0,0,0,26191,37839,23,23,0,0,158,"[1474, 1749, 1559]","[1, 1]",0,0,"[4095, 4095, 4095, 4095]"
1608810901675119796,,81214,,1608810901,666961286,'',32892,0,0,0,26226,37875,24,24,0,0,158,"[1477, 1723, 1559]","[1, 1]",0,0,"[4095, 4095, 4095, 4095]"
1608810901675152854,,81215,,1608810901,686512828,'',32912,0,0,0,26261,37910,24,25,0,0,158,"[1498, 1724, 1557]","[1, 1]",0,0,"[4095, 4095, 4095, 4095]"
1608810901696346229,,81216,,1608810901,706461917,'',32932,0,0,0,26297,37946,24,25,0,0,158,"[1498, 1724, 1557]","[1, 1]",0,0,"[4095, 4095, 4095, 4095]"
1608810901733884058,,81217,,1608810901,725785081,'',32952,0,0,0,26332,37982,24,25,0,0,158,"[1497, 1731, 1562]","[1, 1]",0,0,"[4095, 4095, 4095, 4095]"
1608810901752717232,,81218,,1608810901,746008923,'',32972,0,0,0,26367,38019,24,24,0,0,158,"[1497, 1731, 1562]","[1, 1]",0,0,"[4095, 4095, 4095, 4095]"
1608810901818895923,,81219,,1608810901,765144834,'',32992,0,0,0,26403,38053,24,25,0,0,158,"[1487, 1727, 1558]","[1, 1]",0,0,"[4095, 4095, 4095, 4095]"
1608810901818930436,,81220,,1608810901,785464053,'',33012,0,0,0,26438,38090,24,24,0,0,158,"[1496, 1726, 1554]","[1, 2]",0,0,"[4095, 4095, 4095, 4095]"
1608810901837942469,,81221,,1608810901,805546435,'',33032,0,0,0,26473,38126,24,25,0,0,158,"[1496, 1724, 1539]","[1, 2]",0,0,"[4095, 4095, 4095, 4095]"
1608810901837988518,,81222,,1608810901,826630705,'',33052,0,0,0,26509,38163,25,24,0,0,158,"[1496, 1757, 1539]","[1, 1]",0,0,"[4095, 4095, 4095, 4095]"
1608810901838123686,,81223,,1608810901,846317290,'',33072,0,0,0,26546,38199,24,24,0,0,158,"[1482, 1757, 1558]","[1, 2]",0,0,"[4095, 4095, 4095, 4095]"
1608810901859000629,,81224,,1608810901,865955750,'',33092,0,0,0,26582,38236,23,24,0,0,158,"[1476, 1748, 1558]","[1, 1]",0,0,"[4095, 4095, 4095, 4095]"
1608810901877172555,,81225,,1608810901,885943922,'',33112,0,0,0,26618,38271,23,25,0,0,158,"[1498, 1730, 1553]","[1, 1]",0,0,"[4095, 4095, 4095, 4095]"
1608810901904440427,,81226,,1608810901,906236015,'',33132,0,0,0,26654,38307,24,25,0,0,158,"[1498, 1730, 1536]","[1, 2]",0,0,"[4095, 4095, 4095, 4095]"
1608810901931244053,,81227,,1608810901,925993477,'',33152,0,0,0,26689,38343,24,25,0,0,158,"[1485, 1723, 1555]","[1, 2]",0,0,"[4095, 4095, 4095, 4095]"
1608810901962160333,,81228,,1608810901,945013887,'',33172,0,0,0,26725,38379,24,25,0,0,158,"[1450, 1728, 1555]","[1, 2]",0,0,"[4095, 4095, 4095, 4095]"
1608810901962315615,,81229,,1608810901,964355718,'',33192,0,0,0,26761,38416,24,24,0,0,158,"[1478, 1728, 1548]","[1, 1]",0,0,"[4095, 4095, 4095, 4095]"
1608810901984663681,,81230,,1608810901,984311515,'',33212,0,0,0,26797,38453,24,24,0,0,158,"[1499, 1729, 1559]","[1, 1]",0,0,"[4095, 4095, 4095, 4095]"
1608810902029460006,,81231,,1608810902,4322729,'',33232,0,0,0,26833,38489,24,24,0,0,158,"[1500, 1729, 1559]","[1, 1]",0,0,"[4095, 4095, 4095, 4095]"
1608810902029467127,,81232,,1608810902,25301707,'',33252,0,0,0,26870,38527,24,24,0,0,158,"[1500, 1729, 1554]","[1, 1]",0,0,"[4095, 4095, 4095, 4095]"
1608810902055045874,,81233,,1608810902,45147253,'',33272,0,0,0,26906,38563,24,24,0,0,158,"[1493, 1728, 1556]","[1, 1]",0,0,"[4095, 4095, 4095, 4095]"
1608810902055070900,,81234,,1608810902,65059884,'',33292,0,0,0,26943,38600,23,24,0,0,158,"[1499, 1751, 1556]","[1, 1]",0,0,"[4095, 4095, 4095, 4095]"
1608810902079665450,,81235,,1608810902,85134391,'',33312,0,0,0,26979,38637,24,24,0,0,158,"[1500, 1751, 1556]","[1, 1]",0,0,"[4095, 4095, 4095, 4095]"
1608810902094344658,,81236,,1608810902,104259804,'',33332,0,0,0,27014,38673,24,24,0,0,158,"[1500, 1750, 1534]","[1, 1]",0,0,"[4095, 4095, 4095, 4095]"
1608810902117126207,,81237,,1608810902,124228143,'',33352,0,0,0,27049,38709,25,25,0,0,158,"[1506, 1752, 1534]","[1, 2]",0,0,"[4095, 4095, 4095, 4095]"
1608810902134315756,,81238,,1608810902,144471236,'',33372,0,0,0,27086,38747,25,25,0,0,158,"[1506, 1775, 1532]","[1, 1]",0,0,"[4095, 4095, 4095, 4095]"
1608810902154853921,,81239,,1608810902,164245615,'',33392,0,0,0,27124,38785,24,24,0,0,158,"[1477, 1775, 1559]","[1, 1]",0,0,"[4095, 4095, 4095, 4095]"
1608810902169392926,,81240,,1608810902,184066078,'',33412,0,0,0,27160,38821,23,24,0,0,158,"[1498, 1778, 1559]","[1, 1]",0,0,"[4095, 4095, 4095, 4095]"
1608810902188170395,,81241,,1608810902,204082252,'',33432,0,0,0,27196,38858,24,24,0,0,158,"[1498, 1778, 1556]","[1, 1]",0,0,"[4095, 4095, 4095, 4095]"
1608810902207740276,,81242,,1608810902,225254023,'',33452,0,0,0,27232,38895,25,25,0,0,158,"[1498, 1778, 1556]","[1, 1]",0,0,"[4095, 4095, 4095, 4095]"
1608810902244158377,,81243,,1608810902,244217850,'',33472,0,0,0,27268,38933,25,24,0,0,158,"[1477, 1775, 1556]","[1, 1]",0,0,"[4095, 4095, 4095, 4095]"
1608810902263311148,,81244,,1608810902,264077980,'',33492,0,0,0,27305,38970,24,24,0,0,158,"[1477, 1773, 1556]","[1, 1]",0,0,"[4095, 4095, 4095, 4095]"
1608810902293614124,,81245,,1608810902,285087583,'',33512,0,0,0,27341,39008,24,24,0,0,158,"[1498, 1775, 1548]","[1, 1]",0,0,"[4095, 4095, 4095, 4095]"
1608810902293649134,,81246,,1608810902,306205396,'',33532,0,0,0,27377,39046,25,24,0,0,158,"[1502, 1775, 1559]","[1, 1]",0,0,"[4095, 4095, 4095, 4095]"
1608810902317628946,,81247,,1608810902,324625257,'',33552,0,0,0,27413,39082,25,24,0,0,158,"[1502, 1808, 1559]","[1, 1]",0,0,"[4095, 4095, 4095, 4095]"
1608810902353382112,,81248,,1608810902,344701807,'',33572,0,0,0,27450,39118,25,25,0,0,158,"[1497, 1808, 1533]","[1, 1]",0,0,"[4095, 4095, 4095, 4095]"
1608810902353411404,,81249,,1608810902,364694647,'',33592,0,0,0,27487,39155,24,25,0,0,158,"[1500, 1804, 1533]","[1, 1]",0,0,"[4095, 4095, 4095, 4095]"
1608810902370318006,,81250,,1608810902,384657444,'',33612,0,0,0,27524,39191,24,25,0,0,158,"[1524, 1805, 1531]","[1, 2]",0,0,"[4095, 4095, 4095, 4095]"
1608810902389482964,,81251,,1608810902,403732398,'',33632,0,0,0,27560,39228,24,25,0,0,158,"[1524, 1805, 1532]","[1, 2]",0,0,"[4095, 4095, 4095, 4095]"
1608810902408391784,,81252,,1608810902,424838544,'',33652,0,0,0,27597,39266,24,25,0,0,158,"[1524, 1805, 1532]","[1, 1]",0,0,"[4095, 4095, 4095, 4095]"
1608810902437842557,,81253,,1608810902,444590755,'',33672,0,0,0,27634,39303,24,24,0,0,158,"[1503, 1804, 1556]","[1, 2]",0,0,"[4095, 4095, 4095, 4095]"
1608810902457315013,,81254,,1608810902,463761377,'',33692,0,0,0,27671,39341,24,24,0,0,158,"[1476, 1826, 1556]","[1, 2]",0,0,"[4095, 4095, 4095, 4095]"
1608810902479967048,,81255,,1608810902,483883135,'',33712,0,0,0,27708,39378,24,24,0,0,158,"[1524, 1827, 1547]","[1, 1]",0,0,"[4095, 4095, 4095, 4095]"
1608810902501011191,,81256,,1608810902,503769223,'',33732,0,0,0,27745,39415,24,24,0,0,158,"[1524, 1872, 1560]","[1, 2]",0,0,"[4095, 4095, 4095, 4095]"
1608810902522110096,,81257,,1608810902,524212403,'',33752,0,0,0,27781,39451,25,25,0,0,158,"[1500, 1872, 1560]","[1, 1]",0,0,"[4095, 4095, 4095, 4095]"
1608810902545964370,,81258,,1608810902,543783487,'',33772,0,0,0,27818,39490,25,24,0,0,158,"[1498, 1872, 1559]","[1, 2]",0,0,"[4095, 4095, 4095, 4095]"
1608810902575500265,,81259,,1608810902,563750952,'',33792,0,0,0,27855,39527,25,24,0,0,158,"[1494, 1874, 1559]","[1, 2]",0,0,"[4095, 4095, 4095, 4095]"
1608810902575518410,,81260,,1608810902,583620707,'',33812,0,0,0,27892,39564,24,24,0,0,158,"[1493, 1894, 1555]","[1, 2]",0,0,"[4095, 4095, 4095, 4095]"
1608810902590132469,,81261,,1608810902,603769882,'',33832,0,0,0,27930,39602,24,25,0,0,158,"[1497, 1894, 1553]","[1, 1]",0,0,"[4095, 4095, 4095, 4095]"
1608810902603408481,,81262,,1608810902,625403368,'',33852,0,0,0,27967,39640,24,24,0,0,158,"[1498, 1892, 1533]","[1, 1]",0,0,"[4095, 4095, 4095, 4095]"
1608810902620908375,,81263,,1608810902,645256498,'',33872,0,0,0,28004,39679,24,23,0,0,158,"[1498, 1874, 1532]","[1, 1]",0,0,"[4095, 4095, 4095, 4095]"
1608810902644413205,,81264,,1608810902,663867112,'',33892,0,0,0,28042,39717,24,23,0,0,158,"[1503, 1875, 1532]","[1, 1]",0,0,"[4095, 4095, 4095, 4095]"
1608810902663928547,,81265,,1608810902,683740075,'',33912,0,0,0,28079,39753,24,24,0,0,158,"[1503, 1875, 1536]","[1, 1]",0,0,"[4095, 4095, 4095, 4095]"
1608810902685701089,,81266,,1608810902,703648914,'',33932,0,0,0,28116,39789,24,26,0,0,158,"[1503, 1866, 1536]","[1, 1]",0,0,"[4095, 4095, 4095, 4095]"
1608810902716355179,,81267,,1608810902,723657213,'',33952,0,0,0,28152,39827,25,26,0,0,158,"[1499, 1851, 1540]","[1, 1]",0,0,"[4095, 4095, 4095, 4095]"
1608810902731322002,,81268,,1608810902,743678636,'',33972,0,0,0,28188,39864,26,25,0,0,158,"[1498, 1851, 1540]","[1, 1]",0,0,"[4095, 4095, 4095, 4095]"
1608810902751720511,,81269,,1608810902,763677601,'',33992,0,0,0,28225,39902,26,24,0,0,158,"[1481, 1848, 1531]","[2, 1]",0,0,"[4095, 4095, 4095, 4095]"
1608810902769845155,,81270,,1608810902,783750067,'',34012,0,0,0,28263,39940,25,25,0,0,158,"[1523, 1875, 1532]","[1, 2]",0,0,"[4095, 4095, 4095, 4095]"
1608810902787805602,,81271,,1608810902,803650739,'',34032,0,0,0,28301,39978,24,24,0,0,158,"[1523, 1876, 1532]","[1, 2]",0,0,"[4095, 4095, 4095, 4095]"
1608810902803609357,,81272,,1608810902,824733260,'',34052,0,0,0,28339,40015,23,25,0,0,158,"[1504, 1876, 1531]","[1, 2]",0,0,"[4095, 4095, 4095, 4095]"
1608810902825128232,,81273,,1608810902,844308428,'',34072,0,0,0,28376,40053,24,25,0,0,158,"[1477, 1826, 1559]","[1, 1]",0,0,"[4095, 4095, 4095, 4095]"
1608810902848214166,,81274,,1608810902,864028848,'',34092,0,0,0,28413,40091,25,25,0,0,158,"[1477, 1826, 1559]","[1, 2]",0,0,"[4095, 4095, 4095, 4095]"
1608810902867921230,,81275,,1608810902,884027813,'',34112,0,0,0,28451,40130,25,24,0,0,158,"[1512, 1803, 1549]","[1, 1]",0,0,"[4095, 4095, 4095, 4095]"
1608810902894389476,,81276,,1608810902,903730732,'',34132,0,0,0,28489,40169,24,23,0,0,158,"[1521, 1848, 1538]","[1, 1]",0,0,"[4095, 4095, 4095, 4095]"
1608810902910557065,,81277,,1608810902,924529458,'',34152,0,0,0,28527,40206,24,24,0,0,158,"[1521, 1849, 1530]","[1, 1]",0,0,"[4095, 4095, 4095, 4095]"
1608810902930677654,,81278,,1608810902,943575244,'',34172,0,0,0,28564,40243,24,25,0,0,158,"[1517, 1849, 1530]","[1, 1]",0,0,"[4095, 4095, 4095, 4095]"
1608810902948182088,,81279,,1608810902,963552917,'',34192,0,0,0,28601,40281,25,25,0,0,158,"[1497, 1828, 1560]","[1, 2]",0,0,"[4095, 4095, 4095, 4095]"
1608810902972727868,,81280,,1608810902,983768885,'',34212,0,0,0,28639,40320,25,25,0,0,158,"[1501, 1849, 1560]","[1, 1]",0,0,"[4095, 4095, 4095, 4095]"
1608810902996709724,,81281,,1608810903,3679182,'',34232,0,0,0,28677,40357,24,25,0,0,158,"[1522, 1849, 1558]","[1, 2]",0,0,"[4095, 4095, 4095, 4095]"
1608810903013878031,,81282,,1608810903,23830108,'',34252,0,0,0,28714,40395,24,25,0,0,158,"[1522, 1849, 1554]","[1, 2]",0,0,"[4095, 4095, 4095, 4095]"
1608810903029650550,,81283,,1608810903,44769419,'',34272,0,0,0,28753,40433,24,25,0,0,158,"[1522, 1849, 1551]","[1, 2]",0,0,"[4095, 4095, 4095, 4095]"
1608810903044256174,,81284,,1608810903,63564078,'',34292,0,0,0,28791,40472,24,24,0,0,158,"[1479, 1847, 1555]","[1, 2]",0,0,"[4095, 4095, 4095, 4095]"
1608810903068270504,,81285,,1608810903,83511126,'',34312,0,0,0,28828,40509,24,25,0,0,158,"[1519, 1845, 1557]","[1, 2]",0,0,"[4095, 4095, 4095, 4095]"
1608810903085165993,,81286,,1608810903,103550342,'',34332,0,0,0,28865,40548,25,24,0,0,158,"[1521, 1855, 1557]","[1, 1]",0,0,"[4095, 4095, 4095, 4095]"
1608810903127641601,,81287,,1608810903,123685518,'',34352,0,0,0,28904,40586,25,25,0,0,158,"[1521, 1855, 1555]","[1, 1]",0,0,"[4095, 4095, 4095, 4095]"
1608810903146520337,,81288,,1608810903,143411189,'',34372,0,0,0,28942,40624,24,25,0,0,158,"[1499, 1850, 1555]","[1, 1]",0,0,"[4095, 4095, 4095, 4095]"
1608810903185626656,,81289,,1608810903,164567503,'',34392,0,0,0,28980,40662,24,24,0,0,158,"[1498, 1826, 1556]","[1, 1]",0,0,"[4095, 4095, 4095, 4095]"
1608810903185635305,,81290,,1608810903,183528997,'',34412,0,0,0,29017,40700,26,25,0,0,158,"[1516, 1826, 1557]","[1, 1]",0,0,"[4095, 4095, 4095, 4095]"
1608810903256676627,,81291,,1608810903,203392336,'',34432,0,0,0,29056,40738,25,25,0,0,158,"[1516, 1826, 1557]","[1, 2]",0,0,"[4095, 4095, 4095, 4095]"
1608810903256717380,,81292,,1608810903,223467719,'',34452,0,0,0,29094,40777,25,24,0,0,158,"[1516, 1824, 1558]","[1, 1]",0,0,"[4095, 4095, 4095, 4095]"
1608810903276421837,,81293,,1608810903,244514949,'',34472,0,0,0,29133,40816,24,24,0,0,158,"[1498, 1824, 1558]","[1, 1]",0,0,"[4095, 4095, 4095, 4095]"
1608810903276436955,,81294,,1608810903,263225898,'',34492,0,0,0,29171,40853,25,24,0,0,158,"[1498, 1824, 1556]","[1, 1]",0,0,"[4095, 4095, 4095, 4095]"
1608810903276466729,,81295,,1608810903,283241489,'',34512,0,0,0,29210,40892,24,24,0,0,158,"[1498, 1805, 1572]","[1, 1]",0,0,"[4095, 4095, 4095, 4095]"
1608810903304218271,,81296,,1608810903,304224842,'',34532,0,0,0,29248,40929,25,25,0,0,158,"[1513, 1824, 1579]","[1, 1]",0,0,"[4095, 4095, 4095, 4095]"
1608810903324985551,,81297,,1608810903,324531520,'',34552,0,0,0,29285,40967,25,25,0,0,158,"[1522, 1826, 1579]","[1, 2]",0,0,"[4095, 4095, 4095, 4095]"
1608810903325008546,,81298,,1608810903,344892449,'',34572,0,0,0,29323,41005,26,25,0,0,158,"[1522, 1827, 1568]","[1, 1]",0,0,"[4095, 4095, 4095, 4095]"
1608810903352424048,,81299,,1608810903,366115555,'',34592,0,0,0,29362,41043,25,25,0,0,158,"[1498, 1827, 1568]","[2, 1]",0,0,"[4095, 4095, 4095, 4095]"
1608810903373764212,,81300,,1608810903,385213260,'',34612,0,0,0,29400,41081,25,25,0,0,158,"[1501, 1827, 1556]","[1, 2]",0,0,"[4095, 4095, 4095, 4095]"
1608810903403184943,,81301,,1608810903,404419174,'',34632,0,0,0,29439,41119,25,25,0,0,158,"[1505, 1822, 1557]","[1, 1]",0,0,"[4095, 4095, 4095, 4095]"
1608810903453943532,,81302,,1608810903,424642726,'',34652,0,0,0,29477,41158,25,25,0,0,158,"[1505, 1803, 1557]","[1, 1]",0,0,"[4095, 4095, 4095, 4095]"
1608810903454013799,,81303,,1608810903,445480535,'',34672,0,0,0,29515,41197,25,25,0,0,158,"[1476, 1806, 1582]","[1, 1]",0,0,"[4095, 4095, 4095, 4095]"
1608810903480619562,,81304,,1608810903,464420738,'',34692,0,0,0,29553,41236,25,24,0,0,158,"[1498, 1806, 1582]","[1, 1]",0,0,"[4095, 4095, 4095, 4095]"
1608810903480645707,,81305,,1608810903,484480371,'',34712,0,0,0,29591,41274,25,25,0,0,158,"[1498, 1800, 1579]","[1, 1]",0,0,"[4095, 4095, 4095, 4095]"
1608810903509685619,,81306,,1608810903,504290917,'',34732,0,0,0,29630,41313,25,25,0,0,158,"[1519, 1803, 1579]","[1, 1]",0,0,"[4095, 4095, 4095, 4095]"
1608810903509717559,,81307,,1608810903,524305925,'',34752,0,0,0,29668,41353,25,24,0,0,158,"[1521, 1803, 1560]","[1, 1]",0,0,"[4095, 4095, 4095, 4095]"
1608810903528669713,,81308,,1608810903,545802035,'',34772,0,0,0,29706,41390,25,25,0,0,158,"[1521, 1804, 1556]","[1, 1]",0,0,"[4095, 4095, 4095, 4095]"
1608810903545247320,,81309,,1608810903,563867518,'',34792,0,0,0,29744,41429,25,25,0,0,158,"[1498, 1806, 1557]","[1, 1]",0,0,"[4095, 4095, 4095, 4095]"
1608810903577338273,,81310,,1608810903,584322948,'',34812,0,0,0,29782,41468,25,26,0,0,158,"[1498, 1806, 1557]","[1, 1]",0,0,"[4095, 4095, 4095, 4095]"
1608810903600248890,,81311,,1608810903,604235871,'',34832,0,0,0,29820,41506,25,25,0,0,158,"[1525, 1777, 1557]","[1, 1]",0,0,"[4095, 4095, 4095, 4095]"
1608810903625343670,,81312,,1608810903,623035488,'',34852,0,0,0,29857,41545,26,25,0,0,158,"[1525, 1802, 1556]","[2, 1]",0,0,"[4095, 4095, 4095, 4095]"
1608810903649765951,,81313,,1608810903,645095105,'',34872,0,0,0,29895,41585,26,25,0,0,158,"[1516, 1802, 1585]","[1, 1]",0,0,"[4095, 4095, 4095, 4095]"
1608810903649803246,,81314,,1608810903,663014461,'',34892,0,0,0,29933,41625,26,24,0,0,158,"[1498, 1802, 1585]","[2, 1]",0,0,"[4095, 4095, 4095, 4095]"
1608810903695740024,,81315,,1608810903,683026260,'',34912,0,0,0,29970,41664,27,23,0,0,158,"[1503, 1803, 1585]","[2, 1]",0,0,"[4095, 4095, 4095, 4095]"
1608810903719594542,,81316,,1608810903,703658734,'',34932,0,0,0,30009,41701,26,25,0,0,158,"[1503, 1803, 1555]","[1, 1]",0,0,"[4095, 4095, 4095, 4095]"
1608810903719610383,,81317,,1608810903,723689783,'',34952,0,0,0,30050,41739,25,26,0,0,158,"[1497, 1797, 1560]","[1, 1]",0,0,"[4095, 4095, 4095, 4095]"
1608810903748518350,,81318,,1608810903,744956349,'',34972,0,0,0,30087,41778,25,26,0,0,158,"[1477, 1776, 1560]","[1, 2]",0,0,"[4095, 4095, 4095, 4095]"
1608810903781049369,,81319,,1608810903,764171888,'',34992,0,0,0,30125,41817,25,25,0,0,158,"[1477, 1776, 1555]","[1, 2]",0,0,"[4095, 4095, 4095, 4095]"
1608810903781093437,,81320,,1608810903,784651818,'',35012,0,0,0,30163,41855,27,25,0,0,158,"[1477, 1774, 1555]","[1, 1]",0,0,"[4095, 4095, 4095, 4095]"
1608810903809359439,,81321,,1608810903,804095735,'',35032,0,0,0,30203,41894,26,25,0,0,158,"[1496, 1749, 1556]","[2, 2]",0,0,"[4095, 4095, 4095, 4095]"
1608810903834728382,,81322,,1608810903,824842544,'',35052,0,0,0,30242,41933,25,25,0,0,158,"[1501, 1802, 1556]","[2, 2]",0,0,"[4095, 4095, 4095, 4095]"
1608810903834778599,,81323,,1608810903,845211056,'',35072,0,0,0,30281,41973,25,24,0,0,158,"[1501, 1805, 1557]","[1, 1]",0,0,"[4095, 4095, 4095, 4095]"
1608810903876763686,,81324,,1608810903,863818754,'',35092,0,0,0,30320,42011,25,25,0,0,158,"[1494, 1805, 1557]","[1, 1]",0,0,"[4095, 4095, 4095, 4095]"
1608810903908207523,,81325,,1608810903,884451811,'',35112,0,0,0,30359,42050,25,25,0,0,158,"[1498, 1773, 1570]","[1, 2]",0,0,"[4095, 4095, 4095, 4095]"
1608810903908221821,,81326,,1608810903,903862186,'',35132,0,0,0,30398,42089,25,25,0,0,158,"[1501, 1773, 1576]","[1, 1]",0,0,"[4095, 4095, 4095, 4095]"
1608810903908266145,,81327,,1608810903,923836359,'',35152,0,0,0,30436,42127,26,25,0,0,158,"[1501, 1773, 1576]","[1, 1]",0,0,"[4095, 4095, 4095, 4095]"
1608810903931782454,,81328,,1608810903,944218580,'',35172,0,0,0,30475,42165,26,26,0,0,158,"[1498, 1805, 1557]","[2, 1]",0,0,"[4095, 4095, 4095, 4095]"
1608810903970909019,,81329,,1608810903,963835166,'',35192,0,0,0,30515,42205,25,25,0,0,158,"[1476, 1817, 1558]","[1, 2]",0,0,"[4095, 4095, 4095, 4095]"
1608810903993301112,,81330,,1608810903,986374289,'',35212,0,0,0,30554,42244,25,25,0,0,158,"[1498, 1817, 1579]","[1, 2]",0,0,"[4095, 4095, 4095, 4095]"
1608810903993399886,,81331,,1608810904,4131476,'',35232,0,0,0,30592,42282,26,25,0,0,158,"[1500, 1804, 1579]","[1, 1]",0,0,"[4095, 4095, 4095, 4095]"
1608810904022409714,,81332,,1608810904,23700229,'',35252,0,0,0,30631,42320,26,26,0,0,158,"[1500, 1804, 1579]","[2, 2]",0,0,"[4095, 4095, 4095, 4095]"
1608810904040403306,,81333,,1608810904,44988670,'',35272,0,0,0,30670,42360,26,26,0,0,158,"[1478, 1804, 1578]","[1, 2]",0,0,"[4095, 4095, 4095, 4095]"
1608810904076504033,,81334,,1608810904,65297974,'',35292,0,0,0,30709,42399,26,25,0,0,158,"[1478, 1773, 1579]","[2, 1]",0,0,"[4095, 4095, 4095, 4095]"
1608810904076558950,,81335,,1608810904,83706753,'',35312,0,0,0,30746,42439,27,24,0,0,158,"[1477, 1775, 1579]","[2, 1]",0,0,"[4095, 4095, 4095, 4095]"
1608810904099267800,,81336,,1608810904,104890777,'',35332,0,0,0,30785,42478,27,25,0,0,158,"[1496, 1775, 1557]","[2, 1]",0,0,"[4095, 4095, 4095, 4095]"
1608810904136965758,,81337,,1608810904,123597352,'',35352,0,0,0,30825,42517,26,25,0,0,158,"[1498, 1772, 1556]","[2, 1]",0,0,"[4095, 4095, 4095, 4095]"
1608810904168789661,,81338,,1608810904,144400453,'',35372,0,0,0,30864,42556,25,25,0,0,158,"[1498, 1774, 1535]","[2, 1]",0,0,"[4095, 4095, 4095, 4095]"
1608810904170149668,,81339,,1608810904,163784870,'',35392,0,0,0,30903,42595,25,25,0,0,158,"[1498, 1804, 1555]","[1, 1]",0,0,"[4095, 4095, 4095, 4095]"
1608810904196128873,,81340,,1608810904,183578792,'',35412,0,0,0,30942,42634,26,25,0,0,158,"[1506, 1804, 1556]","[2, 1]",0,0,"[4095, 4095, 4095, 4095]"
1608810904196147496,,81341,,1608810904,205905872,'',35432,0,0,0,30982,42673,26,25,0,0,158,"[1511, 1804, 1557]","[1, 1]",0,0,"[4095, 4095, 4095, 4095]"
1608810904219476200,,81342,,1608810904,223817062,'',35452,0,0,0,31020,42713,26,25,0,0,158,"[1522, 1804, 1581]","[1, 1]",0,0,"[4095, 4095, 4095, 4095]"
1608810904242975688,,81343,,1608810904,244273951,'',35472,0,0,0,31059,42753,26,24,0,0,158,"[1522, 1797, 1581]","[1, 1]",0,0,"[4095, 4095, 4095, 4095]"
1608810904274579966,,81344,,1608810904,264382877,'',35492,0,0,0,31099,42793,26,24,0,0,158,"[1498, 1802, 1575]","[2, 1]",0,0,"[4095, 4095, 4095, 4095]"
1608810904274617413,,81345,,1608810904,283582375,'',35512,0,0,0,31139,42831,25,25,0,0,158,"[1498, 1804, 1552]","[1, 1]",0,0,"[4095, 4095, 4095, 4095]"
1608810904313062610,,81346,,1608810904,304483770,'',35532,0,0,0,31179,42870,25,26,0,0,158,"[1500, 1804, 1556]","[1, 2]",0,0,"[4095, 4095, 4095, 4095]"
1608810904355401552,,81347,,1608810904,323664892,'',35552,0,0,0,31218,42910,25,26,0,0,158,"[1500, 1800, 1559]","[1, 1]",0,0,"[4095, 4095, 4095, 4095]"
1608810904355481120,,81348,,1608810904,342731097,'',35572,0,0,0,31256,42948,26,26,0,0,158,"[1496, 1826, 1559]","[1, 1]",0,0,"[4095, 4095, 4095, 4095]"
1608810904355725739,,81349,,1608810904,362536686,'',35592,0,0,0,31296,42987,26,26,0,0,158,"[1477, 1826, 1561]","[1, 1]",0,0,"[4095, 4095, 4095, 4095]"
1608810904402110250,,81350,,1608810904,382566278,'',35612,0,0,0,31336,43027,26,26,0,0,158,"[1496, 1825, 1561]","[1, 2]",0,0,"[4095, 4095, 4095, 4095]"
1608810904448995916,,81351,,1608810904,405820286,'',35632,0,0,0,31376,43066,25,25,0,0,158,"[1501, 1827, 1557]","[2, 2]",0,0,"[4095, 4095, 4095, 4095]"
1608810904449001264,,81352,,1608810904,423433097,'',35652,0,0,0,31415,43105,26,25,0,0,158,"[1501, 1827, 1558]","[1, 2]",0,0,"[4095, 4095, 4095, 4095]"
1608810904449052818,,81353,,1608810904,443665691,'',35672,0,0,0,31455,43146,26,25,0,0,158,"[1498, 1803, 1580]","[1, 1]",0,0,"[4095, 4095, 4095, 4095]"
1608810904475010080,,81354,,1608810904,463504239,'',35692,0,0,0,31494,43185,26,25,0,0,158,"[1497, 1822, 1580]","[1, 1]",0,0,"[4095, 4095, 4095, 4095]"
1608810904475026587,,81355,,1608810904,483455955,'',35712,0,0,0,31533,43224,26,25,0,0,158,"[1500, 1828, 1577]","[1, 2]",0,0,"[4095, 4095, 4095, 4095]"
1608810904496794836,,81356,,1608810904,503585006,'',35732,0,0,0,31572,43264,27,25,0,0,158,"[1500, 1828, 1559]","[2, 1]",0,0,"[4095, 4095, 4095, 4095]"
1608810904519905904,,81357,,1608810904,523482180,'',35752,0,0,0,31611,43303,27,26,0,0,158,"[1521, 1825, 1559]","[2, 1]",0,0,"[4095, 4095, 4095, 4095]"
1608810904561630752,,81358,,1608810904,545472672,'',35772,0,0,0,31650,43342,27,26,0,0,158,"[1521, 1825, 1559]","[2, 1]",0,0,"[4095, 4095, 4095, 4095]"
1608810904589665575,,81359,,1608810904,562658477,'',35792,0,0,0,31689,43382,27,26,0,0,158,"[1521, 1820, 1559]","[1, 1]",0,0,"[4095, 4095, 4095, 4095]"
1608810904589694637,,81360,,1608810904,582465816,'',35812,0,0,0,31729,43421,26,26,0,0,158,"[1501, 1775, 1559]","[2, 2]",0,0,"[4095, 4095, 4095, 4095]"
1608810904618898108,,81361,,1608810904,603319669,'',35832,0,0,0,31769,43461,26,25,0,0,158,"[1519, 1824, 1555]","[2, 2]",0,0,"[4095, 4095, 4095, 4095]"
1608810904618929630,,81362,,1608810904,622354956,'',35852,0,0,0,31808,43501,26,25,0,0,158,"[1519, 1824, 1554]","[1, 1]",0,0,"[4095, 4095, 4095, 4095]"
1608810904642892130,,81363,,1608810904,645017749,'',35872,0,0,0,31848,43540,26,25,0,0,158,"[1499, 1823, 1556]","[2, 1]",0,0,"[4095, 4095, 4095, 4095]"
1608810904673877093,,81364,,1608810904,663375194,'',35892,0,0,0,31887,43581,26,25,0,0,158,"[1480, 1804, 1556]","[2, 1]",0,0,"[4095, 4095, 4095, 4095]"
1608810904673913757,,81365,,1608810904,683228325,'',35912,0,0,0,31926,43621,27,25,0,0,158,"[1480, 1824, 1580]","[2, 1]",0,0,"[4095, 4095, 4095, 4095]"
1608810904703867659,,81366,,1608810904,703229917,'',35932,0,0,0,31967,43661,26,24,0,0,158,"[1497, 1824, 1580]","[2, 1]",0,0,"[4095, 4095, 4095, 4095]"
1608810904739987420,,81367,,1608810904,723225383,'',35952,0,0,0,32006,43701,26,25,0,0,158,"[1497, 1824, 1575]","[1, 1]",0,0,"[4095, 4095, 4095, 4095]"
1608810904740164883,,81368,,1608810904,743834816,'',35972,0,0,0,32045,43740,26,25,0,0,158,"[1496, 1816, 1560]","[1, 1]",0,0,"[4095, 4095, 4095, 4095]"
1608810904766455068,,81369,,1608810904,762276262,'',35992,0,0,0,32084,43779,27,26,0,0,158,"[1492, 1803, 1558]","[1, 1]",0,0,"[4095, 4095, 4095, 4095]"
1608810904790645239,,81370,,1608810904,784990389,'',36012,0,0,0,32124,43820,27,26,0,0,158,"[1494, 1802, 1556]","[2, 1]",0,0,"[4095, 4095, 4095, 4095]"
1608810904790740811,,81371,,1608810904,802077901,'',36032,0,0,0,32164,43859,26,26,0,0,158,"[1498, 1805, 1556]","[2, 2]",0,0,"[4095, 4095, 4095, 4095]"
1608810904811829228,,81372,,1608810904,822100493,'',36052,0,0,0,32203,43899,26,25,0,0,158,"[1503, 1805, 1555]","[2, 2]",0,0,"[4095, 4095, 4095, 4095]"
1608810904832587881,,81373,,1608810904,843330892,'',36072,0,0,0,32244,43940,26,25,0,0,158,"[1503, 1802, 1560]","[2, 1]",0,0,"[4095, 4095, 4095, 4095]"
1608810904872981749,,81374,,1608810904,863086313,'',36092,0,0,0,32285,43980,25,25,0,0,158,"[1499, 1824, 1560]","[2, 1]",0,0,"[4095, 4095, 4095, 4095]"
1608810904906470656,,81375,,1608810904,883707996,'',36112,0,0,0,32325,44019,25,25,0,0,158,"[1523, 1824, 1551]","[1, 1]",0,0,"[4095, 4095, 4095, 4095]"
1608810904906493021,,81376,,1608810904,903063829,'',36132,0,0,0,32364,44059,26,26,0,0,158,"[1523, 1804, 1553]","[1, 1]",0,0,"[4095, 4095, 4095, 4095]"
1608810904934035615,,81377,,1608810904,926221878,'',36152,0,0,0,32403,44099,27,26,0,0,158,"[1519, 1826, 1558]","[1, 2]",0,0,"[4095, 4095, 4095, 4095]"
1608810904934100043,,81378,,1608810904,943154222,'',36172,0,0,0,32443,44139,27,25,0,0,158,"[1502, 1826, 1558]","[1, 1]",0,0,"[4095, 4095, 4095, 4095]"
1608810904991947533,,81379,,1608810904,962089175,'',36192,0,0,0,32481,44180,28,25,0,0,158,"[1485, 1819, 1558]","[2, 1]",0,0,"[4095, 4095, 4095, 4095]"
1608810905011998354,,81380,,1608810904,983783330,'',36212,0,0,0,32521,44221,27,25,0,0,158,"[1478, 1802, 1558]","[2, 1]",0,0,"[4095, 4095, 4095, 4095]"
1608810905012007630,,81381,,1608810905,2790908,'',36232,0,0,0,32560,44260,28,25,0,0,158,"[1478, 1826, 1555]","[2, 1]",0,0,"[4095, 4095, 4095, 4095]"
1608810905012056679,,81382,,1608810905,22191076,'',36252,0,0,0,32601,44299,26,26,0,0,158,"[1511, 1826, 1554]","[2, 1]",0,0,"[4095, 4095, 4095, 4095]"
1608810905042462521,,81383,,1608810905,42311086,'',36272,0,0,0,32641,44339,26,27,0,0,158,"[1511, 1828, 1554]","[1, 2]",0,0,"[4095, 4095, 4095, 4095]"
1608810905078304507,,81384,,1608810905,63626362,'',36292,0,0,0,32682,44380,25,26,0,0,158,"[1495, 1828, 1554]","[1, 2]",0,0,"[4095, 4095, 4095, 4095]"
1608810905078485725,,81385,,1608810905,81969225,'',36312,0,0,0,32720,44420,27,25,0,0,158,"[1477, 1822, 1558]","[2, 2]",0,0,"[4095, 4095, 4095, 4095]"
1608810905096980921,,81386,,1608810905,102082527,'',36332,0,0,0,32760,44459,27,26,0,0,158,"[1493, 1798, 1558]","[2, 2]",0,0,"[4095, 4095, 4095, 4095]"
1608810905118639672,,81387,,1608810905,122025493,'',36352,0,0,0,32800,44499,27,26,0,0,158,"[1501, 1803, 1555]","[2, 1]",0,0,"[4095, 4095, 4095, 4095]"
1608810905154623212,,81388,,1608810905,142149295,'',36372,0,0,0,32840,44541,27,25,0,0,158,"[1501, 1803, 1533]","[2, 1]",0,0,"[4095, 4095, 4095, 4095]"
1608810905154687830,,81389,,1608810905,161976468,'',36392,0,0,0,32881,44580,26,25,0,0,158,"[1501, 1803, 1558]","[1, 1]",0,0,"[4095, 4095, 4095, 4095]"
1608810905177499021,,81390,,1608810905,181954144,'',36412,0,0,0,32921,44620,26,25,0,0,158,"[1496, 1805, 1558]","[1, 1]",0,0,"[4095, 4095, 4095, 4095]"
1608810905209401142,,81391,,1608810905,201830318,'',36432,0,0,0,32961,44660,26,26,0,0,158,"[1500, 1805, 1556]","[1, 1]",0,0,"[4095, 4095, 4095, 4095]"
1608810905233187521,,81392,,1608810905,222657337,'',36452,0,0,0,33001,44700,27,26,0,0,158,"[1500, 1803, 1556]","[1, 2]",0,0,"[4095, 4095, 4095, 4095]"
1608810905233200043,,81393,,1608810905,241834085,'',36472,0,0,0,33041,44741,27,25,0,0,158,"[1500, 1805, 1556]","[1, 2]",0,0,"[4095, 4095, 4095, 4095]"
1608810905260486433,,81394,,1608810905,262863524,'',36492,0,0,0,33082,44781,26,26,0,0,158,"[1480, 1806, 1555]","[2, 2]",0,0,"[4095, 4095, 4095, 4095]"
1608810905284371900,,81395,,1608810905,282145857,'',36512,0,0,0,33123,44821,26,26,0,0,158,"[1478, 1806, 1555]","[2, 1]",0,0,"[4095, 4095, 4095, 4095]"
1608810905304858158,,81396,,1608810905,303345923,'',36532,0,0,0,33164,44862,25,26,0,0,158,"[1478, 1804, 1558]","[2, 2]",0,0,"[4095, 4095, 4095, 4095]"
1608810905304915506,,81397,,1608810905,321851246,'',36552,0,0,0,33204,44900,26,27,0,0,158,"[1502, 1824, 1558]","[1, 2]",0,0,"[4095, 4095, 4095, 4095]"
1608810905328533878,,81398,,1608810905,342037757,'',36572,0,0,0,33244,44940,26,27,0,0,158,"[1502, 1824, 1558]","[1, 2]",0,0,"[4095, 4095, 4095, 4095]"
1608810905355951567,,81399,,1608810905,361872806,'',36592,0,0,0,33283,44981,27,27,0,0,158,"[1502, 1804, 1556]","[2, 2]",0,0,"[4095, 4095, 4095, 4095]"
1608810905387760567,,81400,,1608810905,381741396,'',36612,0,0,0,33323,45021,27,26,0,0,158,"[1476, 1807, 1533]","[2, 2]",0,0,"[4095, 4095, 4095, 4095]"
1608810905413320332,,81401,,1608810905,401871907,'',36632,0,0,0,33363,45062,27,25,0,0,158,"[1497, 1807, 1581]","[2, 2]",0,0,"[4095, 4095, 4095, 4095]"
1608810905413336217,,81402,,1608810905,421847540,'',36652,0,0,0,33403,45103,27,25,0,0,158,"[1498, 1801, 1581]","[2, 2]",0,0,"[4095, 4095, 4095, 4095]"
