rosbagTimestamp,header,seq,stamp,secs,nsecs,frame_id,pose,position,x,y,z,orientation,x,y,z,w
1608810897465887340,,17629,,1608810897,465381618,"""world""",,,1.21663308144,2.8305182457,0.448766052723,,0.00135329726618,-0.00177217600867,-0.0121234646067,0.999924063683
1608810897465913531,,17632,,1608810897,465467742,"""world""",,,1.21664023399,2.83052396774,0.448755979538,,0.0013194270432,-0.00172298401594,-0.0121384710073,0.999923944473
1608810897465949510,,17633,,1608810897,465519177,"""world""",,,1.21660518646,2.83044195175,0.448817998171,,0.000988978543319,-0.00154800433666,-0.0121334223077,0.999924778938
1608810897616354729,,17634,,1608810897,615352005,"""world""",,,1.21663808823,2.83052563667,0.448755979538,,0.00125134061091,-0.00178337574471,-0.012044550851,0.999925076962
1608810897616413823,,17638,,1608810897,615543815,"""world""",,,1.21663868427,2.83052110672,0.448759108782,,0.00131534715183,-0.00186180218589,-0.0120890894905,0.999924361706
1608810897675584256,,17639,,1608810897,675279783,"""world""",,,1.21663308144,2.83051729202,0.448764950037,,0.00132729904726,-0.00181608961429,-0.0121121220291,0.999924182892
1608810897675590481,,17640,,1608810897,675308426,"""world""",,,1.21663486958,2.8305182457,0.448756247759,,0.00131723971572,-0.00177699082997,-0.0121234524995,0.999924123287
1608810897675673104,,17641,,1608810897,675356641,"""world""",,,1.21664392948,2.83052229881,0.448762327433,,0.0013158848742,-0.00177355704363,-0.0120966415852,0.99992442131
1608810897675693450,,17644,,1608810897,675424345,"""world""",,,1.21663463116,2.83052682877,0.448765665293,,0.00131751911249,-0.00176290678792,-0.0121259381995,0.999924123287
1608810897696978800,,17645,,1608810897,695339298,"""world""",,,1.21664333344,2.83052968979,0.44875857234,,0.00123394501861,-0.00179300212767,-0.0121556185186,0.999923765659
1608810897697021173,,17649,,1608810897,695403231,"""world""",,,1.21663963795,2.83052706718,0.448748767376,,0.00133183982689,-0.00177308404818,-0.0121393250301,0.999923884869
1608810897697035158,,17650,,1608810897,695439938,"""world""",,,1.2166339159,2.83053445816,0.448752909899,,0.00126669788733,-0.00178210309241,-0.0121071273461,0.999924361706
1608810897697050589,,17657,,1608810897,695537681,"""world""",,,1.21663033962,2.83052682877,0.448756784201,,0.00129905703943,-0.00184163299855,-0.0120953889564,0.999924302101
1608810897697056963,,17658,,1608810897,695579668,"""world""",,,1.21663570404,2.83052396774,0.448751211166,,0.00129890523385,-0.00178252917249,-0.0120930457488,0.99992442131
1608810897697089336,,17663,,1608810897,695692485,"""world""",,,1.21664512157,2.83052325249,0.448753446341,,0.0012440335704,-0.00177073280793,-0.0121098831296,0.999924361706
1608810897697117723,,17664,,1608810897,695742702,"""world""",,,1.21663212776,2.83052110672,0.4487606287,,0.00124173052609,-0.00175153021701,-0.012137953192,0.999924063683
1608810897697125455,,17669,,1608810897,695830921,"""world""",,,1.2166454792,2.83052706718,0.448768556118,,0.00126981420908,-0.00173810275737,-0.0120917949826,0.999924600124
1608810897697141349,,17670,,1608810897,695873617,"""world""",,,1.21663951874,2.83052659035,0.448761194944,,0.00128712283913,-0.00170007755514,-0.0121324583888,0.999924182892
1608810897697150656,,17673,,1608810897,695930455,"""world""",,,1.21661913395,2.83045315742,0.448816120625,,0.000928805442527,-0.00226019695401,-0.0124850599095,0.999919116497
1608810897697162067,,17674,,1608810897,695975411,"""world""",,,1.21663486958,2.8305170536,0.448767453432,,0.00131072301883,-0.00176208431367,-0.0121339680627,0.999923944473
1608810897705553064,,17675,,1608810897,705317180,"""world""",,,1.21659064293,2.83036971092,0.448870837688,,0.000593557138927,-0.00198519718833,-0.0125138815492,0.999919652939
1608810897715944981,,17676,,1608810897,715346836,"""world""",,,1.21664237976,2.8305170536,0.448766350746,,0.00131477275863,-0.00173151819035,-0.0121030015871,0.999924480915
1608810897715995789,,17677,,1608810897,715373892,"""world""",,,1.21661651134,2.83044290543,0.448809027672,,0.00100014277268,-0.00147507281508,-0.0120444651693,0.999925911427
1608810897736136540,,17678,,1608810897,735411882,"""world""",,,1.21661329269,2.83044457436,0.448816359043,,0.00103020702954,-0.00146291952115,-0.0121027622372,0.999925196171
1608810897736199018,,17679,,1608810897,735470287,"""world""",,,1.21661293507,2.83045101166,0.448816418648,,0.00100065697916,-0.00226332247257,-0.0124766174704,0.999919116497
1608810897746366854,,17680,,1608810897,745437499,"""world""",,,1.21658289433,2.83036518097,0.448869258165,,0.000716894632205,-0.00199614744633,-0.0125059168786,0.99991953373
1608810897755821568,,17681,,1608810897,755375591,"""world""",,,1.21658098698,2.8303604126,0.448870629072,,0.000582206645049,-0.0020115270745,-0.0124991163611,0.999919712543
1608810897766345982,,17682,,1608810897,765308004,"""world""",,,1.21661925316,2.8304438591,0.448813140392,,0.000906853470951,-0.00222580390982,-0.012520247139,0.999918818474
1608810897775695728,,17683,,1608810897,775311312,"""world""",,,1.21658992767,2.8303592205,0.448866099119,,0.000676497875247,-0.00201070401818,-0.0124732935801,0.999919950962
1608810897775708703,,17684,,1608810897,775394470,"""world""",,,1.21659553051,2.83036446571,0.448876410723,,0.000586751266383,-0.00197556288913,-0.0125146061182,0.999919652939
1608810897795605260,,17685,,1608810897,795329430,"""world""",,,1.21659243107,2.83036327362,0.448872506618,,0.000627482309937,-0.00195061648265,-0.012522270903,0.999919593334
1608810897795635182,,17686,,1608810897,795352511,"""world""",,,1.21658933163,2.8303565979,0.44886803627,,0.000652602466289,-0.00193789333571,-0.0124934306368,0.999919891357
1608810897825523264,,17687,,1608810897,825271558,"""world""",,,1.21659362316,2.83035898209,0.448867678642,,0.000644305197056,-0.00188889494166,-0.0125147663057,0.999919772148
1608810897836127806,,17688,,1608810897,835303627,"""world""",,,1.21658289433,2.8303539753,0.448871582747,,0.000681111356243,-0.00201209611259,-0.0125066107139,0.99991953373
1608810897836139079,,17690,,1608810897,835353520,"""world""",,,1.21662342548,2.83043956757,0.448811501265,,0.000935620220844,-0.00222985446453,-0.0124713545665,0.999919295311
1608810897836144998,,17691,,1608810897,835410336,"""world""",,,1.21663558483,2.83051490784,0.448760002851,,0.00129299354739,-0.00176196184475,-0.01211434789,0.999924242496
1608810897845603942,,17692,,1608810897,845348237,"""world""",,,1.21661877632,2.83044075966,0.448817759752,,0.00102998758666,-0.00224407413043,-0.0124682951719,0.999919235706
1608810897855773820,,17693,,1608810897,855353847,"""world""",,,1.21664178371,2.83051681519,0.448761433363,,0.00134783959948,-0.00174961949233,-0.0121539849788,0.999923706055
1608810897882191701,,17694,,1608810897,875371194,"""world""",,,1.2166403532,2.83051133156,0.448760151863,,0.00127104623243,-0.0017205477925,-0.0120926918462,0.999924600124
1608810897882329898,,17695,,1608810897,875417007,"""world""",,,1.21659326553,2.83036661148,0.448868274689,,0.000634902215097,-0.00198876578361,-0.0125214783475,0.99991941452
1608810897886555510,,17696,,1608810897,885335184,"""world""",,,1.21658205986,2.83036804199,0.448871582747,,0.000643519568257,-0.0019909478724,-0.0125110503286,0.999919593334
1608810897886675921,,17697,,1608810897,885376717,"""world""",,,1.21661734581,2.83044314384,0.448812454939,,0.000921130820643,-0.00214863358997,-0.0125076835975,0.999919116497
1608810897905861642,,17698,,1608810897,905308855,"""world""",,,1.21664571762,2.83052015305,0.448758780956,,0.00128331582528,-0.00171451922506,-0.0121292611584,0.999924123287
1608810897905881997,,17699,,1608810897,905338385,"""world""",,,1.21661627293,2.83044862747,0.448813766241,,0.000931553426199,-0.00225764606148,-0.0125184552744,0.99991863966
1608810897915894029,,17700,,1608810897,915340646,"""world""",,,1.2166390419,2.83052277565,0.448758453131,,0.00131906243041,-0.00177483051084,-0.0120996553451,0.99992442131
1608810897925872206,,17701,,1608810897,925366299,"""world""",,,1.2166454792,2.83052229881,0.448762655258,,0.00130163202994,-0.00174554099794,-0.0121068898588,0.999924361706
1608810897935475562,,17702,,1608810897,935258736,"""world""",,,1.21661245823,2.83043932915,0.448806107044,,0.00103414570913,-0.0022660586983,-0.0124762235209,0.999919056892
1608810897945712571,,17703,,1608810897,945314443,"""world""",,,1.21660912037,2.83043718338,0.448811411858,,0.00104351097252,-0.00152407959104,-0.0120933223516,0.999925196171
1608810897945778242,,17704,,1608810897,945338152,"""world""",,,1.21661233902,2.83044791222,0.448817014694,,0.0010479540797,-0.00149619404692,-0.012134601362,0.999924778938
1608810897955486993,,17705,,1608810897,955293062,"""world""",,,1.21663832664,2.83051848412,0.44876074791,,0.00130896281917,-0.0016957053449,-0.0120702432469,0.999924898148
1608810897965628052,,17706,,1608810897,965272737,"""world""",,,1.21661555767,2.83044075966,0.448807895184,,0.000965032901149,-0.002251396887,-0.0124644571915,0.999919295311
1608810897975646741,,17707,,1608810897,975397463,"""world""",,,1.21663987637,2.83052253723,0.448764383793,,0.00136405124795,-0.00170277326833,-0.0121089043096,0.999924361706
1608810897975657049,,17708,,1608810897,975420709,"""world""",,,1.21660602093,2.83043861389,0.448809236288,,0.00096295576077,-0.00228121690452,-0.0124879209325,0.999918937683
1608810897995535551,,17709,,1608810897,995328908,"""world""",,,1.21664500237,2.83051419258,0.448759377003,,0.00130879378412,-0.00168266019318,-0.0121418610215,0.999924004078
1608810898005765900,,17710,,1608810898,5305353,"""world""",,,1.21663212776,2.83052039146,0.448760062456,,0.00128064258024,-0.00173452973831,-0.0120675964281,0.999924957752
1608810898005775755,,17711,,1608810898,5332369,"""world""",,,1.21663844585,2.83052325249,0.448754400015,,0.00128094898537,-0.00167525513098,-0.0121111264452,0.99992454052
1608810898015544243,,17712,,1608810898,15360234,"""world""",,,1.21663701534,2.83052349091,0.448752373457,,0.00130817200989,-0.00181125896052,-0.0120954671875,0.99992442131
1608810898025686114,,17713,,1608810898,25339146,"""world""",,,1.21661376953,2.83044314384,0.448803544044,,0.00097778136842,-0.00218633329496,-0.0125462869182,0.999918401241
1608810898035913877,,17714,,1608810898,35348558,"""world""",,,1.21664297581,2.83051919937,0.448758214712,,0.00133230898064,-0.00178722967394,-0.0121210506186,0.999924063683
1608810898035935456,,17715,,1608810898,35391922,"""world""",,,1.21664094925,2.83052110672,0.448759257793,,0.00129018677399,-0.00179244449828,-0.0121087897569,0.999924242496
1608810898045986863,,17716,,1608810898,45324283,"""world""",,,1.2166339159,2.83052325249,0.448758035898,,0.00132358691189,-0.00170133681968,-0.0121164517477,0.999924361706
1608810898055673332,,17717,,1608810898,55319089,"""world""",,,1.21663367748,2.83052062988,0.448759257793,,0.00129079574253,-0.00174073851667,-0.0120901260525,0.99992454052
1608810898065637496,,17718,,1608810898,65332943,"""world""",,,1.21663832664,2.83051848412,0.448749959469,,0.00129047909286,-0.00167327595409,-0.0120942592621,0.999924659729
1608810898076314110,,17719,,1608810898,75380994,"""world""",,,1.21664083004,2.83052229881,0.448758155107,,0.00134864961728,-0.00179837516043,-0.0121087413281,0.999924182892
1608810898076324537,,17720,,1608810898,75418544,"""world""",,,1.21664106846,2.83051586151,0.448763877153,,0.00124751136173,-0.00177471595816,-0.0121134277433,0.999924361706
1608810898096499873,,17721,,1608810898,95335555,"""world""",,,1.21663427353,2.83051848412,0.448755174875,,0.00132654164918,-0.00177196739241,-0.0121249798685,0.999924123287
1608810898096519069,,17722,,1608810898,95375277,"""world""",,,1.21663725376,2.83051729202,0.448757439852,,0.00135466828942,-0.00170500040986,-0.0121353631839,0.999924063683
1608810898105681568,,17723,,1608810898,105345293,"""world""",,,1.21664011478,2.83051872253,0.448762208223,,0.00127906724811,-0.00175807368942,-0.0120862443,0.999924659729
1608810898115528961,,17724,,1608810898,115315779,"""world""",,,1.21663820744,2.83052277565,0.448758006096,,0.00138003658503,-0.00171898317058,-0.0121195949614,0.999924123287
1608810898145610994,,17725,,1608810898,145301374,"""world""",,,1.21662771702,2.83051943779,0.448754400015,,0.00131962704472,-0.00165976327844,-0.0121489334852,0.999924004078
1608810898145634883,,17726,,1608810898,145367183,"""world""",,,1.21664178371,2.83051919937,0.448746472597,,0.00127752020489,-0.00167391845025,-0.0121229821816,0.999924361706
1608810898145706274,,17728,,1608810898,145430542,"""world""",,,1.21663498878,2.83051800728,0.448753356934,,0.00127615395468,-0.00172854901757,-0.01206985116,0.999924838543
1608810898158287083,,17729,,1608810898,155312107,"""world""",,,1.21664059162,2.83052229881,0.448761999607,,0.00130737619475,-0.00174092617817,-0.0121101588011,0.999924302101
1608810898165565445,,17730,,1608810898,165302428,"""world""",,,1.21662926674,2.83052372932,0.44875612855,,0.00135532359127,-0.00173043075483,-0.0120860859752,0.999924600124
1608810898175631125,,17731,,1608810898,175375156,"""world""",,,1.21662735939,2.83051657677,0.448758006096,,0.00134545145556,-0.00170227396302,-0.0121335089207,0.999924063683
1608810898185731455,,17732,,1608810898,185439307,"""world""",,,1.21657931805,2.83036780357,0.448860198259,,0.000635296513792,-0.0019284816226,-0.0125301284716,0.99991953373
1608810898227040733,,17733,,1608810898,225550386,"""world""",,,1.21660673618,2.83044815063,0.448810040951,,0.00101298233494,-0.00144156254828,-0.0120714008808,0.999925673008
1608810898227066418,,17738,,1608810898,225744818,"""world""",,,1.21663951874,2.83051395416,0.448754876852,,0.00130506011192,-0.00180593179539,-0.0121061038226,0.999924302101
1608810898259664111,,17739,,1608810898,255352725,"""world""",,,1.21663379669,2.83052515984,0.448753297329,,0.0012688327115,-0.00176734488923,-0.0121335880831,0.999924063683
1608810898259687516,,17740,,1608810898,255414652,"""world""",,,1.21660554409,2.83044505119,0.448814868927,,0.00101073866244,-0.00143299798947,-0.012119741179,0.999925017357
1608810898259698570,,17741,,1608810898,255501403,"""world""",,,1.21661734581,2.83044052124,0.448795765638,,0.000973655900452,-0.0014541054843,-0.0121898371726,0.999924182892
1608810898275896691,,17742,,1608810898,275381401,"""world""",,,1.21660649776,2.83045196533,0.448809891939,,0.000969922228251,-0.00150283996481,-0.0121439211071,0.999924659729
1608810898275928909,,17743,,1608810898,275441959,"""world""",,,1.21663081646,2.83052754402,0.448755025864,,0.00129575550091,-0.00172079075128,-0.0121636576951,0.999923706055
1608810898285835448,,17744,,1608810898,285323733,"""world""",,,1.21660387516,2.83044338226,0.448811799288,,0.00102602445986,-0.00149165187031,-0.0121221905574,0.999924898148
1608810898285851438,,17745,,1608810898,285363608,"""world""",,,1.21663177013,2.83052206039,0.448760062456,,0.00128696218599,-0.00170877168421,-0.0121077960357,0.999924480915
1608810898295579591,,17746,,1608810898,295303816,"""world""",,,1.21664202213,2.83051967621,0.448754221201,,0.00126191496383,-0.00173395802267,-0.0120886061341,0.999924659729
1608810898306763217,,17747,,1608810898,305371226,"""world""",,,1.21660852432,2.83044457436,0.448811203241,,0.00105499697383,-0.00134614156559,-0.0121024968103,0.99992531538
1608810898325816970,,17748,,1608810898,325320163,"""world""",,,1.21660554409,2.83045363426,0.448801606894,,0.000997135415673,-0.00147529423703,-0.0121398968622,0.999924778938
1608810898325873697,,17749,,1608810898,325405109,"""world""",,,1.21660399437,2.83044242859,0.44880002737,,0.00100632128306,-0.00144267757423,-0.012047230266,0.999925971031
1608810898341195065,,17750,,1608810898,335371912,"""world""",,,1.21660172939,2.8304412365,0.448808282614,,0.00102532457095,-0.00145315157715,-0.0121251270175,0.999924957752
1608810898341261445,,17751,,1608810898,335413025,"""world""",,,1.21660661697,2.8304476738,0.448804289103,,0.000990925123915,-0.00144883384928,-0.0121371345595,0.999924838543
1608810898345762426,,17752,,1608810898,345325367,"""world""",,,1.21658420563,2.83037090302,0.448857069016,,0.000671433052048,-0.00194562936667,-0.0125429779291,0.999919235706
1608810898356449463,,17753,,1608810898,355417118,"""world""",,,1.21660733223,2.8304476738,0.448803424835,,0.00107784580905,-0.0014813967282,-0.0121000772342,0.999925136566
1608810898365682547,,17754,,1608810898,365341670,"""world""",,,1.21656966209,2.83037638664,0.448863387108,,0.000635587668512,-0.00192902015988,-0.0125235617161,0.999919593334
1608810898380065862,,17755,,1608810898,375333736,"""world""",,,1.21657145023,2.83037805557,0.448864877224,,0.000661986938212,-0.00192644714843,-0.0125255081803,0.999919474125
1608810898380084010,,17756,,1608810898,375373856,"""world""",,,1.21660983562,2.83044290543,0.448802113533,,0.000951388385147,-0.00219060457312,-0.012549996376,0.999918401241
1608810898387900933,,17757,,1608810898,385427659,"""world""",,,1.21657705307,2.83036088943,0.448853731155,,0.000653565279208,-0.00198732339777,-0.0125015424564,0.999919652939
1608810898405911636,,17758,,1608810898,405366784,"""world""",,,1.21663987637,2.83052563667,0.448755890131,,0.00132461462636,-0.00179090443999,-0.0121468044817,0.999923765659
1608810898405939670,,17759,,1608810898,405405474,"""world""",,,1.21660673618,2.83044362068,0.448812484741,,0.000952790258452,-0.00220358418301,-0.0124924695119,0.999919176102
1608810898425765426,,17760,,1608810898,425370275,"""world""",,,1.21660685539,2.83044266701,0.448808133602,,0.000986602739431,-0.0013949124841,-0.0121409045532,0.999924838543
1608810898435984981,,17761,,1608810898,435291225,"""world""",,,1.21664106846,2.83052611351,0.448754400015,,0.0012310994789,-0.00169492815621,-0.0121306842193,0.999924302101
1608810898436077764,,17762,,1608810898,435319735,"""world""",,,1.21663868427,2.83052277565,0.448756873608,,0.00131563830655,-0.00173925899435,-0.0120883742347,0.999924600124
1608810898446692484,,17763,,1608810898,445391587,"""world""",,,1.21664106846,2.83052539825,0.448755979538,,0.00132043089252,-0.00172325002495,-0.0120841460302,0.999924659729
1608810898446768497,,17764,,1608810898,445476340,"""world""",,,1.21663534641,2.83052325249,0.448746085167,,0.00135046860669,-0.00175858137663,-0.012141732499,0.999923884869
1608810898455735024,,17765,,1608810898,455437100,"""world""",,,1.21663999557,2.83052515984,0.448760449886,,0.00135887716897,-0.00166371127125,-0.0121303191409,0.999924182892
1608810898475706540,,17766,,1608810898,475346284,"""world""",,,1.21661150455,2.83044838905,0.448808223009,,0.000991659937426,-0.00146778475028,-0.0120809599757,0.999925494194
1608810898485886532,,17767,,1608810898,485354330,"""world""",,,1.21664392948,2.83053064346,0.448751777411,,0.00125502841547,-0.00181834190153,-0.0120991272852,0.999924361706
1608810898485927463,,17768,,1608810898,485406487,"""world""",,,1.21663856506,2.83053183556,0.448760211468,,0.00128686754033,-0.00165546720382,-0.0121647780761,0.999923825264
1608810898496320029,,17769,,1608810898,495343905,"""world""",,,1.21663951874,2.83053159714,0.448760271072,,0.00131811026949,-0.00176101236138,-0.012120927684,0.999924182892
1608810898496339867,,17770,,1608810898,495385711,"""world""",,,1.21665108204,2.83052659035,0.448755502701,,0.00130896246992,-0.00171281932853,-0.012164099142,0.999923765659
1608810898515786193,,17771,,1608810898,515377287,"""world""",,,1.21663284302,2.8305284977,0.448758900166,,0.00133795081638,-0.00184655073099,-0.0121079552919,0.999924123287
1608810898515895940,,17772,,1608810898,515424988,"""world""",,,1.21660649776,2.83045482635,0.448815852404,,0.00096932426095,-0.00224337703548,-0.0125228520483,0.999918580055
1608810898536150147,,17773,,1608810898,535383093,"""world""",,,1.21660876274,2.83045578003,0.44882029295,,0.00102198624518,-0.00153309386224,-0.0120894294232,0.999925196171
1608810898536164553,,17775,,1608810898,535474546,"""world""",,,1.21664011478,2.830534935,0.448758006096,,0.00133902614471,-0.00170279433951,-0.0120987780392,0.99992454052
1608810898545686125,,17776,,1608810898,545330260,"""world""",,,1.21663248539,2.83052349091,0.448759138584,,0.00132745539304,-0.00172701885458,-0.012110083364,0.999924302101
1608810898555954190,,17777,,1608810898,555385981,"""world""",,,1.21663653851,2.83053231239,0.448757082224,,0.00132373883389,-0.00178588624112,-0.0120786996558,0.999924600124
1608810898555974129,,17778,,1608810898,555430192,"""world""",,,1.21664869785,2.83052897453,0.44875651598,,0.00128421443515,-0.00173659424763,-0.0121217425913,0.999924242496
1608810898566686815,,17779,,1608810898,566413441,"""world""",,,1.21663892269,2.83053278923,0.448756307364,,0.00132509844843,-0.00175660802051,-0.0121209761128,0.999924182892
1608810898585870289,,17780,,1608810898,585324270,"""world""",,,1.2166352272,2.83052420616,0.448753803968,,0.00134982448071,-0.00173203181475,-0.0121165243909,0.999924242496
1608810898585962921,,17781,,1608810898,585413088,"""world""",,,1.21663784981,2.83053016663,0.448754191399,,0.00126496748999,-0.00172891805414,-0.0121017061174,0.99992454052
1608810898710700150,,17782,,1608810898,710305710,"""world""",,,1.21661198139,2.8304502964,0.448796093464,,0.000968320237007,-0.00221466226503,-0.0125465095043,0.999918460846
1608810898721908379,,17783,,1608810898,715493476,"""world""",,,1.21663975716,2.83053064346,0.448748707771,,0.00125512445811,-0.00176040001679,-0.0121055031195,0.999924480915
1608810898721913773,,17785,,1608810898,715605919,"""world""",,,1.21663141251,2.83052229881,0.448745965958,,0.00131266086828,-0.00163165689446,-0.0121355503798,0.999924242496
1608810898721925514,,17786,,1608810898,715699166,"""world""",,,1.2166428566,2.83053207397,0.448754072189,,0.00125316833146,-0.00165354239289,-0.0121451457962,0.999924123287
1608810898721930324,,17787,,1608810898,715764093,"""world""",,,1.21664655209,2.83052349091,0.448750257492,,0.00127498246729,-0.00172513630241,-0.0120952576399,0.999924600124
1608810898721934967,,17788,,1608810898,716040053,"""world""",,,1.21663856506,2.83052706718,0.448747426271,,0.00126099027693,-0.00177758187056,-0.0120710181072,0.999924778938
1608810898737041170,,17789,,1608810898,725847126,"""world""",,,1.21664512157,2.83052968979,0.448751449585,,0.00131232209969,-0.00177827628795,-0.0120766637847,0.999924659729
1608810898737125455,,17797,,1608810898,726295183,"""world""",,,1.21663951874,2.83052778244,0.448756277561,,0.00136106135324,-0.00179852661677,-0.0120771452785,0.999924600124
1608810898747634144,,17798,,1608810898,745352857,"""world""",,,1.21663546562,2.83051729202,0.44875767827,,0.00132450112142,-0.00171850912739,-0.01212774124,0.999924123287
1608810898747649387,,17799,,1608810898,745399441,"""world""",,,1.21663212776,2.83051753044,0.448759078979,,0.00129693059716,-0.00179611472413,-0.0121011417359,0.999924302101
1608810898756128185,,17800,,1608810898,755394384,"""world""",,,1.21663689613,2.83051800728,0.448756158352,,0.00128641456831,-0.00183193513658,-0.0120875025168,0.99992442131
1608810898756180154,,17801,,1608810898,755443765,"""world""",,,1.21664011478,2.83051633835,0.448757231236,,0.00126541580539,-0.00175207271241,-0.0121529819444,0.999923884869
1608810898766042536,,17802,,1608810898,765350250,"""world""",,,1.21664381027,2.8305273056,0.448759257793,,0.00134798896033,-0.00170420273207,-0.0120985386893,0.999924480915
1608810898766058539,,17803,,1608810898,765422256,"""world""",,,1.21663534641,2.83051967621,0.448753148317,,0.0013242107816,-0.00168004212901,-0.0121308648959,0.999924182892
1608810898785711181,,17804,,1608810898,785339260,"""world""",,,1.21664428711,2.8305284977,0.448758125305,,0.00131594401319,-0.00176092970651,-0.012116715312,0.999924182892
1608810898785720520,,17805,,1608810898,785371665,"""world""",,,1.21664571762,2.83051490784,0.44875895977,,0.00134154933039,-0.00169233838096,-0.0121238715947,0.999924182892
1608810898795541769,,17806,,1608810898,795326206,"""world""",,,1.21663570404,2.83051967621,0.448749989271,,0.00130338815507,-0.00177492562216,-0.0121386162937,0.999923944473
1608810898805522587,,17807,,1608810898,805304929,"""world""",,,1.21660542488,2.83043813705,0.448807805777,,0.0010055777384,-0.0013691339409,-0.012104623951,0.99992531538
1608810898815610518,,17808,,1608810898,815275981,"""world""",,,1.21663892269,2.83050823212,0.448749214411,,0.00128910678905,-0.00176826515235,-0.0121155939996,0.999924242496
1608810898815662343,,17809,,1608810898,815384504,"""world""",,,1.21664392948,2.83051490784,0.448751240969,,0.00125142012257,-0.00184002099559,-0.012112384662,0.999924182892
1608810898825445390,,17810,,1608810898,825273459,"""world""",,,1.21664309502,2.83051729202,0.448765337467,,0.00126004451886,-0.00175888359081,-0.0121216028929,0.999924182892
1608810898855849123,,17811,,1608810898,855424848,"""world""",,,1.21664166451,2.83052325249,0.448748171329,,0.00126928917598,-0.00175783934537,-0.0121164200827,0.999924302101
1608810898927563780,,17812,,1608810898,925523379,"""world""",,,1.21664178371,2.83051085472,0.448747634888,,0.00131954986136,-0.00179440248758,-0.0121398521587,0.999923884869
1608810898927646180,,17813,,1608810898,925621367,"""world""",,,1.21663069725,2.8305208683,0.448757618666,,0.00127869972493,-0.00176794163417,-0.0121234478429,0.999924182892
1608810898927672361,,17815,,1608810898,925696846,"""world""",,,1.21663546562,2.83051872253,0.448756724596,,0.00126670533791,-0.00174632924609,-0.012108143419,0.99992442131
1608810898927693312,,17816,,1608810898,925768882,"""world""",,,1.21664512157,2.83052349091,0.448758423328,,0.00125014886726,-0.00181115395389,-0.0121027324349,0.999924361706
1608810898927713163,,17818,,1608810898,925843298,"""world""",,,1.2166364193,2.83051013947,0.448747873306,,0.00135511660483,-0.00169143883977,-0.0120853576809,0.999924659729
1608810898927724557,,17819,,1608810898,925962847,"""world""",,,1.21662807465,2.83051919937,0.448755472898,,0.00131965219043,-0.00183059985284,-0.0121613945812,0.999923586845
1608810898927739697,,17820,,1608810898,926053869,"""world""",,,1.21664404869,2.83052134514,0.448756247759,,0.00126419961452,-0.0017894776538,-0.0121102891862,0.999924302101
1608810898927811287,,17821,,1608810898,926122383,"""world""",,,1.21661245823,2.83044719696,0.44881772995,,0.00103595119435,-0.00150313915219,-0.0120880994946,0.99992531538
1608810898945660005,,17822,,1608810898,945338804,"""world""",,,1.2166364193,2.83052635193,0.448753774166,,0.0013103208039,-0.00185652880464,-0.0121033648029,0.999924242496
1608810898945697751,,17823,,1608810898,945426039,"""world""",,,1.21664083004,2.83051967621,0.448753237724,,0.00129445909988,-0.00181305280421,-0.0121147930622,0.999924182892
1608810898956013921,,17824,,1608810898,955384966,"""world""",,,1.21664011478,2.83051919937,0.448758423328,,0.00128174503334,-0.00167450110894,-0.0121225258335,0.999924302101
1608810898956031634,,17825,,1608810898,955432259,"""world""",,,1.21663939953,2.83051848412,0.448752313852,,0.00138033810072,-0.00174732867163,-0.0121299261227,0.999924004078
1608810898965728386,,17826,,1608810898,965474467,"""world""",,,1.21664059162,2.83051466942,0.448752850294,,0.0013217740925,-0.00182237196714,-0.0121451420709,0.999923706055
1608810898975797321,,17827,,1608810898,975366149,"""world""",,,1.21663439274,2.83051276207,0.448760151863,,0.00130816816818,-0.00180030171759,-0.012124132365,0.999924063683
1608810898975809019,,17828,,1608810898,975413686,"""world""",,,1.21660804749,2.83043146133,0.44880092144,,0.000984405633062,-0.00140382151585,-0.0121845975518,0.999924302101
1608810898995833321,,17829,,1608810898,995298758,"""world""",,,1.21664321423,2.83051681519,0.448755979538,,0.00128782144748,-0.00182040408254,-0.0120844030753,0.99992454052
1608810898995964084,,17830,,1608810898,995325320,"""world""",,,1.21663427353,2.83051943779,0.448753714561,,0.00128894823138,-0.00180276378524,-0.0121782515198,0.999923408031
1608810899005755558,,17831,,1608810899,5391899,"""world""",,,1.21664190292,2.83052277565,0.448761790991,,0.00129978277255,-0.001775494311,-0.0121076591313,0.999924302101
1608810899015879763,,17832,,1608810899,15413087,"""world""",,,1.21663403511,2.83051300049,0.448752313852,,0.0012828031322,-0.00169762375299,-0.0121523020789,0.999923884869
1608810899025697195,,17833,,1608810899,25395968,"""world""",,,1.21662724018,2.83051991463,0.448756814003,,0.00130720518064,-0.00179385836236,-0.0121184699237,0.999924123287
1608810899036643844,,17834,,1608810899,35537058,"""world""",,,1.21660673618,2.83044266701,0.448813319206,,0.00106093008071,-0.00145287544001,-0.0121001321822,0.999925196171
1608810899036660271,,17835,,1608810899,35604361,"""world""",,,1.21663856506,2.83051776886,0.44875857234,,0.0013090983266,-0.00179468875285,-0.012100157328,0.999924302101
1608810899055602653,,17836,,1608810899,55293135,"""world""",,,1.21663916111,2.83051991463,0.448754578829,,0.00126801326405,-0.00181014032569,-0.0121200745925,0.999924182892
1608810899056032596,,17837,,1608810899,55371865,"""world""",,,1.216604352,2.83044266701,0.44881272316,,0.00105547066778,-0.00150206731632,-0.0121351033449,0.999924719334
1608810899056137121,,17838,,1608810899,55406114,"""world""",,,1.21663761139,2.83051395416,0.448743581772,,0.00127573031932,-0.00171153526753,-0.0120889088139,0.999924659729
1608810899066049953,,17839,,1608810899,65310105,"""world""",,,1.21663630009,2.83051228523,0.448752790689,,0.00128087459598,-0.00172696530353,-0.0121222017333,0.999924302101
1608810899075627537,,17840,,1608810899,75332032,"""world""",,,1.21660709381,2.83044219017,0.448802083731,,0.000936534604989,-0.00224477914162,-0.0125106852502,0.999918818474
1608810899085725731,,17841,,1608810899,85337633,"""world""",,,1.21663868427,2.83051347733,0.448758840561,,0.00126837170683,-0.00180924637243,-0.0121356891468,0.999924004078
1608810899116177216,,17842,,1608810899,115442379,"""world""",,,1.21661102772,2.83043718338,0.448804229498,,0.000915074371733,-0.00227697985247,-0.012470212765,0.999919235706
1608810899116228452,,17843,,1608810899,115477276,"""world""",,,1.21663832664,2.830514431,0.448752433062,,0.00128013384528,-0.00166408345103,-0.0120576461777,0.999925076962
1608810899116371398,,17844,,1608810899,115626137,"""world""",,,1.21663761139,2.83052015305,0.448750317097,,0.00128744135145,-0.00170029571746,-0.0121450582519,0.999924004078
1608810899126219238,,17845,,1608810899,125398765,"""world""",,,1.21664524078,2.83051919937,0.448746711016,,0.00132211425807,-0.00173668656498,-0.0120620345697,0.999924898148
1608810899387312683,,17846,,1608810899,385329672,"""world""",,,1.21663320065,2.8305079937,0.448753446341,,0.00126625387929,-0.0017262204783,-0.0120985079557,0.999924600124
1608810899387348893,,17875,,1608810899,386269013,"""world""",,,1.21664011478,2.83051919937,0.448758482933,,0.00137196679134,-0.00171360815875,-0.0121255023405,0.999924063683
1608810899455704403,,17876,,1608810899,455327029,"""world""",,,1.21663534641,2.83050394058,0.448751330376,,0.00133660738356,-0.00180018437095,-0.0121284928173,0.999923944473
1608810899456389991,,17877,,1608810899,455631134,"""world""",,,1.21663737297,2.8305106163,0.448755025864,,0.00129312393256,-0.00166064559016,-0.0121261598542,0.999924242496
1608810899456408348,,17884,,1608810899,455911642,"""world""",,,1.21663475037,2.83050751686,0.448749601841,,0.00137203955092,-0.00178842328023,-0.0120591055602,0.999924778938
1608810899467020668,,17885,,1608810899,465358913,"""world""",,,1.21663355827,2.83051419258,0.448754668236,,0.00130513648037,-0.00174246798269,-0.0121608301997,0.999923706055
1608810899467059483,,17886,,1608810899,465448778,"""world""",,,1.2166377306,2.83051276207,0.448749423027,,0.00134768045973,-0.00172480428591,-0.0120891705155,0.99992454052
1608810899476212742,,17887,,1608810899,475388760,"""world""",,,1.21663892269,2.83051276207,0.448753386736,,0.00131489324849,-0.00176640739664,-0.0121385529637,0.999924004078
1608810899511205400,,17888,,1608810899,505476208,"""world""",,,1.21663200855,2.83050751686,0.448759049177,,0.00128751515877,-0.00182867248077,-0.0121302111074,0.999923944473
1608810899511240165,,17891,,1608810899,505601352,"""world""",,,1.21664023399,2.83051013947,0.448756724596,,0.0014037671499,-0.00183012068737,-0.0121271507815,0.999923825264
1608810899511258702,,17892,,1608810899,505744082,"""world""",,,1.21663939953,2.83050584793,0.44875690341,,0.00130912999157,-0.00182308850344,-0.0121317105368,0.999923944473
1608810899525927366,,17893,,1608810899,525346278,"""world""",,,1.2166390419,2.83050775528,0.448761582375,,0.00134163931943,-0.00175093044527,-0.0121042290702,0.999924302101
1608810899525986112,,17894,,1608810899,525390720,"""world""",,,1.21664810181,2.83050894737,0.448752582073,,0.0013041991042,-0.00183861830737,-0.012099805288,0.999924242496
1608810899545882826,,17895,,1608810899,545338315,"""world""",,,1.21663868427,2.83050775528,0.448764264584,,0.00126798124984,-0.00174306333065,-0.0120940487832,0.999924600124
1608810899556088251,,17896,,1608810899,555306910,"""world""",,,1.21664702892,2.83050727844,0.448752641678,,0.00131874554791,-0.00172820524313,-0.0121038993821,0.99992442131
1608810899556102347,,17897,,1608810899,555380597,"""world""",,,1.21660637856,2.83043622971,0.448812752962,,0.00101426581386,-0.00148294970859,-0.0121112791821,0.999925076962
1608810899566899930,,17898,,1608810899,565442520,"""world""",,,1.21661353111,2.83043241501,0.448807328939,,0.000995981856249,-0.00225736689754,-0.0124801183119,0.999919176102
1608810899615649226,,17899,,1608810899,615336592,"""world""",,,1.21664178371,2.83050656319,0.448753714561,,0.00128717010375,-0.00171027716715,-0.0121421264485,0.999924004078
1608810899615659532,,17900,,1608810899,615364030,"""world""",,,1.21660888195,2.83043646812,0.448810905218,,0.00104876270052,-0.00150715594646,-0.0121137229726,0.999925017357
1608810899676053409,,17901,,1608810899,675309580,"""world""",,,1.21664476395,2.8305106163,0.448756188154,,0.00128162512556,-0.0017628291389,-0.0121588883922,0.999923765659
1608810899676067718,,17911,,1608810899,675525390,"""world""",,,1.21663570404,2.83051609993,0.448758542538,,0.00128934404347,-0.00179243797902,-0.0121068889275,0.999924361706
1608810899695812013,,17912,,1608810899,695283778,"""world""",,,1.21663880348,2.8305079937,0.448768258095,,0.00133481970988,-0.0018290100852,-0.0121270902455,0.999923944473
1608810899695912977,,17914,,1608810899,695330353,"""world""",,,1.21663713455,2.83051609993,0.448748081923,,0.00131420220714,-0.00179092609324,-0.0121246017516,0.999924063683
1608810899706016387,,17915,,1608810899,705305427,"""world""",,,1.21664178371,2.83052277565,0.448762595654,,0.00135211425368,-0.00173413543962,-0.0120859649032,0.99992454052
1608810899706020389,,17916,,1608810899,705329641,"""world""",,,1.21663534641,2.83052039146,0.4487606287,,0.00128186948132,-0.00172481068876,-0.0121139651164,0.999924302101
1608810899715556099,,17917,,1608810899,715292289,"""world""",,,1.21662795544,2.83051753044,0.448765844107,,0.00132190773729,-0.00179381715134,-0.0121097164229,0.999924242496
1608810899725604117,,17918,,1608810899,725360947,"""world""",,,1.21660554409,2.83043909073,0.44880926609,,0.000974267779384,-0.00222476408817,-0.0124383671209,0.999919772148
1608810899735544026,,17919,,1608810899,735327175,"""world""",,,1.21663689613,2.83052134514,0.448746502399,,0.00134648149833,-0.00164242612664,-0.012146409601,0.999924004078
1608810899745514905,,17920,,1608810899,745336228,"""world""",,,1.21663832664,2.83051609993,0.448753148317,,0.00127993966453,-0.00175489624962,-0.0120848054066,0.999924659729
1608810899765698306,,17921,,1608810899,765291384,"""world""",,,1.21661150455,2.8304400444,0.448815703392,,0.000961338053457,-0.00225702789612,-0.0124709568918,0.999919235706
1608810899765716260,,17923,,1608810899,765336135,"""world""",,,1.21664428711,2.83051586151,0.448752701283,,0.00129540544003,-0.00176008744165,-0.0121338861063,0.999924004078
1608810899776909000,,17924,,1608810899,775728017,"""world""",,,1.21663808823,2.83051490784,0.448751628399,,0.00131684239022,-0.00171243713703,-0.0121224373579,0.999924242496
1608810899806284280,,17925,,1608810899,806045572,"""world""",,,1.21663618088,2.83051681519,0.448750317097,,0.00132506468799,-0.00180861272383,-0.012031535618,0.999925136566
1608810899806462680,,17926,,1608810899,806107010,"""world""",,,1.2166390419,2.83051228523,0.448753416538,,0.00129805877805,-0.00177282840014,-0.0121516790241,0.999923825264
1608810899815650374,,17927,,1608810899,815293576,"""world""",,,1.21663832664,2.83050918579,0.448753803968,,0.00134655134752,-0.00178799801506,-0.012130969204,0.999923944473
1608810899815653657,,17928,,1608810899,815352325,"""world""",,,1.21664237976,2.83051729202,0.448768556118,,0.00127418595366,-0.00169282674324,-0.0120955789462,0.999924659729
1608810899825589716,,17929,,1608810899,825285858,"""world""",,,1.2166390419,2.83051228523,0.448760390282,,0.00127420702484,-0.0017077466473,-0.0121158631518,0.99992442131
1608810899835533038,,17930,,1608810899,835265286,"""world""",,,1.21662724018,2.83051228523,0.448760509491,,0.00125050288625,-0.0018255590694,-0.0121048884466,0.999924302101
1608810899835593076,,17931,,1608810899,835349115,"""world""",,,1.21663701534,2.83050918579,0.448753476143,,0.00132294849027,-0.00167942489497,-0.0121009275317,0.999924480915
1608810899845528355,,17932,,1608810899,845280177,"""world""",,,1.21664261818,2.83050751686,0.448753863573,,0.00127339956816,-0.00169696181547,-0.0121265128255,0.999924242496
1608810899855554079,,17933,,1608810899,855337081,"""world""",,,1.21664142609,2.83052062988,0.448760449886,,0.00130690226797,-0.00167622114532,-0.0121244033799,0.999924242496
1608810899875941087,,17934,,1608810899,875304033,"""world""",,,1.21664142609,2.83051848412,0.44875484705,,0.00128726405092,-0.00177389511373,-0.0121291140094,0.999924123287
1608810899875947003,,17936,,1608810899,875364941,"""world""",,,1.21663844585,2.8305118084,0.448761850595,,0.00134901201818,-0.00176417583134,-0.0120813958347,0.999924600124
1608810899885753698,,17937,,1608810899,885568692,"""world""",,,1.21664535999,2.83051419258,0.448758512735,,0.00127926177811,-0.00170286360662,-0.0121052172035,0.99992454052
1608810899905646452,,17938,,1608810899,905292952,"""world""",,,1.21663463116,2.83051300049,0.448752909899,,0.00135420728475,-0.00170808064286,-0.0121068917215,0.999924361706
1608810899905652283,,17939,,1608810899,905313173,"""world""",,,1.21664321423,2.83051562309,0.448763787746,,0.00128805043641,-0.00168568710797,-0.0121261551976,0.999924302101
1608810899917141724,,17940,,1608810899,915722804,"""world""",,,1.21663844585,2.83051323891,0.448754787445,,0.00130733929109,-0.0017943555722,-0.0120884543285,0.999924480915
1608810899917235741,,17941,,1608810899,915744439,"""world""",,,1.21664178371,2.83051109314,0.448760658503,,0.00134157517459,-0.00169524620287,-0.0121176345274,0.999924302101
1608810899935792110,,17942,,1608810899,935284946,"""world""",,,1.21664237976,2.83051991463,0.448759704828,,0.00133584137075,-0.00175755366217,-0.012118156068,0.999924182892
1608810899935803232,,17943,,1608810899,935305908,"""world""",,,1.21663868427,2.83051562309,0.448764950037,,0.00132535560988,-0.00176441704389,-0.0120938858017,0.99992442131
1608810899965670334,,17944,,1608810899,965312263,"""world""",,,1.21664214134,2.83052110672,0.448750734329,,0.00130780192558,-0.00174520362634,-0.0120963975787,0.999924480915
1608810899965677507,,17946,,1608810899,965354962,"""world""",,,1.21664106846,2.83050727844,0.448756366968,,0.00128203979693,-0.00176217639819,-0.0121032278985,0.99992442131
1608810899995801000,,17947,,1608810899,995286173,"""world""",,,1.21663653851,2.8305170536,0.448757857084,,0.00132348795887,-0.00172898359597,-0.0121177947149,0.999924242496
1608810899995806896,,17949,,1608810899,995327453,"""world""",,,1.21658754349,2.83035826683,0.448854506016,,0.000674639362842,-0.00206577288918,-0.0124696502462,0.999919950962
1608810900005640353,,17950,,1608810900,5265717,"""world""",,,1.21657800674,2.8303592205,0.448850274086,,0.000686519837473,-0.00196746503934,-0.0124959964305,0.999919831753
1608810900005648458,,17951,,1608810900,5312827,"""world""",,,1.21658658981,2.83036231995,0.448852330446,,0.000680079043377,-0.00195276294835,-0.0125295883045,0.99991941452
1608810900015505575,,17952,,1608810900,15261458,"""world""",,,1.21658217907,2.83035874367,0.448857188225,,0.000655672629364,-0.00205089477822,-0.0125167695805,0.999919354916
1608810900025567485,,17953,,1608810900,25317211,"""world""",,,1.21661639214,2.8304438591,0.448802351952,,0.000982102705166,-0.00229257903993,-0.0124906376004,0.999918937683
1608810900045611559,,17954,,1608810900,45312643,"""world""",,,1.21663630009,2.83051609993,0.448752641678,,0.00134604237974,-0.00178727158345,-0.0121092787012,0.999924182892
1608810900045617679,,17956,,1608810900,45359762,"""world""",,,1.21664309502,2.83052206039,0.448762357235,,0.00133457384072,-0.0017814458115,-0.0120593952015,0.999924838543
1608810900055778460,,17957,,1608810900,55592338,"""world""",,,1.21664321423,2.83052206039,0.448755949736,,0.00128257751931,-0.00161412672605,-0.0121488189325,0.999924063683
1608810900065575994,,17958,,1608810900,65317592,"""world""",,,1.21663594246,2.83051562309,0.448752880096,,0.00136629655026,-0.00176622834988,-0.0121381767094,0.999923884869
1608810900065643168,,17959,,1608810900,65346961,"""world""",,,1.21663498878,2.830514431,0.448752909899,,0.00131264526863,-0.0018229248235,-0.0121061736718,0.999924182892
1608810900085507208,,17960,,1608810900,85262927,"""world""",,,1.21663951874,2.83051323891,0.448755770922,,0.00137734552845,-0.00181947287638,-0.0121047152206,0.999924182892
1608810900095907795,,17961,,1608810900,95424157,"""world""",,,1.21663725376,2.83051347733,0.448753595352,,0.00131970015354,-0.0017616051482,-0.0121222753078,0.999924123287
1608810900095918012,,17962,,1608810900,95439971,"""world""",,,1.21662938595,2.83050751686,0.448757648468,,0.00133314717095,-0.0017848223215,-0.0120909344405,0.99992442131
1608810900125957016,,17963,,1608810900,125277478,"""world""",,,1.21663546562,2.83051919937,0.448760390282,,0.00130992138293,-0.00172069401015,-0.0121245598421,0.999924242496
1608810900125968100,,17964,,1608810900,125326751,"""world""",,,1.21662688255,2.83052062988,0.44875639677,,0.00132357387338,-0.00177523936145,-0.0121331987903,0.999924004078
1608810900125978987,,17965,,1608810900,125347899,"""world""",,,1.21664059162,2.8305284977,0.448754251003,,0.00136924674734,-0.00183487718459,-0.0120603283867,0.999924659729
1608810900135826660,,17966,,1608810900,135347283,"""world""",,,1.21663594246,2.83052372932,0.448745578527,,0.00131874089129,-0.00172732537612,-0.0121473474428,0.999923884869
1608810900145734697,,17967,,1608810900,145314547,"""world""",,,1.21662127972,2.83052110672,0.448753207922,,0.00138807180338,-0.00180749653373,-0.0121051864699,0.999924182892
1608810900145744266,,17968,,1608810900,145342933,"""world""",,,1.21663737297,2.83051729202,0.448748677969,,0.00129516399466,-0.00169295677915,-0.0120961517096,0.999924659729
1608810900165551661,,17969,,1608810900,165358148,"""world""",,,1.21663177013,2.83052873611,0.448753297329,,0.00134689104743,-0.00175095000304,-0.0120949959382,0.999924480915
1608810900207152318,,17970,,1608810900,205441115,"""world""",,,1.21663188934,2.83051300049,0.448749184608,,0.0013005794026,-0.00171287800185,-0.0121140843257,0.999924361706
1608810900207184833,,17973,,1608810900,205584212,"""world""",,,1.21658527851,2.83036971092,0.448853820562,,0.000675588787999,-0.00193654373288,-0.0125410603359,0.999919295311
1608810900207205621,,17974,,1608810900,205904055,"""world""",,,1.21660709381,2.83045196533,0.448807150126,,0.000956005882472,-0.00211090687662,-0.0125210024416,0.999918997288
1608810900285548428,,17975,,1608810900,285336098,"""world""",,,1.21660685539,2.83044314384,0.448807328939,,0.000970646680798,-0.00216977111995,-0.012532223016,0.999918699265
1608810900295817736,,17976,,1608810900,295268307,"""world""",,,1.21660768986,2.8304476738,0.448817491531,,0.00102995999623,-0.00144007266499,-0.0121418759227,0.999924778938
1608810900295827316,,17977,,1608810900,295316560,"""world""",,,1.21663510799,2.83051943779,0.448757231236,,0.00131448928732,-0.00172137666959,-0.0121362647042,0.999924063683
1608810900295850297,,17979,,1608810900,295352389,"""world""",,,1.21663653851,2.83052706718,0.448759138584,,0.00138542579953,-0.00169377867132,-0.0120980339125,0.999924480915
1608810900305841356,,17980,,1608810900,305406372,"""world""",,,1.21660995483,2.83044838905,0.448803812265,,0.000915244978387,-0.0021937424317,-0.0125316120684,0.999918699265
1608810900305859770,,17985,,1608810900,305514806,"""world""",,,1.21663951874,2.830524683,0.448755741119,,0.00133187673055,-0.00178878533188,-0.0121372165158,0.999923944473
1608810900315517707,,17986,,1608810900,315300067,"""world""",,,1.21660494804,2.83044624329,0.448814928532,,0.000995574053377,-0.00222147232853,-0.0125011205673,0.999918997288
1608810900346317784,,17987,,1608810900,345312256,"""world""",,,1.21661746502,2.83044075966,0.448806017637,,0.000979068805464,-0.00224183336832,-0.0124711450189,0.999919295311
1608810900346322146,,17988,,1608810900,345340875,"""world""",,,1.21663320065,2.83052325249,0.448758006096,,0.00130793720018,-0.00171329732984,-0.0121718356386,0.999923586845
1608810900346325879,,17989,,1608810900,345462246,"""world""",,,1.21661365032,2.83044672012,0.448816716671,,0.00104096811265,-0.00142748025246,-0.0121358558536,0.999924838543
1608810900346329128,,17991,,1608810900,345512758,"""world""",,,1.21664190292,2.83052587509,0.448753803968,,0.00136980041862,-0.00177416659426,-0.012110167183,0.999924242496
1608810900346332556,,17992,,1608810900,345696668,"""world""",,,1.21663737297,2.83051252365,0.448755890131,,0.00136718491558,-0.00170679658186,-0.0121420947835,0.999923884869
1608810900355518664,,17993,,1608810900,355335527,"""world""",,,1.21658277512,2.83037209511,0.4488684237,,0.000685423205141,-0.00196215510368,-0.0125274928287,0.99991941452
1608810900365465729,,17994,,1608810900,365296549,"""world""",,,1.21658337116,2.8303668499,0.448871999979,,0.000754200445954,-0.00196376419626,-0.0125298136845,0.999919354916
1608810900396510079,,17995,,1608810900,395347439,"""world""",,,1.21661686897,2.83043575287,0.448799341917,,0.001044364064,-0.00146607984789,-0.0120915761217,0.999925374985
1608810900396615421,,17998,,1608810900,395405938,"""world""",,,1.21663916111,2.83051300049,0.448752462864,,0.00138108746614,-0.00173007883132,-0.0121544711292,0.999923765659
1608810900405503223,,17999,,1608810900,405260434,"""world""",,,1.21659088135,2.83036637306,0.448868304491,,0.000690490356646,-0.00205271807499,-0.0125109469518,0.999919474125
1608810900415594131,,18000,,1608810900,415283344,"""world""",,,1.21659362316,2.83036875725,0.44886341691,,0.000667764688842,-0.00195374246687,-0.0125356931239,0.999919354916
1608810900435634395,,18001,,1608810900,435261414,"""world""",,,1.21664166451,2.83051395416,0.448751091957,,0.00132153660525,-0.00173577980604,-0.0120938736945,0.99992454052
1608810900435664410,,18002,,1608810900,435321420,"""world""",,,1.21659886837,2.83036160469,0.448858529329,,0.000660527963191,-0.00196442147717,-0.0125236958265,0.999919474125
1608810900435693332,,18003,,1608810900,435343881,"""world""",,,1.21661615372,2.83044075966,0.448808699846,,0.000922969833482,-0.00212849443778,-0.0125513328239,0.999918580055
1608810900445556096,,18004,,1608810900,445273155,"""world""",,,1.21664249897,2.83052325249,0.448769003153,,0.0013022312196,-0.00174890132621,-0.0121427420527,0.999923944473
1608810900455887864,,18005,,1608810900,455730867,"""world""",,,1.21661674976,2.83044147491,0.448805987835,,0.0010062570218,-0.00224417936988,-0.0124704912305,0.999919295311
1608810900475839750,,18006,,1608810900,475297715,"""world""",,,1.21661245823,2.83044552803,0.448807358742,,0.000974024122115,-0.00218051066622,-0.0124734500423,0.99991941452
1608810900476715892,,18007,,1608810900,476148586,"""world""",,,1.21661305428,2.83043718338,0.4488093853,,0.0010204029968,-0.00140666891821,-0.0121624255553,0.999924600124
1608810900476724148,,18008,,1608810900,476179376,"""world""",,,1.2165800333,2.83036470413,0.448855310678,,0.000672735739499,-0.00203343038447,-0.0125478142872,0.999918997288
1608810900486006174,,18009,,1608810900,485426480,"""world""",,,1.21661055088,2.83043718338,0.448808550835,,0.00109352322761,-0.0014658512082,-0.0121134640649,0.999925017357
1608810900495860439,,18010,,1608810900,495329678,"""world""",,,1.21658456326,2.83037662506,0.448866605759,,0.000674879702274,-0.00200378731824,-0.0125322341919,0.999919235706
1608810900505608254,,18011,,1608810900,505286477,"""world""",,,1.21661520004,2.8304438591,0.448815941811,,0.0010239641415,-0.00223000207916,-0.0125026106834,0.999918878078
1608810900515784312,,18012,,1608810900,515273938,"""world""",,,1.21663808823,2.8305182457,0.448751479387,,0.00131867884193,-0.00167003076058,-0.0120896138251,0.999924719334
1608810900525688245,,18013,,1608810900,525341993,"""world""",,,1.21661615372,2.8304464817,0.448804736137,,0.000985770951957,-0.00220041698776,-0.0125055722892,0.999918878078
1608810900626514143,,18014,,1608810900,625468662,"""world""",,,1.21661221981,2.83044147491,0.448809623718,,0.00104646733962,-0.00152863212861,-0.0120717585087,0.999925494194
1608810900626539410,,18015,,1608810900,625531174,"""world""",,,1.21660208702,2.83044099808,0.448808073997,,0.00108239240944,-0.00144853699021,-0.0121199823916,0.999924957752
1608810900658109707,,18016,,1608810900,655335808,"""world""",,,1.21664309502,2.830514431,0.448755472898,,0.00138496549334,-0.00176633277442,-0.0120572354645,0.999924778938
1608810900658141717,,18017,,1608810900,655478233,"""world""",,,1.21661770344,2.83044695854,0.448803842068,,0.00102454272565,-0.00141695968341,-0.0121061811224,0.999925196171
1608810900721629889,,18018,,1608810900,715411435,"""world""",,,1.21661055088,2.83044552803,0.448809981346,,0.00100018782541,-0.00142700935248,-0.0121141066775,0.999925076962
1608810900721649491,,18021,,1608810900,715538114,"""world""",,,1.21663486958,2.83052825928,0.448755115271,,0.00131908175536,-0.00172063254286,-0.0120886201039,0.999924659729
1608810900721660830,,18022,,1608810900,715647248,"""world""",,,1.21661150455,2.83044934273,0.448814243078,,0.0009855045937,-0.00146603642497,-0.0121079264209,0.999925136566
1608810900721781464,,18026,,1608810900,715820291,"""world""",,,1.21663880348,2.83052372932,0.448762089014,,0.00129902886692,-0.00180543889292,-0.0120696695521,0.999924778938
1608810900721794200,,18027,,1608810900,715924397,"""world""",,,1.21662402153,2.83051609993,0.448743671179,,0.00137868151069,-0.00173696747515,-0.0120993191376,0.999924361706
1608810900721837965,,18029,,1608810900,716022036,"""world""",,,1.21660900116,2.83045172691,0.448802292347,,0.00108547986019,-0.00144578970503,-0.012118444778,0.999925017357
1608810900828157591,,18030,,1608810900,825449635,"""world""",,,1.21663558483,2.83052611351,0.448751658201,,0.00131782947574,-0.00163197214715,-0.0121060693637,0.999924600124
1608810900828173895,,18031,,1608810900,825496714,"""world""",,,1.21660685539,2.83044958115,0.448806792498,,0.000994567759335,-0.00150554045103,-0.0121108200401,0.999925017357
1608810900828196111,,18032,,1608810900,825973630,"""world""",,,1.21663427353,2.83052492142,0.44876280427,,0.00132142857183,-0.0017500607064,-0.0121333012357,0.999924063683
1608810900828313826,,18050,,1608810900,826675226,"""world""",,,1.21658015251,2.8303732872,0.448852092028,,0.00061395810917,-0.00185565266293,-0.0124850487337,0.999920248985
1608810900851196592,,18051,,1608810900,836211391,"""world""",,,1.21658694744,2.83037376404,0.448847651482,,0.000713056069799,-0.00195720186457,-0.0124911516905,0.999919831753
1608810900851256494,,18052,,1608810900,845379712,"""world""",,,1.21658456326,2.83037161827,0.448857963085,,0.000674891693052,-0.00198568054475,-0.0125068388879,0.999919593334
1608810900856724029,,18053,,1608810900,855743824,"""world""",,,1.21659600735,2.83037304878,0.448853641748,,0.00064184848452,-0.00190195732284,-0.0125012332574,0.999919891357
1608810900871239662,,18054,,1608810900,865336157,"""world""",,,1.21658623219,2.83037352562,0.448859423399,,0.000656627584249,-0.00195461581461,-0.0125099690631,0.999919652939
1608810900875964456,,18055,,1608810900,875390307,"""world""",,,1.21659100056,2.83037519455,0.448858678341,,0.000689001870342,-0.00193201669026,-0.0125274881721,0.99991941452
1608810900908440796,,18056,,1608810900,905348344,"""world""",,,1.2165812254,2.83037519455,0.448858290911,,0.000654578907415,-0.00191267998889,-0.0125625040382,0.999919116497
1608810900908447285,,18057,,1608810900,905396801,"""world""",,,1.21659111977,2.83037304878,0.448859810829,,0.000671542133205,-0.00202342285775,-0.0125348446891,0.999919176102
1608810900908454403,,18058,,1608810900,905561850,"""world""",,,1.21658658981,2.83037090302,0.448856830597,,0.000634175084997,-0.00196797889657,-0.0125412056223,0.999919235706
1608810900956747218,,18059,,1608810900,955450128,"""world""",,,1.21659302711,2.83037018776,0.448858916759,,0.000628500420135,-0.00197218218818,-0.0124914450571,0.999919891357
1608810900956892343,,18064,,1608810900,955682045,"""world""",,,1.21660161018,2.83036756516,0.448859959841,,0.000686920247972,-0.00195271568373,-0.0125010265037,0.999919712543
1608810900971797858,,18065,,1608810900,965321545,"""world""",,,1.21662914753,2.83045268059,0.448802381754,,0.000981710967608,-0.0022629078012,-0.0125017734244,0.999918818474
1608810900971828098,,18067,,1608810900,965390264,"""world""",,,1.21659338474,2.83036375046,0.448865652084,,0.000659221375827,-0.00201158132404,-0.012539640069,0.999919235706
1608810900975822637,,18068,,1608810900,975326741,"""world""",,,1.21660137177,2.83036327362,0.448863357306,,0.000693088397384,-0.00197952822782,-0.012535315007,0.999919295311
1608810900985912696,,18069,,1608810900,985334595,"""world""",,,1.21659219265,2.83036851883,0.448859900236,,0.000706449674908,-0.00200372328982,-0.0125466343015,0.999919056892
1608810900995810358,,18070,,1608810900,995303327,"""world""",,,1.21660208702,2.83037209511,0.448860675097,,0.000652042683214,-0.00201276130974,-0.0125697301701,0.999918758869
1608810901006265695,,18071,,1608810901,5343444,"""world""",,,1.21659886837,2.83037233353,0.448873072863,,0.000694298592862,-0.00195609591901,-0.0125054679811,0.999919652939
1608810901015760211,,18072,,1608810901,15397649,"""world""",,,1.21662998199,2.8304464817,0.448806613684,,0.00101963593625,-0.00226456718519,-0.0125131029636,0.999918699265
1608810901025715154,,18073,,1608810901,25312575,"""world""",,,1.21660220623,2.83036804199,0.448864579201,,0.00066631345544,-0.00197151023895,-0.0125439269468,0.999919235706
1608810901035605702,,18074,,1608810901,35303006,"""world""",,,1.21663367748,2.83044290543,0.448803752661,,0.000989884254523,-0.00233824225143,-0.0124982753769,0.999918699265
1608810901036031409,,18075,,1608810901,35421523,"""world""",,,1.21662688255,2.83044457436,0.448802620173,,0.000977512332611,-0.00232991715893,-0.0125339217484,0.999918282032
1608810901045684829,,18076,,1608810901,45328217,"""world""",,,1.2166261673,2.83045220375,0.448802471161,,0.00102550955489,-0.00225026742555,-0.0124923046678,0.999918937683
1608810901056314115,,18077,,1608810901,55407229,"""world""",,,1.21664881706,2.830524683,0.448757410049,,0.00134579755832,-0.00169480184559,-0.0120779005811,0.999924719334
1608810901056563072,,18078,,1608810901,55452131,"""world""",,,1.21664524078,2.83052420616,0.448759138584,,0.00131353049073,-0.00180079613347,-0.012085147202,0.999924480915
1608810901075597487,,18079,,1608810901,75298106,"""world""",,,1.2166544199,2.83053088188,0.448769509792,,0.00136167567689,-0.00179450341966,-0.0121004777029,0.999924302101
1608810901085971341,,18080,,1608810901,85293330,"""world""",,,1.21660101414,2.83036351204,0.448864877224,,0.000710612570401,-0.00196001189761,-0.0124833583832,0.999919891357
1608810901085991988,,18081,,1608810901,85371919,"""world""",,,1.21664488316,2.8305284977,0.448763549328,,0.00129352184013,-0.00166740594432,-0.0121247535571,0.999924242496
1608810901097526562,,18082,,1608810901,95370719,"""world""",,,1.21665203571,2.83052277565,0.448757886887,,0.00133577536326,-0.00175733107608,-0.0121039636433,0.999924302101
1608810901105834989,,18083,,1608810901,105398853,"""world""",,,1.21661233902,2.83044719696,0.448816210032,,0.0010720428545,-0.00146680639591,-0.0121113723144,0.999925017357
1608810901126145863,,18084,,1608810901,125363186,"""world""",,,1.216614604,2.83045268059,0.448808729649,,0.00102059415076,-0.00226443819702,-0.0124729080126,0.999919176102
1608810901126194305,,18085,,1608810901,125405933,"""world""",,,1.21663367748,2.83052682877,0.448779672384,,0.0012943665497,-0.00184787181206,-0.0120588149875,0.999924838543
1608810901135837695,,18086,,1608810901,135302131,"""world""",,,1.21653425694,2.83053565025,0.448947519064,,0.00126534106676,-0.00253223231994,-0.0119479484856,0.999924719334
1608810901135855721,,18087,,1608810901,135328384,"""world""",,,1.21632897854,2.83045744896,0.4492649436,,0.000844363181386,-0.00342659582384,-0.0118848904967,0.999923169613
1608810901145740803,,18088,,1608810901,145303823,"""world""",,,1.21616840363,2.830545187,0.449426442385,,0.00109603488818,-0.00464773923159,-0.0117654874921,0.99991941452
1608810901156072840,,18089,,1608810901,155367564,"""world""",,,1.21605527401,2.83057594299,0.449563264847,,0.00123433885165,-0.00524612655863,-0.0117178363726,0.999916851521
1608810901166627941,,18090,,1608810901,165331929,"""world""",,,1.21605706215,2.83055233955,0.449669450521,,0.00151570339222,-0.00578221073374,-0.0121684996411,0.999908089638
1608810901176253425,,18091,,1608810901,175387446,"""world""",,,1.21631133556,2.83041834831,0.44971755147,,0.00176014890894,-0.00618497561663,-0.0135026061907,0.999888241291
1608810901176288323,,18092,,1608810901,175506581,"""world""",,,1.21700334549,2.83016896248,0.449647337198,,0.00203425949439,-0.00580153474584,-0.0155847296119,0.999859631062
1608810901196952462,,18093,,1608810901,195352306,"""world""",,,1.21827816963,2.82987117767,0.449496507645,,0.00237424043007,-0.00519365305081,-0.0168987642974,0.999840974808
1608810901197070562,,18094,,1608810901,195608200,"""world""",,,1.22016739845,2.82959723473,0.449321657419,,0.00219124415889,-0.00445157429203,-0.0169667080045,0.999843835831
1608810901206304145,,18095,,1608810901,205326925,"""world""",,,1.22251904011,2.82937812805,0.44906309247,,0.00200792844407,-0.00287552783266,-0.0164202153683,0.99985909462
1608810901223317772,,18096,,1608810901,219081057,"""world""",,,1.22512936592,2.82934975624,0.44886136055,,0.00136709748767,-0.00233302731067,-0.0148993423209,0.999885320663
1608810901225856128,,18097,,1608810901,225381030,"""world""",,,1.22776985168,2.82924318314,0.448810845613,,0.00058834993979,-0.00099794799462,-0.0139692416415,0.99990183115
1608810901236252821,,18098,,1608810901,235316898,"""world""",,,1.23032331467,2.82928657532,0.448780715466,,0.000738930539228,-0.00103797193151,-0.0127856507897,0.999917507172
1608810901246969955,,18099,,1608810901,245426086,"""world""",,,1.23262739182,2.82920479774,0.449037730694,,0.000845339149237,-0.00170020665973,-0.0115471482277,0.999931573868
1608810901247001160,,18100,,1608810901,245472844,"""world""",,,1.23475778103,2.82931756973,0.449210554361,,0.000776183209382,-0.00188409327529,-0.0104705216363,0.999943137169
1608810901256307587,,18101,,1608810901,255322241,"""world""",,,1.23679363728,2.82962417603,0.449155151844,,0.000317618018016,-0.00094015878858,-0.00888240337372,0.999960064888
1608810901265862124,,18102,,1608810901,265323047,"""world""",,,1.23825109005,2.82984757423,0.449043989182,,0.000245217146585,-0.000684405211359,-0.00783987343311,0.999969005585
1608810901276493467,,18103,,1608810901,275374802,"""world""",,,1.23944461346,2.83017992973,0.44887688756,,0.000482130621094,-0.00110675976612,-0.00728335045278,0.999972760677
