rosbagTimestamp,transforms,-,header,seq,stamp,secs,nsecs,frame_id,child_frame_id,transform,translation,x,y,z,rotation,x,y,z,w
1608810897457282391,,,0,,1608810897,455275875,"""odom""","""base_footprint""",,,-0.157625894297,-7.62263615038,0.0,,0.0,0.0,-0.634865370985,0.772622780355
1608810897457298382,,,0,,1608810897,470415692,"""odom""","""base_footprint""",,,-0.157625894297,-7.62263615038,0.0,,0.0,0.0,-0.634865370985,0.772622780355
1608810897509966958,,,0,,1608810897,490389609,"""odom""","""base_footprint""",,,-0.157625894297,-7.62263615038,0.0,,0.0,0.0,-0.634865370985,0.772622780355
1608810897510010141,,,0,,1608810897,510412880,"""odom""","""base_footprint""",,,-0.157625894297,-7.62263615038,0.0,,0.0,0.0,-0.634865370985,0.772622780355
1608810897510026385,,,0,,1608810897,530916845,"""odom""","""base_footprint""",,,-0.157625894297,-7.62263615038,0.0,,0.0,0.0,-0.634865370985,0.772622780355
1608810897525031154,,,0,,1608810897,528848977,"""odom""","""base_footprint""",,,9.49185930398,-1.13518402336,0.0,,0.0,0.0,-0.145737698481,0.989323265289
1608810897552753603,,,0,,1608810897,548778812,"""odom""","""base_footprint""",,,9.49185930398,-1.13518402336,0.0,,0.0,0.0,-0.145737698481,0.989323265289
1608810897557861435,,,0,,1608810897,550463218,"""odom""","""base_footprint""",,,-0.157625894297,-7.62263615038,0.0,,0.0,0.0,-0.634865370985,0.772622780355
1608810897557895006,,,0,,1608810897,570778235,"""odom""","""base_footprint""",,,-0.157625894297,-7.62263615038,0.0,,0.0,0.0,-0.634865370985,0.772622780355
1608810897574230687,,,0,,1608810897,568710689,"""odom""","""base_footprint""",,,9.49185930398,-1.13518402336,0.0,,0.0,0.0,-0.145737698481,0.989323265289
1608810897574553592,,,0,,1608810897,589921250,"""base_link""","""wheel_left_link""",,,0.0,0.115,0.025,,-0.683708502047,-0.180395909672,-0.180395909673,0.68370850205,,0,,1608810897,589921250,"""base_link""","""wheel_right_link""",,,0.0,-0.115,0.025,,-0.116827283299,0.697388977454,0.697388977458,0.1168272833
1608810897575266376,,,0,,1608810897,593102763,"""odom""","""base_footprint""",,,-0.157625894297,-7.62263615038,0.0,,0.0,0.0,-0.634865370985,0.772622780355
1608810897575352027,,,0,,1608810897,609278438,"""odom""","""base_footprint""",,,-0.157625894297,-7.62263615038,0.0,,0.0,0.0,-0.634865370985,0.772622780355
1608810897591915635,,,0,,1608810897,630474824,"""base_link""","""wheel_left_link""",,,0.0,0.115,0.025,,-0.0652959730857,0.704085531662,0.704085531666,0.0652959730861,,0,,1608810897,630474824,"""base_link""","""wheel_right_link""",,,0.0,-0.115,0.025,,0.12069221851,0.696730499109,0.696730499112,-0.120692218511
1608810897592304440,,,0,,1608810897,630363558,"""odom""","""base_footprint""",,,-0.157625894297,-7.62263615038,0.0,,0.0,0.0,-0.634865370985,0.772622780355
1608810897592694063,,,0,,1608810897,589784456,"""odom""","""base_footprint""",,,9.49185930398,-1.13518402336,0.0,,0.0,0.0,-0.145737698481,0.989323265289
1608810897592712170,,,0,,1608810897,608979282,"""odom""","""base_footprint""",,,9.49185930398,-1.13518402336,0.0,,0.0,0.0,-0.145737698481,0.989323265289
1608810897611843762,,,0,,1608810897,533162418,"""base_link""","""wheel_left_link""",,,0.0,0.115,0.025,,-0.111174435901,0.698312426353,0.698312426357,0.111174435902,,0,,1608810897,533162418,"""base_link""","""wheel_right_link""",,,0.0,-0.115,0.025,,-0.705619069432,0.045844616386,0.0458446163862,0.705619069435
1608810897621716076,,,0,,1608810897,485327772,"""base_link""","""wheel_left_link""",,,0.0,0.115,0.025,,-0.702213643313,0.0830421528083,0.0830421528087,0.702213643316,,0,,1608810897,485327772,"""base_link""","""wheel_right_link""",,,0.0,-0.115,0.025,,-0.540138203027,-0.456344959026,-0.456344959028,0.540138203029
1608810897629642914,,,0,,1608810897,407210979,"""odom""","""base_footprint""",,,13.9194349492,-0.0969709513404,0.0,,0.0,0.0,-0.356901043325,0.934142197566
1608810897629662370,,,0,,1608810897,425359431,"""odom""","""base_footprint""",,,13.9194349492,-0.0969709513404,0.0,,0.0,0.0,-0.356901043325,0.934142197566
1608810897629670175,,,0,,1608810897,445351891,"""odom""","""base_footprint""",,,13.9194349492,-0.0969709513404,0.0,,0.0,0.0,-0.356901043325,0.934142197566
1608810897629684026,,,0,,1608810897,465222157,"""odom""","""base_footprint""",,,13.9194349492,-0.0969709513404,0.0,,0.0,0.0,-0.356901043325,0.934142197566
1608810897629691209,,,0,,1608810897,485238824,"""odom""","""base_footprint""",,,13.9194349492,-0.0969709513404,0.0,,0.0,0.0,-0.356901043325,0.934142197566
1608810897645770826,,,0,,1608810897,628814908,"""odom""","""base_footprint""",,,9.49185930398,-1.13518402336,0.0,,0.0,0.0,-0.145737698481,0.989323265289
1608810897645794948,,,0,,1608810897,648855579,"""odom""","""base_footprint""",,,9.49185930398,-1.13518402336,0.0,,0.0,0.0,-0.145737698481,0.989323265289
1608810897654648293,,,0,,1608810897,650308271,"""odom""","""base_footprint""",,,-0.157625894297,-7.62263615038,0.0,,0.0,0.0,-0.634865370985,0.772622780355
1608810897654735129,,,0,,1608810897,670912989,"""odom""","""base_footprint""",,,-0.157625894297,-7.62263615038,0.0,,0.0,0.0,-0.634865370985,0.772622780355
1608810897668064205,,,0,,1608810897,669795760,"""odom""","""base_footprint""",,,9.49185930398,-1.13518402336,0.0,,0.0,0.0,-0.145737698481,0.989323265289
1608810897685969080,,,0,,1608810897,690105705,"""odom""","""base_footprint""",,,-0.157625894297,-7.62263615038,0.0,,0.0,0.0,-0.634865370985,0.772622780355
1608810897686032853,,,0,,1608810897,710274995,"""odom""","""base_footprint""",,,-0.157625894297,-7.62263615038,0.0,,0.0,0.0,-0.634865370985,0.772622780355
1608810897686194793,,,0,,1608810897,505514170,"""odom""","""base_footprint""",,,13.9194349492,-0.0969709513404,0.0,,0.0,0.0,-0.356901043325,0.934142197566
1608810897686225905,,,0,,1608810897,525446846,"""odom""","""base_footprint""",,,13.9194349492,-0.0969709513404,0.0,,0.0,0.0,-0.356901043325,0.934142197566
1608810897686262623,,,0,,1608810897,545444848,"""odom""","""base_footprint""",,,13.9194349492,-0.0969709513404,0.0,,0.0,0.0,-0.356901043325,0.934142197566
1608810897686272933,,,0,,1608810897,564462372,"""odom""","""base_footprint""",,,13.9194349492,-0.0969709513404,0.0,,0.0,0.0,-0.356901043325,0.934142197566
1608810897686283564,,,0,,1608810897,585699240,"""odom""","""base_footprint""",,,13.9194349492,-0.0969709513404,0.0,,0.0,0.0,-0.356901043325,0.934142197566
1608810897686293728,,,0,,1608810897,605684702,"""odom""","""base_footprint""",,,13.9194349492,-0.0969709513404,0.0,,0.0,0.0,-0.356901043325,0.934142197566
1608810897686361106,,,0,,1608810897,625671330,"""odom""","""base_footprint""",,,13.9194349492,-0.0969709513404,0.0,,0.0,0.0,-0.356901043325,0.934142197566
1608810897694961235,,,0,,1608810897,688873335,"""odom""","""base_footprint""",,,9.49185930398,-1.13518402336,0.0,,0.0,0.0,-0.145737698481,0.989323265289
1608810897694972433,,,0,,1608810897,708825921,"""odom""","""base_footprint""",,,9.49185930398,-1.13518402336,0.0,,0.0,0.0,-0.145737698481,0.989323265289
1608810897706605171,,,0,,1608810897,731036829,"""odom""","""base_footprint""",,,-0.157625894297,-7.62263615038,0.0,,0.0,0.0,-0.634865370985,0.772622780355
1608810897706619008,,,0,,1608810897,750815957,"""odom""","""base_footprint""",,,-0.157625894297,-7.62263615038,0.0,,0.0,0.0,-0.634865370985,0.772622780355
1608810897719766011,,,0,,1608810897,728814966,"""odom""","""base_footprint""",,,9.49185930398,-1.13518402336,0.0,,0.0,0.0,-0.145737698481,0.989323265289
1608810897730163282,,,0,,1608810897,770890918,"""odom""","""base_footprint""",,,-0.157625894297,-7.62263615038,0.0,,0.0,0.0,-0.634865370985,0.772622780355
1608810897730500231,,,0,,1608810897,685859856,"""base_link""","""wheel_left_link""",,,0.0,0.115,0.025,,-0.702213643313,0.0830421528083,0.0830421528087,0.702213643316,,0,,1608810897,685859856,"""base_link""","""wheel_right_link""",,,0.0,-0.115,0.025,,-0.540138203027,-0.456344959026,-0.456344959028,0.540138203029
1608810897730934245,,,0,,1608810897,649141830,"""odom""","""base_footprint""",,,13.9194349492,-0.0969709513404,0.0,,0.0,0.0,-0.356901043325,0.934142197566
1608810897730969606,,,0,,1608810897,665944095,"""odom""","""base_footprint""",,,13.9194349492,-0.0969709513404,0.0,,0.0,0.0,-0.356901043325,0.934142197566
1608810897730988942,,,0,,1608810897,685644046,"""odom""","""base_footprint""",,,13.9194349492,-0.0969709513404,0.0,,0.0,0.0,-0.356901043325,0.934142197566
1608810897731040631,,,0,,1608810897,705643506,"""odom""","""base_footprint""",,,13.9194349492,-0.0969709513404,0.0,,0.0,0.0,-0.356901043325,0.934142197566
1608810897747770549,,,0,,1608810897,789870155,"""odom""","""base_footprint""",,,-0.157625894297,-7.62263615038,0.0,,0.0,0.0,-0.634865370985,0.772622780355
1608810897749440452,,,0,,1608810897,749464935,"""odom""","""base_footprint""",,,9.49185930398,-1.13518402336,0.0,,0.0,0.0,-0.145737698481,0.989323265289
1608810897755527426,,,0,,1608810897,725613510,"""odom""","""base_footprint""",,,13.9194349492,-0.0969709513404,0.0,,0.0,0.0,-0.356901043325,0.934142197566
1608810897766019674,,,0,,1608810897,809978701,"""odom""","""base_footprint""",,,-0.157625894297,-7.62263615038,0.0,,0.0,0.0,-0.634865370985,0.772622780355
1608810897776271612,,,0,,1608810897,746404176,"""odom""","""base_footprint""",,,13.9194349492,-0.0969709513404,0.0,,0.0,0.0,-0.356901043325,0.934142197566
1608810897787139232,,,0,,1608810897,769989778,"""odom""","""base_footprint""",,,9.49185930398,-1.13518402336,0.0,,0.0,0.0,-0.145737698481,0.989323265289
1608810897787142547,,,0,,1608810897,790334369,"""odom""","""base_footprint""",,,9.49185930398,-1.13518402336,0.0,,0.0,0.0,-0.145737698481,0.989323265289
1608810897787306589,,,0,,1608810897,790721708,"""base_link""","""wheel_left_link""",,,0.0,0.115,0.025,,-0.683708502047,-0.180395909672,-0.180395909673,0.68370850205,,0,,1608810897,790721708,"""base_link""","""wheel_right_link""",,,0.0,-0.115,0.025,,-0.116827283299,0.697388977454,0.697388977458,0.1168272833
1608810897787821683,,,0,,1608810897,532927004,"""odom""","""base_footprint""",,,5.58619995433,11.7015529735,0.0,,0.0,0.0,0.78671958787,0.617310529686
1608810897787831504,,,0,,1608810897,553760389,"""odom""","""base_footprint""",,,5.58619995433,11.7015529735,0.0,,0.0,0.0,0.78671958787,0.617310529686
1608810897787898408,,,0,,1608810897,572802354,"""odom""","""base_footprint""",,,5.58619995433,11.7015529735,0.0,,0.0,0.0,0.78671958787,0.617310529686
1608810897787904665,,,0,,1608810897,591752428,"""odom""","""base_footprint""",,,5.58619995433,11.7015529735,0.0,,0.0,0.0,0.78671958787,0.617310529686
1608810897787958011,,,0,,1608810897,613285636,"""odom""","""base_footprint""",,,5.58619995433,11.7015529735,0.0,,0.0,0.0,0.78671958787,0.617310529686
1608810897787968269,,,0,,1608810897,633166281,"""odom""","""base_footprint""",,,5.58619995433,11.7015529735,0.0,,0.0,0.0,0.78671958787,0.617310529686
1608810897789789988,,,0,,1608810897,734355963,"""base_link""","""wheel_left_link""",,,0.0,0.115,0.025,,-0.111174435901,0.698312426353,0.698312426357,0.111174435902,,0,,1608810897,734355963,"""base_link""","""wheel_right_link""",,,0.0,-0.115,0.025,,-0.705619069432,0.045844616386,0.0458446163862,0.705619069435
1608810897789843637,,,0,,1608810897,831170123,"""odom""","""base_footprint""",,,-0.157625894297,-7.62263615038,0.0,,0.0,0.0,-0.634865370985,0.772622780355
1608810897789932990,,,0,,1608810897,831427116,"""base_link""","""wheel_left_link""",,,0.0,0.115,0.025,,-0.0652959730857,0.704085531662,0.704085531666,0.0652959730861,,0,,1608810897,831427116,"""base_link""","""wheel_right_link""",,,0.0,-0.115,0.025,,0.12069221851,0.696730499109,0.696730499112,-0.120692218511
1608810897804106928,,,0,,1608810897,765592308,"""odom""","""base_footprint""",,,13.9194349492,-0.0969709513404,0.0,,0.0,0.0,-0.356901043325,0.934142197566
1608810897804200845,,,0,,1608810897,785575436,"""odom""","""base_footprint""",,,13.9194349492,-0.0969709513404,0.0,,0.0,0.0,-0.356901043325,0.934142197566
1608810897804777164,,,0,,1608810897,849970340,"""odom""","""base_footprint""",,,-0.157625894297,-7.62263615038,0.0,,0.0,0.0,-0.634865370985,0.772622780355
1608810897815834558,,,0,,1608810897,809308401,"""odom""","""base_footprint""",,,9.49185930398,-1.13518402336,0.0,,0.0,0.0,-0.145737698481,0.989323265289
1608810897816413519,,,0,,1608810897,655287293,"""odom""","""base_footprint""",,,5.58619995433,11.7015529735,0.0,,0.0,0.0,0.78671958787,0.617310529686
1608810897816443078,,,0,,1608810897,675096176,"""odom""","""base_footprint""",,,5.58619995433,11.7015529735,0.0,,0.0,0.0,0.78671958787,0.617310529686
1608810897816452819,,,0,,1608810897,693674898,"""odom""","""base_footprint""",,,5.58619995433,11.7015529735,0.0,,0.0,0.0,0.78671958787,0.617310529686
1608810897816466572,,,0,,1608810897,713687981,"""odom""","""base_footprint""",,,5.58619995433,11.7015529735,0.0,,0.0,0.0,0.78671958787,0.617310529686
1608810897816471903,,,0,,1608810897,733851880,"""odom""","""base_footprint""",,,5.58619995433,11.7015529735,0.0,,0.0,0.0,0.78671958787,0.617310529686
1608810897816484351,,,0,,1608810897,753892093,"""odom""","""base_footprint""",,,5.58619995433,11.7015529735,0.0,,0.0,0.0,0.78671958787,0.617310529686
1608810897816516879,,,0,,1608810897,775128335,"""odom""","""base_footprint""",,,5.58619995433,11.7015529735,0.0,,0.0,0.0,0.78671958787,0.617310529686
1608810897816529693,,,0,,1608810897,794032319,"""odom""","""base_footprint""",,,5.58619995433,11.7015529735,0.0,,0.0,0.0,0.78671958787,0.617310529686
1608810897816537636,,,0,,1608810897,814683673,"""odom""","""base_footprint""",,,5.58619995433,11.7015529735,0.0,,0.0,0.0,0.78671958787,0.617310529686
1608810897830731396,,,0,,1608810897,869955062,"""odom""","""base_footprint""",,,-0.157625894297,-7.62263615038,0.0,,0.0,0.0,-0.634865370985,0.772622780355
1608810897840131518,,,0,,1608810897,830745881,"""odom""","""base_footprint""",,,9.49185930398,-1.13518402336,0.0,,0.0,0.0,-0.145737698481,0.989323265289
1608810897840146620,,,0,,1608810897,851985900,"""odom""","""base_footprint""",,,9.49185930398,-1.13518402336,0.0,,0.0,0.0,-0.145737698481,0.989323265289
1608810897846371674,,,0,,1608810897,836273766,"""odom""","""base_footprint""",,,5.58619995433,11.7015529735,0.0,,0.0,0.0,0.78671958787,0.617310529686
1608810897846389079,,,0,,1608810897,853547356,"""odom""","""base_footprint""",,,5.58619995433,11.7015529735,0.0,,0.0,0.0,0.78671958787,0.617310529686
1608810897852499917,,,0,,1608810897,889997024,"""odom""","""base_footprint""",,,-0.157625894297,-7.62263615038,0.0,,0.0,0.0,-0.634865370985,0.772622780355
1608810897858070097,,,0,,1608810897,868999615,"""odom""","""base_footprint""",,,9.49185930398,-1.13518402336,0.0,,0.0,0.0,-0.145737698481,0.989323265289
1608810897866466910,,,0,,1608810897,805600268,"""odom""","""base_footprint""",,,13.9194349492,-0.0969709513404,0.0,,0.0,0.0,-0.356901043325,0.934142197566
1608810897878613581,,,0,,1608810897,873562481,"""odom""","""base_footprint""",,,5.58619995433,11.7015529735,0.0,,0.0,0.0,0.78671958787,0.617310529686
1608810897882461977,,,0,,1608810897,910005109,"""odom""","""base_footprint""",,,-0.157625894297,-7.62263615038,0.0,,0.0,0.0,-0.634865370985,0.772622780355
1608810897882717086,,,0,,1608810897,888705739,"""odom""","""base_footprint""",,,9.49185930398,-1.13518402336,0.0,,0.0,0.0,-0.145737698481,0.989323265289
1608810897899463550,,,0,,1608810897,824617210,"""odom""","""base_footprint""",,,13.9194349492,-0.0969709513404,0.0,,0.0,0.0,-0.356901043325,0.934142197566
1608810897899524619,,,0,,1608810897,845460078,"""odom""","""base_footprint""",,,13.9194349492,-0.0969709513404,0.0,,0.0,0.0,-0.356901043325,0.934142197566
1608810897899621419,,,0,,1608810897,865449331,"""odom""","""base_footprint""",,,13.9194349492,-0.0969709513404,0.0,,0.0,0.0,-0.356901043325,0.934142197566
1608810897901508400,,,0,,1608810897,894584897,"""odom""","""base_footprint""",,,5.58619995433,11.7015529735,0.0,,0.0,0.0,0.78671958787,0.617310529686
1608810897903268034,,,0,,1608810897,908679909,"""odom""","""base_footprint""",,,9.49185930398,-1.13518402336,0.0,,0.0,0.0,-0.145737698481,0.989323265289
1608810897907531462,,,0,,1608810897,931278301,"""odom""","""base_footprint""",,,-0.157625894297,-7.62263615038,0.0,,0.0,0.0,-0.634865370985,0.772622780355
1608810897920026794,,,0,,1608810897,905727637,"""base_link""","""wheel_left_link""",,,0.0,0.115,0.025,,-0.702213643313,0.0830421528083,0.0830421528087,0.702213643316,,0,,1608810897,905727637,"""base_link""","""wheel_right_link""",,,0.0,-0.115,0.025,,-0.540138203027,-0.456344959026,-0.456344959028,0.540138203029
1608810897920067023,,,0,,1608810897,928685579,"""odom""","""base_footprint""",,,9.49185930398,-1.13518402336,0.0,,0.0,0.0,-0.145737698481,0.989323265289
1608810897925626036,,,0,,1608810897,885455790,"""odom""","""base_footprint""",,,13.9194349492,-0.0969709513404,0.0,,0.0,0.0,-0.356901043325,0.934142197566
1608810897925672261,,,0,,1608810897,905462541,"""odom""","""base_footprint""",,,13.9194349492,-0.0969709513404,0.0,,0.0,0.0,-0.356901043325,0.934142197566
1608810897926175096,,,0,,1608810897,915473707,"""odom""","""base_footprint""",,,5.58619995433,11.7015529735,0.0,,0.0,0.0,0.78671958787,0.617310529686
1608810897926285745,,,0,,1608810897,935787548,"""base_link""","""wheel_left_link""",,,0.0,0.115,0.025,,-0.111174435901,0.698312426353,0.698312426357,0.111174435902,,0,,1608810897,935787548,"""base_link""","""wheel_right_link""",,,0.0,-0.115,0.025,,-0.705619069432,0.045844616386,0.0458446163862,0.705619069435
1608810897935749491,,,0,,1608810897,949940385,"""odom""","""base_footprint""",,,-0.157625894297,-7.62263615038,0.0,,0.0,0.0,-0.634865370985,0.772622780355
1608810897935791639,,,0,,1608810897,969957815,"""odom""","""base_footprint""",,,-0.157625894297,-7.62263615038,0.0,,0.0,0.0,-0.634865370985,0.772622780355
1608810897935933226,,,0,,1608810897,948693873,"""odom""","""base_footprint""",,,9.49185930398,-1.13518402336,0.0,,0.0,0.0,-0.145737698481,0.989323265289
1608810897956233200,,,0,,1608810897,925456460,"""odom""","""base_footprint""",,,13.9194349492,-0.0969709513404,0.0,,0.0,0.0,-0.356901043325,0.934142197566
1608810897959177406,,,0,,1608810897,935454118,"""odom""","""base_footprint""",,,5.58619995433,11.7015529735,0.0,,0.0,0.0,0.78671958787,0.617310529686
1608810897959192124,,,0,,1608810897,954452909,"""odom""","""base_footprint""",,,5.58619995433,11.7015529735,0.0,,0.0,0.0,0.78671958787,0.617310529686
1608810897963375760,,,0,,1608810897,968695168,"""odom""","""base_footprint""",,,9.49185930398,-1.13518402336,0.0,,0.0,0.0,-0.145737698481,0.989323265289
1608810897971066810,,,0,,1608810897,990012918,"""odom""","""base_footprint""",,,-0.157625894297,-7.62263615038,0.0,,0.0,0.0,-0.634865370985,0.772622780355
1608810897983575533,,,0,,1608810897,976456069,"""odom""","""base_footprint""",,,5.58619995433,11.7015529735,0.0,,0.0,0.0,0.78671958787,0.617310529686
1608810897983668019,,,0,,1608810897,993893603,"""odom""","""base_footprint""",,,5.58619995433,11.7015529735,0.0,,0.0,0.0,0.78671958787,0.617310529686
1608810897983973300,,,0,,1608810898,31472365,"""base_link""","""wheel_left_link""",,,0.0,0.115,0.025,,-0.0652959730857,0.704085531662,0.704085531666,0.0652959730861,,0,,1608810898,31472365,"""base_link""","""wheel_right_link""",,,0.0,-0.115,0.025,,0.12069221851,0.696730499109,0.696730499112,-0.120692218511
1608810897986128298,,,0,,1608810897,945430256,"""odom""","""base_footprint""",,,13.9194349492,-0.0969709513404,0.0,,0.0,0.0,-0.356901043325,0.934142197566
1608810897986131629,,,0,,1608810897,965464712,"""odom""","""base_footprint""",,,13.9194349492,-0.0969709513404,0.0,,0.0,0.0,-0.356901043325,0.934142197566
1608810897997043226,,,0,,1608810898,10004794,"""odom""","""base_footprint""",,,-0.157625894297,-7.62263615038,0.0,,0.0,0.0,-0.634865370985,0.772622780355
1608810897997054473,,,0,,1608810898,31243138,"""odom""","""base_footprint""",,,-0.157625894297,-7.62263615038,0.0,,0.0,0.0,-0.634865370985,0.772622780355
1608810897997314763,,,0,,1608810897,989694267,"""odom""","""base_footprint""",,,9.49185930398,-1.13518402336,0.0,,0.0,0.0,-0.145737698481,0.989323265289
1608810897997447223,,,0,,1608810898,9019179,"""base_link""","""wheel_left_link""",,,0.0,0.115,0.025,,-0.683708502047,-0.180395909672,-0.180395909673,0.68370850205,,0,,1608810898,9019179,"""base_link""","""wheel_right_link""",,,0.0,-0.115,0.025,,-0.116827283299,0.697388977454,0.697388977458,0.1168272833
1608810897998941073,,,0,,1608810898,13882470,"""odom""","""base_footprint""",,,5.58619995433,11.7015529735,0.0,,0.0,0.0,0.78671958787,0.617310529686
1608810898013146165,,,0,,1608810897,985444924,"""odom""","""base_footprint""",,,13.9194349492,-0.0969709513404,0.0,,0.0,0.0,-0.356901043325,0.934142197566
1608810898021141972,,,0,,1608810898,50061399,"""odom""","""base_footprint""",,,-0.157625894297,-7.62263615038,0.0,,0.0,0.0,-0.634865370985,0.772622780355
1608810898031383534,,,0,,1608810898,34904292,"""odom""","""base_footprint""",,,5.58619995433,11.7015529735,0.0,,0.0,0.0,0.78671958787,0.617310529686
1608810898031872741,,,0,,1608810898,5467715,"""odom""","""base_footprint""",,,13.9194349492,-0.0969709513404,0.0,,0.0,0.0,-0.356901043325,0.934142197566
1608810898034592517,,,0,,1608810898,8703591,"""odom""","""base_footprint""",,,9.49185930398,-1.13518402336,0.0,,0.0,0.0,-0.145737698481,0.989323265289
1608810898034615337,,,0,,1608810898,28687387,"""odom""","""base_footprint""",,,9.49185930398,-1.13518402336,0.0,,0.0,0.0,-0.145737698481,0.989323265289
1608810898045503049,,,0,,1608810898,53858733,"""odom""","""base_footprint""",,,5.58619995433,11.7015529735,0.0,,0.0,0.0,0.78671958787,0.617310529686
1608810898046771940,,,0,,1608810898,25430154,"""odom""","""base_footprint""",,,13.9194349492,-0.0969709513404,0.0,,0.0,0.0,-0.356901043325,0.934142197566
1608810898059762268,,,0,,1608810898,50034449,"""odom""","""base_footprint""",,,9.49185930398,-1.13518402336,0.0,,0.0,0.0,-0.145737698481,0.989323265289
1608810898059836702,,,0,,1608810898,69280610,"""odom""","""base_footprint""",,,9.49185930398,-1.13518402336,0.0,,0.0,0.0,-0.145737698481,0.989323265289
1608810898060577582,,,0,,1608810898,46104473,"""odom""","""base_footprint""",,,13.9194349492,-0.0969709513404,0.0,,0.0,0.0,-0.356901043325,0.934142197566
1608810898061103343,,,0,,1608810898,73847594,"""odom""","""base_footprint""",,,5.58619995433,11.7015529735,0.0,,0.0,0.0,0.78671958787,0.617310529686
1608810898068791876,,,0,,1608810898,70144355,"""odom""","""base_footprint""",,,-0.157625894297,-7.62263615038,0.0,,0.0,0.0,-0.634865370985,0.772622780355
1608810898075367991,,,0,,1608810898,65457976,"""odom""","""base_footprint""",,,13.9194349492,-0.0969709513404,0.0,,0.0,0.0,-0.356901043325,0.934142197566
1608810898075510991,,,0,,1608810898,93877003,"""odom""","""base_footprint""",,,5.58619995433,11.7015529735,0.0,,0.0,0.0,0.78671958787,0.617310529686
1608810898075946144,,,0,,1608810898,89166404,"""odom""","""base_footprint""",,,9.49185930398,-1.13518402336,0.0,,0.0,0.0,-0.145737698481,0.989323265289
1608810898090850530,,,0,,1608810898,90117806,"""odom""","""base_footprint""",,,-0.157625894297,-7.62263615038,0.0,,0.0,0.0,-0.634865370985,0.772622780355
1608810898090883217,,,0,,1608810898,110099142,"""odom""","""base_footprint""",,,-0.157625894297,-7.62263615038,0.0,,0.0,0.0,-0.634865370985,0.772622780355
1608810898091052622,,,0,,1608810898,134649843,"""odom""","""base_footprint""",,,-0.157625894297,-7.62263615038,0.0,,0.0,0.0,-0.634865370985,0.772622780355
1608810898095520069,,,0,,1608810898,109147574,"""odom""","""base_footprint""",,,9.49185930398,-1.13518402336,0.0,,0.0,0.0,-0.145737698481,0.989323265289
1608810898095886089,,,0,,1608810898,113898536,"""odom""","""base_footprint""",,,5.58619995433,11.7015529735,0.0,,0.0,0.0,0.78671958787,0.617310529686
1608810898109251887,,,0,,1608810898,85740629,"""odom""","""base_footprint""",,,13.9194349492,-0.0969709513404,0.0,,0.0,0.0,-0.356901043325,0.934142197566
1608810898120648259,,,0,,1608810898,133903732,"""odom""","""base_footprint""",,,5.58619995433,11.7015529735,0.0,,0.0,0.0,0.78671958787,0.617310529686
1608810898121133198,,,0,,1608810898,129156745,"""odom""","""base_footprint""",,,9.49185930398,-1.13518402336,0.0,,0.0,0.0,-0.145737698481,0.989323265289
1608810898121556828,,,0,,1608810898,150765557,"""odom""","""base_footprint""",,,-0.157625894297,-7.62263615038,0.0,,0.0,0.0,-0.634865370985,0.772622780355
1608810898129256213,,,0,,1608810898,105433595,"""odom""","""base_footprint""",,,13.9194349492,-0.0969709513404,0.0,,0.0,0.0,-0.356901043325,0.934142197566
1608810898141657588,,,0,,1608810898,154901342,"""odom""","""base_footprint""",,,5.58619995433,11.7015529735,0.0,,0.0,0.0,0.78671958787,0.617310529686
1608810898141864868,,,0,,1608810898,155094457,"""base_link""","""wheel_left_link""",,,0.0,0.115,0.025,,-0.111174435901,0.698312426353,0.698312426357,0.111174435902,,0,,1608810898,155094457,"""base_link""","""wheel_right_link""",,,0.0,-0.115,0.025,,-0.705619069432,0.045844616386,0.0458446163862,0.705619069435
1608810898141888740,,,0,,1608810898,125668712,"""base_link""","""wheel_left_link""",,,0.0,0.115,0.025,,-0.702213643313,0.0830421528083,0.0830421528087,0.702213643316,,0,,1608810898,125668712,"""base_link""","""wheel_right_link""",,,0.0,-0.115,0.025,,-0.540138203027,-0.456344959026,-0.456344959028,0.540138203029
1608810898142191649,,,0,,1608810898,150304013,"""odom""","""base_footprint""",,,9.49185930398,-1.13518402336,0.0,,0.0,0.0,-0.145737698481,0.989323265289
1608810898152537954,,,0,,1608810898,125407407,"""odom""","""base_footprint""",,,13.9194349492,-0.0969709513404,0.0,,0.0,0.0,-0.356901043325,0.934142197566
1608810898158304370,,,0,,1608810898,170817267,"""odom""","""base_footprint""",,,-0.157625894297,-7.62263615038,0.0,,0.0,0.0,-0.634865370985,0.772622780355
1608810898158563061,,,0,,1608810898,192811133,"""odom""","""base_footprint""",,,-0.157625894297,-7.62263615038,0.0,,0.0,0.0,-0.634865370985,0.772622780355
1608810898159269587,,,0,,1608810898,174983551,"""odom""","""base_footprint""",,,5.58619995433,11.7015529735,0.0,,0.0,0.0,0.78671958787,0.617310529686
1608810898162596073,,,0,,1608810898,169196962,"""odom""","""base_footprint""",,,9.49185930398,-1.13518402336,0.0,,0.0,0.0,-0.145737698481,0.989323265289
1608810898168798152,,,0,,1608810898,145414464,"""odom""","""base_footprint""",,,13.9194349492,-0.0969709513404,0.0,,0.0,0.0,-0.356901043325,0.934142197566
1608810898179586632,,,0,,1608810898,210249358,"""odom""","""base_footprint""",,,-0.157625894297,-7.62263615038,0.0,,0.0,0.0,-0.634865370985,0.772622780355
1608810898189615502,,,0,,1608810898,190232228,"""odom""","""base_footprint""",,,9.49185930398,-1.13518402336,0.0,,0.0,0.0,-0.145737698481,0.989323265289
1608810898190164538,,,0,,1608810898,209477223,"""base_link""","""wheel_left_link""",,,0.0,0.115,0.025,,-0.683708502047,-0.180395909672,-0.180395909673,0.68370850205,,0,,1608810898,209477223,"""base_link""","""wheel_right_link""",,,0.0,-0.115,0.025,,-0.116827283299,0.697388977454,0.697388977458,0.1168272833
1608810898192475363,,,0,,1608810898,164438127,"""odom""","""base_footprint""",,,13.9194349492,-0.0969709513404,0.0,,0.0,0.0,-0.356901043325,0.934142197566
1608810898192612167,,,0,,1608810898,194878188,"""odom""","""base_footprint""",,,5.58619995433,11.7015529735,0.0,,0.0,0.0,0.78671958787,0.617310529686
1608810898211285290,,,0,,1608810898,230609430,"""odom""","""base_footprint""",,,-0.157625894297,-7.62263615038,0.0,,0.0,0.0,-0.634865370985,0.772622780355
1608810898211741414,,,0,,1608810898,250518056,"""base_link""","""wheel_left_link""",,,0.0,0.115,0.025,,-0.0652959730857,0.704085531662,0.704085531666,0.0652959730861,,0,,1608810898,250518056,"""base_link""","""wheel_right_link""",,,0.0,-0.115,0.025,,0.12069221851,0.696730499109,0.696730499112,-0.120692218511
1608810898212219117,,,0,,1608810898,209165719,"""odom""","""base_footprint""",,,9.49185930398,-1.13518402336,0.0,,0.0,0.0,-0.145737698481,0.989323265289
1608810898214114849,,,0,,1608810898,184424187,"""odom""","""base_footprint""",,,13.9194349492,-0.0969709513404,0.0,,0.0,0.0,-0.356901043325,0.934142197566
1608810898226248295,,,0,,1608810898,214895345,"""odom""","""base_footprint""",,,5.58619995433,11.7015529735,0.0,,0.0,0.0,0.78671958787,0.617310529686
1608810898229318893,,,0,,1608810898,204677385,"""odom""","""base_footprint""",,,13.9194349492,-0.0969709513404,0.0,,0.0,0.0,-0.356901043325,0.934142197566
1608810898235060093,,,0,,1608810898,250285616,"""odom""","""base_footprint""",,,-0.157625894297,-7.62263615038,0.0,,0.0,0.0,-0.634865370985,0.772622780355
1608810898235160906,,,0,,1608810898,269318213,"""odom""","""base_footprint""",,,-0.157625894297,-7.62263615038,0.0,,0.0,0.0,-0.634865370985,0.772622780355
1608810898236840133,,,0,,1608810898,230554199,"""odom""","""base_footprint""",,,9.49185930398,-1.13518402336,0.0,,0.0,0.0,-0.145737698481,0.989323265289
1608810898236921009,,,0,,1608810898,249044058,"""odom""","""base_footprint""",,,9.49185930398,-1.13518402336,0.0,,0.0,0.0,-0.145737698481,0.989323265289
1608810898252247367,,,0,,1608810898,235840154,"""odom""","""base_footprint""",,,5.58619995433,11.7015529735,0.0,,0.0,0.0,0.78671958787,0.617310529686
1608810898252276118,,,0,,1608810898,255364897,"""odom""","""base_footprint""",,,5.58619995433,11.7015529735,0.0,,0.0,0.0,0.78671958787,0.617310529686
1608810898252877398,,,0,,1608810898,225420530,"""odom""","""base_footprint""",,,13.9194349492,-0.0969709513404,0.0,,0.0,0.0,-0.356901043325,0.934142197566
1608810898273860959,,,0,,1608810898,289981975,"""odom""","""base_footprint""",,,-0.157625894297,-7.62263615038,0.0,,0.0,0.0,-0.634865370985,0.772622780355
1608810898273904665,,,0,,1608810898,311060099,"""odom""","""base_footprint""",,,-0.157625894297,-7.62263615038,0.0,,0.0,0.0,-0.634865370985,0.772622780355
1608810898281664319,,,0,,1608810898,269046812,"""odom""","""base_footprint""",,,9.49185930398,-1.13518402336,0.0,,0.0,0.0,-0.145737698481,0.989323265289
1608810898284634590,,,0,,1608810898,245395217,"""odom""","""base_footprint""",,,13.9194349492,-0.0969709513404,0.0,,0.0,0.0,-0.356901043325,0.934142197566
1608810898284772493,,,0,,1608810898,265336656,"""odom""","""base_footprint""",,,13.9194349492,-0.0969709513404,0.0,,0.0,0.0,-0.356901043325,0.934142197566
1608810898285044218,,,0,,1608810898,276440103,"""odom""","""base_footprint""",,,5.58619995433,11.7015529735,0.0,,0.0,0.0,0.78671958787,0.617310529686
1608810898285072358,,,0,,1608810898,295384626,"""odom""","""base_footprint""",,,5.58619995433,11.7015529735,0.0,,0.0,0.0,0.78671958787,0.617310529686
1608810898305134053,,,0,,1608810898,330981573,"""odom""","""base_footprint""",,,-0.157625894297,-7.62263615038,0.0,,0.0,0.0,-0.634865370985,0.772622780355
1608810898306271840,,,0,,1608810898,289063566,"""odom""","""base_footprint""",,,9.49185930398,-1.13518402336,0.0,,0.0,0.0,-0.145737698481,0.989323265289
1608810898306341498,,,0,,1608810898,309047361,"""odom""","""base_footprint""",,,9.49185930398,-1.13518402336,0.0,,0.0,0.0,-0.145737698481,0.989323265289
1608810898316230913,,,0,,1608810898,285300260,"""odom""","""base_footprint""",,,13.9194349492,-0.0969709513404,0.0,,0.0,0.0,-0.356901043325,0.934142197566
1608810898316431623,,,0,,1608810898,315423078,"""odom""","""base_footprint""",,,5.58619995433,11.7015529735,0.0,,0.0,0.0,0.78671958787,0.617310529686
1608810898330327068,,,0,,1608810898,351009047,"""odom""","""base_footprint""",,,-0.157625894297,-7.62263615038,0.0,,0.0,0.0,-0.634865370985,0.772622780355
1608810898330406822,,,0,,1608810898,370028503,"""odom""","""base_footprint""",,,-0.157625894297,-7.62263615038,0.0,,0.0,0.0,-0.634865370985,0.772622780355
1608810898331514955,,,0,,1608810898,329054490,"""odom""","""base_footprint""",,,9.49185930398,-1.13518402336,0.0,,0.0,0.0,-0.145737698481,0.989323265289
1608810898331568038,,,0,,1608810898,348952243,"""odom""","""base_footprint""",,,9.49185930398,-1.13518402336,0.0,,0.0,0.0,-0.145737698481,0.989323265289
1608810898341877165,,,0,,1608810898,305302652,"""odom""","""base_footprint""",,,13.9194349492,-0.0969709513404,0.0,,0.0,0.0,-0.356901043325,0.934142197566
1608810898341946709,,,0,,1608810898,325302710,"""odom""","""base_footprint""",,,13.9194349492,-0.0969709513404,0.0,,0.0,0.0,-0.356901043325,0.934142197566
1608810898341972346,,,0,,1608810898,325685336,"""base_link""","""wheel_left_link""",,,0.0,0.115,0.025,,-0.702213643313,0.0830421528083,0.0830421528087,0.702213643316,,0,,1608810898,325685336,"""base_link""","""wheel_right_link""",,,0.0,-0.115,0.025,,-0.540138203027,-0.456344959026,-0.456344959028,0.540138203029
1608810898343862446,,,0,,1608810898,335440527,"""odom""","""base_footprint""",,,5.58619995433,11.7015529735,0.0,,0.0,0.0,0.78671958787,0.617310529686
1608810898347629571,,,0,,1608810898,356098581,"""base_link""","""wheel_left_link""",,,0.0,0.115,0.025,,-0.111174435901,0.698312426353,0.698312426357,0.111174435902,,0,,1608810898,356098581,"""base_link""","""wheel_right_link""",,,0.0,-0.115,0.025,,-0.705619069432,0.045844616386,0.0458446163862,0.705619069435
1608810898355796711,,,0,,1608810898,368953247,"""odom""","""base_footprint""",,,9.49185930398,-1.13518402336,0.0,,0.0,0.0,-0.145737698481,0.989323265289
1608810898358675640,,,0,,1608810898,389952897,"""odom""","""base_footprint""",,,-0.157625894297,-7.62263615038,0.0,,0.0,0.0,-0.634865370985,0.772622780355
1608810898361417004,,,0,,1608810898,345289353,"""odom""","""base_footprint""",,,13.9194349492,-0.0969709513404,0.0,,0.0,0.0,-0.356901043325,0.934142197566
1608810898369725998,,,0,,1608810898,355528570,"""odom""","""base_footprint""",,,5.58619995433,11.7015529735,0.0,,0.0,0.0,0.78671958787,0.617310529686
1608810898369784558,,,0,,1608810898,375397536,"""odom""","""base_footprint""",,,5.58619995433,11.7015529735,0.0,,0.0,0.0,0.78671958787,0.617310529686
1608810898382269302,,,0,,1608810898,365293203,"""odom""","""base_footprint""",,,13.9194349492,-0.0969709513404,0.0,,0.0,0.0,-0.356901043325,0.934142197566
1608810898386613123,,,0,,1608810898,411004740,"""odom""","""base_footprint""",,,-0.157625894297,-7.62263615038,0.0,,0.0,0.0,-0.634865370985,0.772622780355
1608810898387977446,,,0,,1608810898,389949138,"""odom""","""base_footprint""",,,9.49185930398,-1.13518402336,0.0,,0.0,0.0,-0.145737698481,0.989323265289
1608810898388490135,,,0,,1608810898,409493678,"""base_link""","""wheel_left_link""",,,0.0,0.115,0.025,,-0.683708502047,-0.180395909672,-0.180395909673,0.68370850205,,0,,1608810898,409493678,"""base_link""","""wheel_right_link""",,,0.0,-0.115,0.025,,-0.116827283299,0.697388977454,0.697388977458,0.1168272833
1608810898398249927,,,0,,1608810898,395409734,"""odom""","""base_footprint""",,,5.58619995433,11.7015529735,0.0,,0.0,0.0,0.78671958787,0.617310529686
1608810898411349214,,,0,,1608810898,431053822,"""odom""","""base_footprint""",,,-0.157625894297,-7.62263615038,0.0,,0.0,0.0,-0.634865370985,0.772622780355
1608810898415443169,,,0,,1608810898,451439591,"""base_link""","""wheel_left_link""",,,0.0,0.115,0.025,,-0.0652959730857,0.704085531662,0.704085531666,0.0652959730861,,0,,1608810898,451439591,"""base_link""","""wheel_right_link""",,,0.0,-0.115,0.025,,0.12069221851,0.696730499109,0.696730499112,-0.120692218511
1608810898415556011,,,0,,1608810898,409146299,"""odom""","""base_footprint""",,,9.49185930398,-1.13518402336,0.0,,0.0,0.0,-0.145737698481,0.989323265289
1608810898422299248,,,0,,1608810898,385375794,"""odom""","""base_footprint""",,,13.9194349492,-0.0969709513404,0.0,,0.0,0.0,-0.356901043325,0.934142197566
1608810898423102435,,,0,,1608810898,416297076,"""odom""","""base_footprint""",,,5.58619995433,11.7015529735,0.0,,0.0,0.0,0.78671958787,0.617310529686
1608810898437814022,,,0,,1608810898,451102904,"""odom""","""base_footprint""",,,-0.157625894297,-7.62263615038,0.0,,0.0,0.0,-0.634865370985,0.772622780355
1608810898437892907,,,0,,1608810898,470052863,"""odom""","""base_footprint""",,,-0.157625894297,-7.62263615038,0.0,,0.0,0.0,-0.634865370985,0.772622780355
1608810898440527603,,,0,,1608810898,405262115,"""odom""","""base_footprint""",,,13.9194349492,-0.0969709513404,0.0,,0.0,0.0,-0.356901043325,0.934142197566
1608810898442042955,,,0,,1608810898,425245550,"""odom""","""base_footprint""",,,13.9194349492,-0.0969709513404,0.0,,0.0,0.0,-0.356901043325,0.934142197566
1608810898456131724,,,0,,1608810898,436835235,"""odom""","""base_footprint""",,,5.58619995433,11.7015529735,0.0,,0.0,0.0,0.78671958787,0.617310529686
1608810898456243114,,,0,,1608810898,456303677,"""odom""","""base_footprint""",,,5.58619995433,11.7015529735,0.0,,0.0,0.0,0.78671958787,0.617310529686
1608810898459130984,,,0,,1608810898,490072160,"""odom""","""base_footprint""",,,-0.157625894297,-7.62263615038,0.0,,0.0,0.0,-0.634865370985,0.772622780355
1608810898459601152,,,0,,1608810898,429259887,"""odom""","""base_footprint""",,,9.49185930398,-1.13518402336,0.0,,0.0,0.0,-0.145737698481,0.989323265289
1608810898459635089,,,0,,1608810898,449365017,"""odom""","""base_footprint""",,,9.49185930398,-1.13518402336,0.0,,0.0,0.0,-0.145737698481,0.989323265289
1608810898460275231,,,0,,1608810898,445277980,"""odom""","""base_footprint""",,,13.9194349492,-0.0969709513404,0.0,,0.0,0.0,-0.356901043325,0.934142197566
1608810898476370775,,,0,,1608810898,511355566,"""odom""","""base_footprint""",,,-0.157625894297,-7.62263615038,0.0,,0.0,0.0,-0.634865370985,0.772622780355
1608810898476475333,,,0,,1608810898,475447441,"""odom""","""base_footprint""",,,5.58619995433,11.7015529735,0.0,,0.0,0.0,0.78671958787,0.617310529686
1608810898482325792,,,0,,1608810898,469032059,"""odom""","""base_footprint""",,,9.49185930398,-1.13518402336,0.0,,0.0,0.0,-0.145737698481,0.989323265289
1608810898482353034,,,0,,1608810898,488908228,"""odom""","""base_footprint""",,,9.49185930398,-1.13518402336,0.0,,0.0,0.0,-0.145737698481,0.989323265289
1608810898482562745,,,0,,1608810898,465286787,"""odom""","""base_footprint""",,,13.9194349492,-0.0969709513404,0.0,,0.0,0.0,-0.356901043325,0.934142197566
1608810898498484174,,,0,,1608810898,530601622,"""odom""","""base_footprint""",,,-0.157625894297,-7.62263615038,0.0,,0.0,0.0,-0.634865370985,0.772622780355
1608810898498675581,,,0,,1608810898,485629517,"""odom""","""base_footprint""",,,13.9194349492,-0.0969709513404,0.0,,0.0,0.0,-0.356901043325,0.934142197566
1608810898503752894,,,0,,1608810898,508910690,"""odom""","""base_footprint""",,,9.49185930398,-1.13518402336,0.0,,0.0,0.0,-0.145737698481,0.989323265289
1608810898516909968,,,0,,1608810898,495356080,"""odom""","""base_footprint""",,,5.58619995433,11.7015529735,0.0,,0.0,0.0,0.78671958787,0.617310529686
1608810898516922508,,,0,,1608810898,515262677,"""odom""","""base_footprint""",,,5.58619995433,11.7015529735,0.0,,0.0,0.0,0.78671958787,0.617310529686
1608810898526715256,,,0,,1608810898,505150710,"""odom""","""base_footprint""",,,13.9194349492,-0.0969709513404,0.0,,0.0,0.0,-0.356901043325,0.934142197566
1608810898526805540,,,0,,1608810898,528844901,"""odom""","""base_footprint""",,,9.49185930398,-1.13518402336,0.0,,0.0,0.0,-0.145737698481,0.989323265289
1608810898536476737,,,0,,1608810898,536326798,"""odom""","""base_footprint""",,,5.58619995433,11.7015529735,0.0,,0.0,0.0,0.78671958787,0.617310529686
1608810898543404072,,,0,,1608810898,524241741,"""odom""","""base_footprint""",,,13.9194349492,-0.0969709513404,0.0,,0.0,0.0,-0.356901043325,0.934142197566
1608810898544804290,,,0,,1608810898,548801863,"""odom""","""base_footprint""",,,9.49185930398,-1.13518402336,0.0,,0.0,0.0,-0.145737698481,0.989323265289
1608810898546689056,,,0,,1608810898,556852121,"""base_link""","""wheel_left_link""",,,0.0,0.115,0.025,,-0.111174435901,0.698312426353,0.698312426357,0.111174435902,,0,,1608810898,556852121,"""base_link""","""wheel_right_link""",,,0.0,-0.115,0.025,,-0.705619069432,0.045844616386,0.0458446163862,0.705619069435
1608810898551659234,,,0,,1608810898,550140856,"""odom""","""base_footprint""",,,-0.157625894297,-7.62263615038,0.0,,0.0,0.0,-0.634865370985,0.772622780355
1608810898551683940,,,0,,1608810898,570240164,"""odom""","""base_footprint""",,,-0.157625894297,-7.62263615038,0.0,,0.0,0.0,-0.634865370985,0.772622780355
1608810898564289350,,,0,,1608810898,544526727,"""base_link""","""wheel_left_link""",,,0.0,0.115,0.025,,-0.702213643313,0.0830421528083,0.0830421528087,0.702213643316,,0,,1608810898,544526727,"""base_link""","""wheel_right_link""",,,0.0,-0.115,0.025,,-0.540138203027,-0.456344959026,-0.456344959028,0.540138203029
1608810898564678082,,,0,,1608810898,544264547,"""odom""","""base_footprint""",,,13.9194349492,-0.0969709513404,0.0,,0.0,0.0,-0.356901043325,0.934142197566
1608810898565115348,,,0,,1608810898,556367584,"""odom""","""base_footprint""",,,5.58619995433,11.7015529735,0.0,,0.0,0.0,0.78671958787,0.617310529686
1608810898579202036,,,0,,1608810898,569853172,"""odom""","""base_footprint""",,,9.49185930398,-1.13518402336,0.0,,0.0,0.0,-0.145737698481,0.989323265289
1608810898579228755,,,0,,1608810898,589801091,"""odom""","""base_footprint""",,,9.49185930398,-1.13518402336,0.0,,0.0,0.0,-0.145737698481,0.989323265289
1608810898580918098,,,0,,1608810898,590185290,"""odom""","""base_footprint""",,,-0.157625894297,-7.62263615038,0.0,,0.0,0.0,-0.634865370985,0.772622780355
1608810898580993460,,,0,,1608810898,611208516,"""odom""","""base_footprint""",,,-0.157625894297,-7.62263615038,0.0,,0.0,0.0,-0.634865370985,0.772622780355
1608810898594140589,,,0,,1608810898,565126680,"""odom""","""base_footprint""",,,13.9194349492,-0.0969709513404,0.0,,0.0,0.0,-0.356901043325,0.934142197566
1608810898594527236,,,0,,1608810898,577665951,"""odom""","""base_footprint""",,,5.58619995433,11.7015529735,0.0,,0.0,0.0,0.78671958787,0.617310529686
1608810898594558982,,,0,,1608810898,596162984,"""odom""","""base_footprint""",,,5.58619995433,11.7015529735,0.0,,0.0,0.0,0.78671958787,0.617310529686
1608810898605280196,,,0,,1608810898,608864083,"""odom""","""base_footprint""",,,9.49185930398,-1.13518402336,0.0,,0.0,0.0,-0.145737698481,0.989323265289
1608810898607545264,,,0,,1608810898,627978993,"""base_link""","""wheel_left_link""",,,0.0,0.115,0.025,,-0.683708502047,-0.180395909672,-0.180395909673,0.68370850205,,0,,1608810898,627978993,"""base_link""","""wheel_right_link""",,,0.0,-0.115,0.025,,-0.116827283299,0.697388977454,0.697388977458,0.1168272833
1608810898607711238,,,0,,1608810898,630225637,"""odom""","""base_footprint""",,,-0.157625894297,-7.62263615038,0.0,,0.0,0.0,-0.634865370985,0.772622780355
1608810898607760541,,,0,,1608810898,650982550,"""odom""","""base_footprint""",,,-0.157625894297,-7.62263615038,0.0,,0.0,0.0,-0.634865370985,0.772622780355
1608810898607848501,,,0,,1608810898,651493275,"""base_link""","""wheel_left_link""",,,0.0,0.115,0.025,,-0.0652959730857,0.704085531662,0.704085531666,0.0652959730861,,0,,1608810898,651493275,"""base_link""","""wheel_right_link""",,,0.0,-0.115,0.025,,0.12069221851,0.696730499109,0.696730499112,-0.120692218511
1608810898613458655,,,0,,1608810898,616183349,"""odom""","""base_footprint""",,,5.58619995433,11.7015529735,0.0,,0.0,0.0,0.78671958787,0.617310529686
1608810898630964529,,,0,,1608810898,627868158,"""odom""","""base_footprint""",,,9.49185930398,-1.13518402336,0.0,,0.0,0.0,-0.145737698481,0.989323265289
1608810898631608558,,,0,,1608810898,585128780,"""odom""","""base_footprint""",,,13.9194349492,-0.0969709513404,0.0,,0.0,0.0,-0.356901043325,0.934142197566
1608810898637218260,,,0,,1608810898,636806981,"""odom""","""base_footprint""",,,5.58619995433,11.7015529735,0.0,,0.0,0.0,0.78671958787,0.617310529686
1608810898644394950,,,0,,1608810898,670554489,"""odom""","""base_footprint""",,,-0.157625894297,-7.62263615038,0.0,,0.0,0.0,-0.634865370985,0.772622780355
1608810898655406969,,,0,,1608810898,647849911,"""odom""","""base_footprint""",,,9.49185930398,-1.13518402336,0.0,,0.0,0.0,-0.145737698481,0.989323265289
1608810898655485600,,,0,,1608810898,667831957,"""odom""","""base_footprint""",,,9.49185930398,-1.13518402336,0.0,,0.0,0.0,-0.145737698481,0.989323265289
1608810898658425013,,,0,,1608810898,605107257,"""odom""","""base_footprint""",,,13.9194349492,-0.0969709513404,0.0,,0.0,0.0,-0.356901043325,0.934142197566
1608810898658441169,,,0,,1608810898,625099733,"""odom""","""base_footprint""",,,13.9194349492,-0.0969709513404,0.0,,0.0,0.0,-0.356901043325,0.934142197566
1608810898658488207,,,0,,1608810898,645093084,"""odom""","""base_footprint""",,,13.9194349492,-0.0969709513404,0.0,,0.0,0.0,-0.356901043325,0.934142197566
1608810898666138903,,,0,,1608810898,688327342,"""odom""","""base_footprint""",,,9.49185930398,-1.13518402336,0.0,,0.0,0.0,-0.145737698481,0.989323265289
1608810898667952256,,,0,,1608810898,657823260,"""odom""","""base_footprint""",,,5.58619995433,11.7015529735,0.0,,0.0,0.0,0.78671958787,0.617310529686
1608810898667998360,,,0,,1608810898,676740654,"""odom""","""base_footprint""",,,5.58619995433,11.7015529735,0.0,,0.0,0.0,0.78671958787,0.617310529686
1608810898669864474,,,0,,1608810898,690643868,"""odom""","""base_footprint""",,,-0.157625894297,-7.62263615038,0.0,,0.0,0.0,-0.634865370985,0.772622780355
1608810898669880657,,,0,,1608810898,710494676,"""odom""","""base_footprint""",,,-0.157625894297,-7.62263615038,0.0,,0.0,0.0,-0.634865370985,0.772622780355
1608810898683791021,,,0,,1608810898,665114723,"""odom""","""base_footprint""",,,13.9194349492,-0.0969709513404,0.0,,0.0,0.0,-0.356901043325,0.934142197566
1608810898686042148,,,0,,1608810898,696172048,"""odom""","""base_footprint""",,,5.58619995433,11.7015529735,0.0,,0.0,0.0,0.78671958787,0.617310529686
1608810898691315032,,,0,,1608810898,708078384,"""odom""","""base_footprint""",,,9.49185930398,-1.13518402336,0.0,,0.0,0.0,-0.145737698481,0.989323265289
1608810898705089917,,,0,,1608810898,730317451,"""odom""","""base_footprint""",,,-0.157625894297,-7.62263615038,0.0,,0.0,0.0,-0.634865370985,0.772622780355
1608810898715275135,,,0,,1608810898,685102533,"""odom""","""base_footprint""",,,13.9194349492,-0.0969709513404,0.0,,0.0,0.0,-0.356901043325,0.934142197566
1608810898724431063,,,0,,1608810898,728085221,"""odom""","""base_footprint""",,,9.49185930398,-1.13518402336,0.0,,0.0,0.0,-0.145737698481,0.989323265289
1608810898737162571,,,0,,1608810898,716221002,"""odom""","""base_footprint""",,,5.58619995433,11.7015529735,0.0,,0.0,0.0,0.78671958787,0.617310529686
1608810898737290430,,,0,,1608810898,736186525,"""odom""","""base_footprint""",,,5.58619995433,11.7015529735,0.0,,0.0,0.0,0.78671958787,0.617310529686
1608810898745333173,,,0,,1608810898,750358941,"""odom""","""base_footprint""",,,-0.157625894297,-7.62263615038,0.0,,0.0,0.0,-0.634865370985,0.772622780355
1608810898745395274,,,0,,1608810898,770543807,"""odom""","""base_footprint""",,,-0.157625894297,-7.62263615038,0.0,,0.0,0.0,-0.634865370985,0.772622780355
1608810898745605085,,,0,,1608810898,705108132,"""odom""","""base_footprint""",,,13.9194349492,-0.0969709513404,0.0,,0.0,0.0,-0.356901043325,0.934142197566
1608810898747362280,,,0,,1608810898,748095267,"""odom""","""base_footprint""",,,9.49185930398,-1.13518402336,0.0,,0.0,0.0,-0.145737698481,0.989323265289
1608810898761278032,,,0,,1608810898,756206308,"""odom""","""base_footprint""",,,5.58619995433,11.7015529735,0.0,,0.0,0.0,0.78671958787,0.617310529686
1608810898764364588,,,0,,1608810898,776770138,"""base_link""","""wheel_left_link""",,,0.0,0.115,0.025,,-0.111174435901,0.698312426353,0.698312426357,0.111174435902,,0,,1608810898,776770138,"""base_link""","""wheel_right_link""",,,0.0,-0.115,0.025,,-0.705619069432,0.045844616386,0.0458446163862,0.705619069435
1608810898764383707,,,0,,1608810898,746020193,"""base_link""","""wheel_left_link""",,,0.0,0.115,0.025,,-0.702213643313,0.0830421528083,0.0830421528087,0.702213643316,,0,,1608810898,746020193,"""base_link""","""wheel_right_link""",,,0.0,-0.115,0.025,,-0.540138203027,-0.456344959026,-0.456344959028,0.540138203029
1608810898768631197,,,0,,1608810898,768078187,"""odom""","""base_footprint""",,,9.49185930398,-1.13518402336,0.0,,0.0,0.0,-0.145737698481,0.989323265289
1608810898768684069,,,0,,1608810898,788197609,"""odom""","""base_footprint""",,,9.49185930398,-1.13518402336,0.0,,0.0,0.0,-0.145737698481,0.989323265289
1608810898769199701,,,0,,1608810898,790442504,"""odom""","""base_footprint""",,,-0.157625894297,-7.62263615038,0.0,,0.0,0.0,-0.634865370985,0.772622780355
1608810898769219740,,,0,,1608810898,811426309,"""odom""","""base_footprint""",,,-0.157625894297,-7.62263615038,0.0,,0.0,0.0,-0.634865370985,0.772622780355
1608810898776805413,,,0,,1608810898,776208879,"""odom""","""base_footprint""",,,5.58619995433,11.7015529735,0.0,,0.0,0.0,0.78671958787,0.617310529686
1608810898788093109,,,0,,1608810898,808061528,"""odom""","""base_footprint""",,,9.49185930398,-1.13518402336,0.0,,0.0,0.0,-0.145737698481,0.989323265289
1608810898792179213,,,0,,1608810898,830437589,"""odom""","""base_footprint""",,,-0.157625894297,-7.62263615038,0.0,,0.0,0.0,-0.634865370985,0.772622780355
1608810898794172607,,,0,,1608810898,799430812,"""odom""","""base_footprint""",,,5.58619995433,11.7015529735,0.0,,0.0,0.0,0.78671958787,0.617310529686
1608810898804978045,,,0,,1608810898,828078574,"""odom""","""base_footprint""",,,9.49185930398,-1.13518402336,0.0,,0.0,0.0,-0.145737698481,0.989323265289
1608810898809461215,,,0,,1608810898,850378044,"""odom""","""base_footprint""",,,-0.157625894297,-7.62263615038,0.0,,0.0,0.0,-0.634865370985,0.772622780355
1608810898809474360,,,0,,1608810898,828329410,"""base_link""","""wheel_left_link""",,,0.0,0.115,0.025,,-0.683708502047,-0.180395909672,-0.180395909673,0.68370850205,,0,,1608810898,828329410,"""base_link""","""wheel_right_link""",,,0.0,-0.115,0.025,,-0.116827283299,0.697388977454,0.697388977458,0.1168272833
1608810898822931536,,,0,,1608810898,817262152,"""odom""","""base_footprint""",,,5.58619995433,11.7015529735,0.0,,0.0,0.0,0.78671958787,0.617310529686
1608810898823276014,,,0,,1608810898,847987702,"""odom""","""base_footprint""",,,9.49185930398,-1.13518402336,0.0,,0.0,0.0,-0.145737698481,0.989323265289
1608810898834986109,,,0,,1608810898,870917994,"""base_link""","""wheel_left_link""",,,0.0,0.115,0.025,,-0.0652959730857,0.704085531662,0.704085531666,0.0652959730861,,0,,1608810898,870917994,"""base_link""","""wheel_right_link""",,,0.0,-0.115,0.025,,0.12069221851,0.696730499109,0.696730499112,-0.120692218511
1608810898838613160,,,0,,1608810898,870376316,"""odom""","""base_footprint""",,,-0.157625894297,-7.62263615038,0.0,,0.0,0.0,-0.634865370985,0.772622780355
1608810898846505501,,,0,,1608810898,867958372,"""odom""","""base_footprint""",,,9.49185930398,-1.13518402336,0.0,,0.0,0.0,-0.145737698481,0.989323265289
1608810898858158615,,,0,,1608810898,837749845,"""odom""","""base_footprint""",,,5.58619995433,11.7015529735,0.0,,0.0,0.0,0.78671958787,0.617310529686
1608810898858259255,,,0,,1608810898,858508540,"""odom""","""base_footprint""",,,5.58619995433,11.7015529735,0.0,,0.0,0.0,0.78671958787,0.617310529686
1608810898865776232,,,0,,1608810898,889406869,"""odom""","""base_footprint""",,,-0.157625894297,-7.62263615038,0.0,,0.0,0.0,-0.634865370985,0.772622780355
1608810898866177914,,,0,,1608810898,888087419,"""odom""","""base_footprint""",,,9.49185930398,-1.13518402336,0.0,,0.0,0.0,-0.145737698481,0.989323265289
1608810898878460254,,,0,,1608810898,877097463,"""odom""","""base_footprint""",,,5.58619995433,11.7015529735,0.0,,0.0,0.0,0.78671958787,0.617310529686
1608810898883875244,,,0,,1608810898,911508486,"""odom""","""base_footprint""",,,-0.157625894297,-7.62263615038,0.0,,0.0,0.0,-0.634865370985,0.772622780355
1608810898889060715,,,0,,1608810898,907030534,"""odom""","""base_footprint""",,,9.49185930398,-1.13518402336,0.0,,0.0,0.0,-0.145737698481,0.989323265289
1608810898895775308,,,0,,1608810898,898306857,"""odom""","""base_footprint""",,,5.58619995433,11.7015529735,0.0,,0.0,0.0,0.78671958787,0.617310529686
1608810898898198698,,,0,,1608810898,726859169,"""odom""","""base_footprint""",,,13.9194349492,-0.0969709513404,0.0,,0.0,0.0,-0.356901043325,0.934142197566
1608810898898229843,,,0,,1608810898,745713392,"""odom""","""base_footprint""",,,13.9194349492,-0.0969709513404,0.0,,0.0,0.0,-0.356901043325,0.934142197566
1608810898909516759,,,0,,1608810898,931684009,"""odom""","""base_footprint""",,,-0.157625894297,-7.62263615038,0.0,,0.0,0.0,-0.634865370985,0.772622780355
1608810898918507389,,,0,,1608810898,927018705,"""odom""","""base_footprint""",,,9.49185930398,-1.13518402336,0.0,,0.0,0.0,-0.145737698481,0.989323265289
1608810898932608634,,,0,,1608810898,766124073,"""odom""","""base_footprint""",,,13.9194349492,-0.0969709513404,0.0,,0.0,0.0,-0.356901043325,0.934142197566
1608810898932635877,,,0,,1608810898,784811773,"""odom""","""base_footprint""",,,13.9194349492,-0.0969709513404,0.0,,0.0,0.0,-0.356901043325,0.934142197566
1608810898932668140,,,0,,1608810898,804949775,"""odom""","""base_footprint""",,,13.9194349492,-0.0969709513404,0.0,,0.0,0.0,-0.356901043325,0.934142197566
1608810898932689134,,,0,,1608810898,825702544,"""odom""","""base_footprint""",,,13.9194349492,-0.0969709513404,0.0,,0.0,0.0,-0.356901043325,0.934142197566
1608810898932709683,,,0,,1608810898,845691812,"""odom""","""base_footprint""",,,13.9194349492,-0.0969709513404,0.0,,0.0,0.0,-0.356901043325,0.934142197566
1608810898932727180,,,0,,1608810898,865956966,"""odom""","""base_footprint""",,,13.9194349492,-0.0969709513404,0.0,,0.0,0.0,-0.356901043325,0.934142197566
1608810898932768663,,,0,,1608810898,884716700,"""odom""","""base_footprint""",,,13.9194349492,-0.0969709513404,0.0,,0.0,0.0,-0.356901043325,0.934142197566
1608810898932840214,,,0,,1608810898,904899322,"""odom""","""base_footprint""",,,13.9194349492,-0.0969709513404,0.0,,0.0,0.0,-0.356901043325,0.934142197566
1608810898939278478,,,0,,1608810898,918142859,"""odom""","""base_footprint""",,,5.58619995433,11.7015529735,0.0,,0.0,0.0,0.78671958787,0.617310529686
1608810898939471150,,,0,,1608810898,937081256,"""odom""","""base_footprint""",,,5.58619995433,11.7015529735,0.0,,0.0,0.0,0.78671958787,0.617310529686
1608810898940037883,,,0,,1608810898,946972750,"""odom""","""base_footprint""",,,9.49185930398,-1.13518402336,0.0,,0.0,0.0,-0.145737698481,0.989323265289
1608810898940615873,,,0,,1608810898,950726242,"""odom""","""base_footprint""",,,-0.157625894297,-7.62263615038,0.0,,0.0,0.0,-0.634865370985,0.772622780355
1608810898940683126,,,0,,1608810898,969486978,"""odom""","""base_footprint""",,,-0.157625894297,-7.62263615038,0.0,,0.0,0.0,-0.634865370985,0.772622780355
1608810898956258536,,,0,,1608810898,966965587,"""odom""","""base_footprint""",,,9.49185930398,-1.13518402336,0.0,,0.0,0.0,-0.145737698481,0.989323265289
1608810898956784769,,,0,,1608810898,924710109,"""odom""","""base_footprint""",,,13.9194349492,-0.0969709513404,0.0,,0.0,0.0,-0.356901043325,0.934142197566
1608810898960424343,,,0,,1608810898,957563698,"""odom""","""base_footprint""",,,5.58619995433,11.7015529735,0.0,,0.0,0.0,0.78671958787,0.617310529686
1608810898960497086,,,0,,1608810898,977192291,"""odom""","""base_footprint""",,,5.58619995433,11.7015529735,0.0,,0.0,0.0,0.78671958787,0.617310529686
1608810898962627480,,,0,,1608810898,977681788,"""base_link""","""wheel_left_link""",,,0.0,0.115,0.025,,-0.111174435901,0.698312426353,0.698312426357,0.111174435902,,0,,1608810898,977681788,"""base_link""","""wheel_right_link""",,,0.0,-0.115,0.025,,-0.705619069432,0.045844616386,0.0458446163862,0.705619069435
1608810898966696238,,,0,,1608810898,990263748,"""odom""","""base_footprint""",,,-0.157625894297,-7.62263615038,0.0,,0.0,0.0,-0.634865370985,0.772622780355
1608810898972322695,,,0,,1608810898,988107605,"""odom""","""base_footprint""",,,9.49185930398,-1.13518402336,0.0,,0.0,0.0,-0.145737698481,0.989323265289
1608810898979934936,,,0,,1608810898,947219689,"""base_link""","""wheel_left_link""",,,0.0,0.115,0.025,,-0.702213643313,0.0830421528083,0.0830421528087,0.702213643316,,0,,1608810898,947219689,"""base_link""","""wheel_right_link""",,,0.0,-0.115,0.025,,-0.540138203027,-0.456344959026,-0.456344959028,0.540138203029
1608810898980207900,,,0,,1608810898,946367531,"""odom""","""base_footprint""",,,13.9194349492,-0.0969709513404,0.0,,0.0,0.0,-0.356901043325,0.934142197566
1608810898980873189,,,0,,1608810899,11173928,"""odom""","""base_footprint""",,,-0.157625894297,-7.62263615038,0.0,,0.0,0.0,-0.634865370985,0.772622780355
1608810898983634451,,,0,,1608810898,997747370,"""odom""","""base_footprint""",,,5.58619995433,11.7015529735,0.0,,0.0,0.0,0.78671958787,0.617310529686
1608810898992575829,,,0,,1608810899,7951398,"""odom""","""base_footprint""",,,9.49185930398,-1.13518402336,0.0,,0.0,0.0,-0.145737698481,0.989323265289
1608810899002494946,,,0,,1608810898,965797734,"""odom""","""base_footprint""",,,13.9194349492,-0.0969709513404,0.0,,0.0,0.0,-0.356901043325,0.934142197566
1608810899003444912,,,0,,1608810899,17132375,"""odom""","""base_footprint""",,,5.58619995433,11.7015529735,0.0,,0.0,0.0,0.78671958787,0.617310529686
1608810899006469596,,,0,,1608810899,31724982,"""odom""","""base_footprint""",,,-0.157625894297,-7.62263615038,0.0,,0.0,0.0,-0.634865370985,0.772622780355
1608810899016500221,,,0,,1608810899,29361754,"""base_link""","""wheel_left_link""",,,0.0,0.115,0.025,,-0.683708502047,-0.180395909672,-0.180395909673,0.68370850205,,0,,1608810899,29361754,"""base_link""","""wheel_right_link""",,,0.0,-0.115,0.025,,-0.116827283299,0.697388977454,0.697388977458,0.1168272833
1608810899016633763,,,0,,1608810899,28814581,"""odom""","""base_footprint""",,,9.49185930398,-1.13518402336,0.0,,0.0,0.0,-0.145737698481,0.989323265289
1608810899033260446,,,0,,1608810899,51753394,"""odom""","""base_footprint""",,,-0.157625894297,-7.62263615038,0.0,,0.0,0.0,-0.634865370985,0.772622780355
1608810899034765880,,,0,,1608810899,69590459,"""odom""","""base_footprint""",,,-0.157625894297,-7.62263615038,0.0,,0.0,0.0,-0.634865370985,0.772622780355
1608810899035864611,,,0,,1608810898,986015935,"""odom""","""base_footprint""",,,13.9194349492,-0.0969709513404,0.0,,0.0,0.0,-0.356901043325,0.934142197566
1608810899035878852,,,0,,1608810899,4829913,"""odom""","""base_footprint""",,,13.9194349492,-0.0969709513404,0.0,,0.0,0.0,-0.356901043325,0.934142197566
1608810899036186761,,,0,,1608810899,39091465,"""odom""","""base_footprint""",,,5.58619995433,11.7015529735,0.0,,0.0,0.0,0.78671958787,0.617310529686
1608810899048041741,,,0,,1608810899,48428830,"""odom""","""base_footprint""",,,9.49185930398,-1.13518402336,0.0,,0.0,0.0,-0.145737698481,0.989323265289
1608810899051524227,,,0,,1608810899,58047064,"""odom""","""base_footprint""",,,5.58619995433,11.7015529735,0.0,,0.0,0.0,0.78671958787,0.617310529686
1608810899065293991,,,0,,1608810899,89969837,"""base_link""","""wheel_left_link""",,,0.0,0.115,0.025,,-0.0652959730857,0.704085531662,0.704085531666,0.0652959730861,,0,,1608810899,89969837,"""base_link""","""wheel_right_link""",,,0.0,-0.115,0.025,,0.12069221851,0.696730499109,0.696730499112,-0.120692218511
1608810899066285553,,,0,,1608810899,89638434,"""odom""","""base_footprint""",,,-0.157625894297,-7.62263615038,0.0,,0.0,0.0,-0.634865370985,0.772622780355
1608810899070456820,,,0,,1608810899,24691460,"""odom""","""base_footprint""",,,13.9194349492,-0.0969709513404,0.0,,0.0,0.0,-0.356901043325,0.934142197566
1608810899070511015,,,0,,1608810899,44673452,"""odom""","""base_footprint""",,,13.9194349492,-0.0969709513404,0.0,,0.0,0.0,-0.356901043325,0.934142197566
1608810899071807625,,,0,,1608810899,68541253,"""odom""","""base_footprint""",,,9.49185930398,-1.13518402336,0.0,,0.0,0.0,-0.145737698481,0.989323265289
1608810899081497431,,,0,,1608810899,78021329,"""odom""","""base_footprint""",,,5.58619995433,11.7015529735,0.0,,0.0,0.0,0.78671958787,0.617310529686
1608810899090136070,,,0,,1608810899,65742078,"""odom""","""base_footprint""",,,13.9194349492,-0.0969709513404,0.0,,0.0,0.0,-0.356901043325,0.934142197566
