rosbagTimestamp,header,seq,stamp,secs,nsecs,frame_id,name,position,velocity,effort
1608810897694639015,,52303,,1608810897,710540749,'',"[wheel_left_joint, wheel_right_joint]","[637.5583602930419, 644.3695427756757]","[0.0, 0.0]","[0.0, 0.0]"
1608810897694651708,,52304,,1608810897,731307256,'',"[wheel_left_joint, wheel_right_joint]","[637.5583602930419, 644.3695427756757]","[0.0, 0.0]","[0.0, 0.0]"
1608810897716418626,,52305,,1608810897,751078206,'',"[wheel_left_joint, wheel_right_joint]","[637.5583602930419, 644.3695427756757]","[0.0, 0.0]","[0.0, 0.0]"
1608810897746697153,,52306,,1608810897,771066725,'',"[wheel_left_joint, wheel_right_joint]","[637.5583602930419, 644.3695427756757]","[0.0, 0.0]","[0.0, 0.0]"
1608810897764720280,,52307,,1608810897,790117803,'',"[wheel_left_joint, wheel_right_joint]","[637.5583602930419, 644.3695427756757]","[0.0, 0.0]","[0.0, 0.0]"
1608810897787587662,,52308,,1608810897,810146038,'',"[wheel_left_joint, wheel_right_joint]","[637.5583602930419, 644.3695427756757]","[0.0, 0.0]","[0.0, 0.0]"
1608810897804644561,,52309,,1608810897,831427116,'',"[wheel_left_joint, wheel_right_joint]","[637.5583602930419, 644.3695427756757]","[0.0, 0.0]","[0.0, 0.0]"
1608810897830440261,,52310,,1608810897,850211855,'',"[wheel_left_joint, wheel_right_joint]","[637.5583602930419, 644.3695427756757]","[0.0, 0.0]","[0.0, 0.0]"
1608810897830464663,,52311,,1608810897,870183728,'',"[wheel_left_joint, wheel_right_joint]","[637.5583602930419, 644.3695427756757]","[0.0, 0.0]","[0.0, 0.0]"
1608810897851813857,,52312,,1608810897,890234158,'',"[wheel_left_joint, wheel_right_joint]","[637.5583602930419, 644.3695427756757]","[0.0, 0.0]","[0.0, 0.0]"
1608810897868855507,,52313,,1608810897,910235234,'',"[wheel_left_joint, wheel_right_joint]","[637.5583602930419, 644.3695427756757]","[0.0, 0.0]","[0.0, 0.0]"
1608810897898256555,,52314,,1608810897,931527993,'',"[wheel_left_joint, wheel_right_joint]","[637.5583602930419, 644.3695427756757]","[0.0, 0.0]","[0.0, 0.0]"
1608810897929434285,,52315,,1608810897,950171970,'',"[wheel_left_joint, wheel_right_joint]","[637.5583602930419, 644.3695427756757]","[0.0, 0.0]","[0.0, 0.0]"
1608810897947893977,,52316,,1608810897,970197286,'',"[wheel_left_joint, wheel_right_joint]","[637.5583602930419, 644.3695427756757]","[0.0, 0.0]","[0.0, 0.0]"
1608810897947920658,,52317,,1608810897,990248592,'',"[wheel_left_joint, wheel_right_joint]","[637.5583602930419, 644.3695427756757]","[0.0, 0.0]","[0.0, 0.0]"
1608810897971139152,,52318,,1608810898,10236628,'',"[wheel_left_joint, wheel_right_joint]","[637.5583602930419, 644.3695427756757]","[0.0, 0.0]","[0.0, 0.0]"
1608810897997080127,,52319,,1608810898,31472365,'',"[wheel_left_joint, wheel_right_joint]","[637.5583602930419, 644.3695427756757]","[0.0, 0.0]","[0.0, 0.0]"
1608810898018520301,,52320,,1608810898,50292963,'',"[wheel_left_joint, wheel_right_joint]","[637.5583602930419, 644.3695427756757]","[0.0, 0.0]","[0.0, 0.0]"
1608810898068705502,,52321,,1608810898,70383802,'',"[wheel_left_joint, wheel_right_joint]","[637.5583602930419, 644.3695427756757]","[0.0, 0.0]","[0.0, 0.0]"
1608810898090489602,,52322,,1608810898,90351706,'',"[wheel_left_joint, wheel_right_joint]","[637.5583602930419, 644.3695427756757]","[0.0, 0.0]","[0.0, 0.0]"
1608810898090609485,,52323,,1608810898,110325158,'',"[wheel_left_joint, wheel_right_joint]","[637.5583602930419, 644.3695427756757]","[0.0, 0.0]","[0.0, 0.0]"
1608810898117053809,,52324,,1608810898,135098370,'',"[wheel_left_joint, wheel_right_joint]","[637.5583602930419, 644.3695427756757]","[0.0, 0.0]","[0.0, 0.0]"
1608810898117093981,,52325,,1608810898,151186635,'',"[wheel_left_joint, wheel_right_joint]","[637.5583602930419, 644.3695427756757]","[0.0, 0.0]","[0.0, 0.0]"
1608810898141596478,,52326,,1608810898,171241557,'',"[wheel_left_joint, wheel_right_joint]","[637.5583602930419, 644.3695427756757]","[0.0, 0.0]","[0.0, 0.0]"
1608810898164826056,,52327,,1608810898,193651244,'',"[wheel_left_joint, wheel_right_joint]","[637.5583602930419, 644.3695427756757]","[0.0, 0.0]","[0.0, 0.0]"
1608810898189132176,,52328,,1608810898,210480337,'',"[wheel_left_joint, wheel_right_joint]","[637.5583602930419, 644.3695427756757]","[0.0, 0.0]","[0.0, 0.0]"
1608810898211870300,,52329,,1608810898,230842746,'',"[wheel_left_joint, wheel_right_joint]","[637.5583602930419, 644.3695427756757]","[0.0, 0.0]","[0.0, 0.0]"
1608810898211909314,,52330,,1608810898,250518056,'',"[wheel_left_joint, wheel_right_joint]","[637.5583602930419, 644.3695427756757]","[0.0, 0.0]","[0.0, 0.0]"
1608810898235840390,,52331,,1608810898,269551821,'',"[wheel_left_joint, wheel_right_joint]","[637.5583602930419, 644.3695427756757]","[0.0, 0.0]","[0.0, 0.0]"
1608810898280807609,,52332,,1608810898,290410645,'',"[wheel_left_joint, wheel_right_joint]","[637.5583602930419, 644.3695427756757]","[0.0, 0.0]","[0.0, 0.0]"
1608810898280842188,,52333,,1608810898,311566736,'',"[wheel_left_joint, wheel_right_joint]","[637.5583602930419, 644.3695427756757]","[0.0, 0.0]","[0.0, 0.0]"
1608810898309425918,,52334,,1608810898,331670716,'',"[wheel_left_joint, wheel_right_joint]","[637.5583602930419, 644.3695427756757]","[0.0, 0.0]","[0.0, 0.0]"
1608810898309481006,,52335,,1608810898,351431000,'',"[wheel_left_joint, wheel_right_joint]","[637.5583602930419, 644.3695427756757]","[0.0, 0.0]","[0.0, 0.0]"
1608810898331338060,,52336,,1608810898,370467686,'',"[wheel_left_joint, wheel_right_joint]","[637.5583602930419, 644.3695427756757]","[0.0, 0.0]","[0.0, 0.0]"
1608810898359219337,,52337,,1608810898,390380983,'',"[wheel_left_joint, wheel_right_joint]","[637.5583602930419, 644.3695427756757]","[0.0, 0.0]","[0.0, 0.0]"
1608810898387248609,,52338,,1608810898,411432242,'',"[wheel_left_joint, wheel_right_joint]","[637.5583602930419, 644.3695427756757]","[0.0, 0.0]","[0.0, 0.0]"
1608810898415437315,,52339,,1608810898,431471980,'',"[wheel_left_joint, wheel_right_joint]","[637.5583602930419, 644.3695427756757]","[0.0, 0.0]","[0.0, 0.0]"
1608810898440464237,,52340,,1608810898,451439591,'',"[wheel_left_joint, wheel_right_joint]","[637.5583602930419, 644.3695427756757]","[0.0, 0.0]","[0.0, 0.0]"
1608810898440487072,,52341,,1608810898,470351881,'',"[wheel_left_joint, wheel_right_joint]","[637.5583602930419, 644.3695427756757]","[0.0, 0.0]","[0.0, 0.0]"
1608810898460672449,,52342,,1608810898,490496742,'',"[wheel_left_joint, wheel_right_joint]","[637.5583602930419, 644.3695427756757]","[0.0, 0.0]","[0.0, 0.0]"
1608810898497807640,,52343,,1608810898,511835630,'',"[wheel_left_joint, wheel_right_joint]","[637.5583602930419, 644.3695427756757]","[0.0, 0.0]","[0.0, 0.0]"
1608810898497900038,,52344,,1608810898,531025912,'',"[wheel_left_joint, wheel_right_joint]","[637.5583602930419, 644.3695427756757]","[0.0, 0.0]","[0.0, 0.0]"
1608810898551325363,,52345,,1608810898,550570402,'',"[wheel_left_joint, wheel_right_joint]","[637.5583602930419, 644.3695427756757]","[0.0, 0.0]","[0.0, 0.0]"
1608810898580728209,,52346,,1608810898,571706635,'',"[wheel_left_joint, wheel_right_joint]","[637.5583602930419, 644.3695427756757]","[0.0, 0.0]","[0.0, 0.0]"
1608810898580792933,,52347,,1608810898,590615420,'',"[wheel_left_joint, wheel_right_joint]","[637.5583602930419, 644.3695427756757]","[0.0, 0.0]","[0.0, 0.0]"
1608810898580805901,,52348,,1608810898,611531479,'',"[wheel_left_joint, wheel_right_joint]","[637.5583602930419, 644.3695427756757]","[0.0, 0.0]","[0.0, 0.0]"
1608810898607602592,,52349,,1608810898,630651679,'',"[wheel_left_joint, wheel_right_joint]","[637.5583602930419, 644.3695427756757]","[0.0, 0.0]","[0.0, 0.0]"
1608810898644173359,,52350,,1608810898,651493275,'',"[wheel_left_joint, wheel_right_joint]","[637.5583602930419, 644.3695427756757]","[0.0, 0.0]","[0.0, 0.0]"
1608810898644218745,,52351,,1608810898,670988415,'',"[wheel_left_joint, wheel_right_joint]","[637.5583602930419, 644.3695427756757]","[0.0, 0.0]","[0.0, 0.0]"
1608810898669542067,,52352,,1608810898,691072538,'',"[wheel_left_joint, wheel_right_joint]","[637.5583602930419, 644.3695427756757]","[0.0, 0.0]","[0.0, 0.0]"
1608810898669591458,,52353,,1608810898,710968899,'',"[wheel_left_joint, wheel_right_joint]","[637.5583602930419, 644.3695427756757]","[0.0, 0.0]","[0.0, 0.0]"
1608810898705048570,,52354,,1608810898,730746705,'',"[wheel_left_joint, wheel_right_joint]","[637.5583602930419, 644.3695427756757]","[0.0, 0.0]","[0.0, 0.0]"
1608810898745262119,,52355,,1608810898,750849517,'',"[wheel_left_joint, wheel_right_joint]","[637.5583602930419, 644.3695427756757]","[0.0, 0.0]","[0.0, 0.0]"
1608810898745313235,,52356,,1608810898,770886918,'',"[wheel_left_joint, wheel_right_joint]","[637.5583602930419, 644.3695427756757]","[0.0, 0.0]","[0.0, 0.0]"
1608810898769123064,,52357,,1608810898,790891031,'',"[wheel_left_joint, wheel_right_joint]","[637.5583602930419, 644.3695427756757]","[0.0, 0.0]","[0.0, 0.0]"
1608810898769139383,,52358,,1608810898,811763872,'',"[wheel_left_joint, wheel_right_joint]","[637.5583602930419, 644.3695427756757]","[0.0, 0.0]","[0.0, 0.0]"
1608810898792133212,,52359,,1608810898,830890788,'',"[wheel_left_joint, wheel_right_joint]","[637.5583602930419, 644.3695427756757]","[0.0, 0.0]","[0.0, 0.0]"
1608810898809410771,,52360,,1608810898,850805838,'',"[wheel_left_joint, wheel_right_joint]","[637.5583602930419, 644.3695427756757]","[0.0, 0.0]","[0.0, 0.0]"
1608810898838508826,,52361,,1608810898,870917994,'',"[wheel_left_joint, wheel_right_joint]","[637.5583602930419, 644.3695427756757]","[0.0, 0.0]","[0.0, 0.0]"
1608810898865700074,,52362,,1608810898,889833495,'',"[wheel_left_joint, wheel_right_joint]","[637.5583602930419, 644.3695427756757]","[0.0, 0.0]","[0.0, 0.0]"
1608810898883798627,,52363,,1608810898,911846049,'',"[wheel_left_joint, wheel_right_joint]","[637.5583602930419, 644.3695427756757]","[0.0, 0.0]","[0.0, 0.0]"
1608810898909414497,,52364,,1608810898,932133995,'',"[wheel_left_joint, wheel_right_joint]","[637.5583602930419, 644.3695427756757]","[0.0, 0.0]","[0.0, 0.0]"
1608810898940539681,,52365,,1608810898,951204262,'',"[wheel_left_joint, wheel_right_joint]","[637.5583602930419, 644.3695427756757]","[0.0, 0.0]","[0.0, 0.0]"
1608810898940574414,,52366,,1608810898,969921196,'',"[wheel_left_joint, wheel_right_joint]","[637.5583602930419, 644.3695427756757]","[0.0, 0.0]","[0.0, 0.0]"
1608810898962981927,,52367,,1608810898,990762500,'',"[wheel_left_joint, wheel_right_joint]","[637.5583602930419, 644.3695427756757]","[0.0, 0.0]","[0.0, 0.0]"
1608810898980845813,,52368,,1608810899,11523139,'',"[wheel_left_joint, wheel_right_joint]","[637.5583602930419, 644.3695427756757]","[0.0, 0.0]","[0.0, 0.0]"
1608810899006384355,,52369,,1608810899,32017259,'',"[wheel_left_joint, wheel_right_joint]","[637.5583602930419, 644.3695427756757]","[0.0, 0.0]","[0.0, 0.0]"
1608810899033170752,,52370,,1608810899,52062898,'',"[wheel_left_joint, wheel_right_joint]","[637.5583602930419, 644.3695427756757]","[0.0, 0.0]","[0.0, 0.0]"
1608810899033180419,,52371,,1608810899,70111360,'',"[wheel_left_joint, wheel_right_joint]","[637.5583602930419, 644.3695427756757]","[0.0, 0.0]","[0.0, 0.0]"
1608810899066245179,,52372,,1608810899,89969837,'',"[wheel_left_joint, wheel_right_joint]","[637.5583602930419, 644.3695427756757]","[0.0, 0.0]","[0.0, 0.0]"
1608810899092381820,,52373,,1608810899,111125603,'',"[wheel_left_joint, wheel_right_joint]","[637.5583602930419, 644.3695427756757]","[0.0, 0.0]","[0.0, 0.0]"
1608810899092467656,,52374,,1608810899,130098490,'',"[wheel_left_joint, wheel_right_joint]","[637.5583602930419, 644.3695427756757]","[0.0, 0.0]","[0.0, 0.0]"
1608810899122516047,,52375,,1608810899,150161940,'',"[wheel_left_joint, wheel_right_joint]","[637.5583602930419, 644.3695427756757]","[0.0, 0.0]","[0.0, 0.0]"
1608810899152829917,,52376,,1608810899,170157650,'',"[wheel_left_joint, wheel_right_joint]","[637.5583602930419, 644.3695427756757]","[0.0, 0.0]","[0.0, 0.0]"
1608810899152865414,,52377,,1608810899,190209421,'',"[wheel_left_joint, wheel_right_joint]","[637.5583602930419, 644.3695427756757]","[0.0, 0.0]","[0.0, 0.0]"
1608810899174887436,,52378,,1608810899,211203427,'',"[wheel_left_joint, wheel_right_joint]","[637.5583602930419, 644.3695427756757]","[0.0, 0.0]","[0.0, 0.0]"
1608810899192133018,,52379,,1608810899,230174854,'',"[wheel_left_joint, wheel_right_joint]","[637.5583602930419, 644.3695427756757]","[0.0, 0.0]","[0.0, 0.0]"
1608810899211085318,,52380,,1608810899,250127058,'',"[wheel_left_joint, wheel_right_joint]","[637.5583602930419, 644.3695427756757]","[0.0, 0.0]","[0.0, 0.0]"
1608810899235864481,,52381,,1608810899,270156054,'',"[wheel_left_joint, wheel_right_joint]","[637.5583602930419, 644.3695427756757]","[0.0, 0.0]","[0.0, 0.0]"
1608810899265716333,,52382,,1608810899,290204030,'',"[wheel_left_joint, wheel_right_joint]","[637.5583602930419, 644.3695427756757]","[0.0, 0.0]","[0.0, 0.0]"
1608810899288836173,,52383,,1608810899,313209228,'',"[wheel_left_joint, wheel_right_joint]","[637.5583602930419, 644.3695427756757]","[0.0, 0.0]","[0.0, 0.0]"
1608810899288883652,,52384,,1608810899,330682480,'',"[wheel_left_joint, wheel_right_joint]","[637.5583602930419, 644.3695427756757]","[0.0, 0.0]","[0.0, 0.0]"
1608810899323214318,,52385,,1608810899,350346495,'',"[wheel_left_joint, wheel_right_joint]","[637.5583602930419, 644.3695427756757]","[0.0, 0.0]","[0.0, 0.0]"
1608810899345382555,,52386,,1608810899,370275049,'',"[wheel_left_joint, wheel_right_joint]","[637.5583602930419, 644.3695427756757]","[0.0, 0.0]","[0.0, 0.0]"
1608810899381457835,,52387,,1608810899,391004224,'',"[wheel_left_joint, wheel_right_joint]","[637.5583602930419, 644.3695427756757]","[0.0, 0.0]","[0.0, 0.0]"
1608810899381561825,,52388,,1608810899,411120816,'',"[wheel_left_joint, wheel_right_joint]","[637.5583602930419, 644.3695427756757]","[0.0, 0.0]","[0.0, 0.0]"
1608810899412365432,,52389,,1608810899,430510949,'',"[wheel_left_joint, wheel_right_joint]","[637.5583602930419, 644.3695427756757]","[0.0, 0.0]","[0.0, 0.0]"
1608810899441483641,,52390,,1608810899,450459650,'',"[wheel_left_joint, wheel_right_joint]","[637.5583602930419, 644.3695427756757]","[0.0, 0.0]","[0.0, 0.0]"
1608810899441578037,,52391,,1608810899,469895332,'',"[wheel_left_joint, wheel_right_joint]","[637.5583602930419, 644.3695427756757]","[0.0, 0.0]","[0.0, 0.0]"
1608810899475676372,,52392,,1608810899,490572827,'',"[wheel_left_joint, wheel_right_joint]","[637.5583602930419, 644.3695427756757]","[0.0, 0.0]","[0.0, 0.0]"
1608810899475703766,,52393,,1608810899,510480649,'',"[wheel_left_joint, wheel_right_joint]","[637.5583602930419, 644.3695427756757]","[0.0, 0.0]","[0.0, 0.0]"
1608810899492067612,,52394,,1608810899,530383508,'',"[wheel_left_joint, wheel_right_joint]","[637.5583602930419, 644.3695427756757]","[0.0, 0.0]","[0.0, 0.0]"
1608810899516861995,,52395,,1608810899,549432019,'',"[wheel_left_joint, wheel_right_joint]","[637.5583602930419, 644.3695427756757]","[0.0, 0.0]","[0.0, 0.0]"
1608810899533488634,,52396,,1608810899,569444080,'',"[wheel_left_joint, wheel_right_joint]","[637.5583602930419, 644.3695427756757]","[0.0, 0.0]","[0.0, 0.0]"
1608810899571727332,,52397,,1608810899,590498819,'',"[wheel_left_joint, wheel_right_joint]","[637.5583602930419, 644.3695427756757]","[0.0, 0.0]","[0.0, 0.0]"
1608810899591926963,,52398,,1608810899,611724077,'',"[wheel_left_joint, wheel_right_joint]","[637.5583602930419, 644.3695427756757]","[0.0, 0.0]","[0.0, 0.0]"
1608810899591952796,,52399,,1608810899,630507758,'',"[wheel_left_joint, wheel_right_joint]","[637.5583602930419, 644.3695427756757]","[0.0, 0.0]","[0.0, 0.0]"
1608810899654146245,,52400,,1608810899,649543713,'',"[wheel_left_joint, wheel_right_joint]","[637.5583602930419, 644.3695427756757]","[0.0, 0.0]","[0.0, 0.0]"
1608810899674731855,,52401,,1608810899,670101202,'',"[wheel_left_joint, wheel_right_joint]","[637.5583602930419, 644.3695427756757]","[0.0, 0.0]","[0.0, 0.0]"
1608810899674738612,,52402,,1608810899,690748038,'',"[wheel_left_joint, wheel_right_joint]","[637.5583602930419, 644.3695427756757]","[0.0, 0.0]","[0.0, 0.0]"
1608810899674783284,,52403,,1608810899,709583692,'',"[wheel_left_joint, wheel_right_joint]","[637.5583602930419, 644.3695427756757]","[0.0, 0.0]","[0.0, 0.0]"
1608810899695426519,,52404,,1608810899,729671085,'',"[wheel_left_joint, wheel_right_joint]","[637.5583602930419, 644.3695427756757]","[0.0, 0.0]","[0.0, 0.0]"
1608810899711383943,,52405,,1608810899,749726068,'',"[wheel_left_joint, wheel_right_joint]","[637.5583602930419, 644.3695427756757]","[0.0, 0.0]","[0.0, 0.0]"
1608810899724460990,,52406,,1608810899,769741925,'',"[wheel_left_joint, wheel_right_joint]","[637.5583602930419, 644.3695427756757]","[0.0, 0.0]","[0.0, 0.0]"
1608810899747676080,,52407,,1608810899,789865816,'',"[wheel_left_joint, wheel_right_joint]","[637.5583602930419, 644.3695427756757]","[0.0, 0.0]","[0.0, 0.0]"
1608810899761972768,,52408,,1608810899,808886589,'',"[wheel_left_joint, wheel_right_joint]","[637.5583602930419, 644.3695427756757]","[0.0, 0.0]","[0.0, 0.0]"
1608810899792441501,,52409,,1608810899,829018363,'',"[wheel_left_joint, wheel_right_joint]","[637.5583602930419, 644.3695427756757]","[0.0, 0.0]","[0.0, 0.0]"
1608810899820244312,,52410,,1608810899,848951588,'',"[wheel_left_joint, wheel_right_joint]","[637.5583602930419, 644.3695427756757]","[0.0, 0.0]","[0.0, 0.0]"
1608810899851177141,,52411,,1608810899,868992848,'',"[wheel_left_joint, wheel_right_joint]","[637.5583602930419, 644.3695427756757]","[0.0, 0.0]","[0.0, 0.0]"
1608810899873796002,,52412,,1608810899,889969627,'',"[wheel_left_joint, wheel_right_joint]","[637.5583602930419, 644.3695427756757]","[0.0, 0.0]","[0.0, 0.0]"
1608810899873805255,,52413,,1608810899,909030109,'',"[wheel_left_joint, wheel_right_joint]","[637.5583602930419, 644.3695427756757]","[0.0, 0.0]","[0.0, 0.0]"
1608810899896650191,,52414,,1608810899,929082464,'',"[wheel_left_joint, wheel_right_joint]","[637.5583602930419, 644.3695427756757]","[0.0, 0.0]","[0.0, 0.0]"
1608810899911878246,,52415,,1608810899,949073210,'',"[wheel_left_joint, wheel_right_joint]","[637.5583602930419, 644.3695427756757]","[0.0, 0.0]","[0.0, 0.0]"
1608810899927660336,,52416,,1608810899,969085855,'',"[wheel_left_joint, wheel_right_joint]","[637.5583602930419, 644.3695427756757]","[0.0, 0.0]","[0.0, 0.0]"
1608810899943437993,,52417,,1608810899,989163905,'',"[wheel_left_joint, wheel_right_joint]","[637.5583602930419, 644.3695427756757]","[0.0, 0.0]","[0.0, 0.0]"
1608810899957282498,,52418,,1608810900,9186042,'',"[wheel_left_joint, wheel_right_joint]","[637.5583602930419, 644.3695427756757]","[0.0, 0.0]","[0.0, 0.0]"
1608810899983055031,,52419,,1608810900,29085016,'',"[wheel_left_joint, wheel_right_joint]","[637.5583602930419, 644.3695427756757]","[0.0, 0.0]","[0.0, 0.0]"
1608810900005745530,,52420,,1608810900,48119560,'',"[wheel_left_joint, wheel_right_joint]","[637.5583602930419, 644.3695427756757]","[0.0, 0.0]","[0.0, 0.0]"
1608810900023126253,,52421,,1608810900,68138902,'',"[wheel_left_joint, wheel_right_joint]","[637.5583602930419, 644.3695427756757]","[0.0, 0.0]","[0.0, 0.0]"
1608810900058337634,,52422,,1608810900,89238509,'',"[wheel_left_joint, wheel_right_joint]","[637.5583602930419, 644.3695427756757]","[0.0, 0.0]","[0.0, 0.0]"
1608810900080457277,,52423,,1608810900,109250845,'',"[wheel_left_joint, wheel_right_joint]","[637.5583602930419, 644.3695427756757]","[0.0, 0.0]","[0.0, 0.0]"
1608810900103290990,,52424,,1608810900,129367996,'',"[wheel_left_joint, wheel_right_joint]","[637.5583602930419, 644.3695427756757]","[0.0, 0.0]","[0.0, 0.0]"
1608810900120964145,,52425,,1608810900,148158173,'',"[wheel_left_joint, wheel_right_joint]","[637.5583602930419, 644.3695427756757]","[0.0, 0.0]","[0.0, 0.0]"
1608810900140755491,,52426,,1608810900,168129926,'',"[wheel_left_joint, wheel_right_joint]","[637.5583602930419, 644.3695427756757]","[0.0, 0.0]","[0.0, 0.0]"
1608810900159493409,,52427,,1608810900,189213475,'',"[wheel_left_joint, wheel_right_joint]","[637.5583602930419, 644.3695427756757]","[0.0, 0.0]","[0.0, 0.0]"
1608810900247028704,,52428,,1608810900,209209753,'',"[wheel_left_joint, wheel_right_joint]","[637.5583602930419, 644.3695427756757]","[0.0, 0.0]","[0.0, 0.0]"
1608810900247050960,,52429,,1608810900,228323426,'',"[wheel_left_joint, wheel_right_joint]","[637.5583602930419, 644.3695427756757]","[0.0, 0.0]","[0.0, 0.0]"
1608810900247063413,,52430,,1608810900,248383060,'',"[wheel_left_joint, wheel_right_joint]","[637.5583602930419, 644.3695427756757]","[0.0, 0.0]","[0.0, 0.0]"
1608810900247077302,,52431,,1608810900,268278318,'',"[wheel_left_joint, wheel_right_joint]","[637.5583602930419, 644.3695427756757]","[0.0, 0.0]","[0.0, 0.0]"
1608810900456263437,,52432,,1608810900,290156884,'',"[wheel_left_joint, wheel_right_joint]","[637.5583602930419, 644.3695427756757]","[0.0, 0.0]","[0.0, 0.0]"
1608810900456268782,,52433,,1608810900,309094502,'',"[wheel_left_joint, wheel_right_joint]","[637.5583602930419, 644.3695427756757]","[0.0, 0.0]","[0.0, 0.0]"
1608810900497458670,,52434,,1608810900,330485781,'',"[wheel_left_joint, wheel_right_joint]","[637.5583602930419, 644.3695427756757]","[0.0, 0.0]","[0.0, 0.0]"
1608810900497678375,,52435,,1608810900,349005600,'',"[wheel_left_joint, wheel_right_joint]","[637.5583602930419, 644.3695427756757]","[0.0, 0.0]","[0.0, 0.0]"
1608810900497714057,,52436,,1608810900,369237201,'',"[wheel_left_joint, wheel_right_joint]","[637.5583602930419, 644.3695427756757]","[0.0, 0.0]","[0.0, 0.0]"
1608810900497740975,,52437,,1608810900,390297685,'',"[wheel_left_joint, wheel_right_joint]","[637.5583602930419, 644.3695427756757]","[0.0, 0.0]","[0.0, 0.0]"
1608810900497750325,,52438,,1608810900,410071778,'',"[wheel_left_joint, wheel_right_joint]","[637.5583602930419, 644.3695427756757]","[0.0, 0.0]","[0.0, 0.0]"
1608810900497759422,,52439,,1608810900,428508388,'',"[wheel_left_joint, wheel_right_joint]","[637.5583602930419, 644.3695427756757]","[0.0, 0.0]","[0.0, 0.0]"
1608810900497862630,,52440,,1608810900,448509629,'',"[wheel_left_joint, wheel_right_joint]","[637.5583602930419, 644.3695427756757]","[0.0, 0.0]","[0.0, 0.0]"
1608810900498044988,,52441,,1608810900,468760791,'',"[wheel_left_joint, wheel_right_joint]","[637.5583602930419, 644.3695427756757]","[0.0, 0.0]","[0.0, 0.0]"
1608810900498104244,,52442,,1608810900,490337175,'',"[wheel_left_joint, wheel_right_joint]","[637.5583602930419, 644.3695427756757]","[0.0, 0.0]","[0.0, 0.0]"
1608810900498122175,,52443,,1608810900,509231583,'',"[wheel_left_joint, wheel_right_joint]","[637.5583602930419, 644.3695427756757]","[0.0, 0.0]","[0.0, 0.0]"
1608810900498133794,,52444,,1608810900,529291801,'',"[wheel_left_joint, wheel_right_joint]","[637.5583602930419, 644.3695427756757]","[0.0, 0.0]","[0.0, 0.0]"
1608810900521822500,,52445,,1608810900,549279611,'',"[wheel_left_joint, wheel_right_joint]","[637.5583602930419, 644.3695427756757]","[0.0, 0.0]","[0.0, 0.0]"
1608810900555858799,,52446,,1608810900,569259831,'',"[wheel_left_joint, wheel_right_joint]","[637.5583602930419, 644.3695427756757]","[0.0, 0.0]","[0.0, 0.0]"
1608810900555917714,,52447,,1608810900,590147765,'',"[wheel_left_joint, wheel_right_joint]","[637.5583602930419, 644.3695427756757]","[0.0, 0.0]","[0.0, 0.0]"
1608810900589399070,,52448,,1608810900,609334137,'',"[wheel_left_joint, wheel_right_joint]","[637.5583602930419, 644.3695427756757]","[0.0, 0.0]","[0.0, 0.0]"
1608810900622339397,,52449,,1608810900,629820913,'',"[wheel_left_joint, wheel_right_joint]","[637.5583602930419, 644.3695427756757]","[0.0, 0.0]","[0.0, 0.0]"
1608810900622453535,,52450,,1608810900,648605251,'',"[wheel_left_joint, wheel_right_joint]","[637.5583602930419, 644.3695427756757]","[0.0, 0.0]","[0.0, 0.0]"
1608810900652035418,,52451,,1608810900,672561428,'',"[wheel_left_joint, wheel_right_joint]","[637.5583602930419, 644.3695427756757]","[0.0, 0.0]","[0.0, 0.0]"
1608810900699969045,,52452,,1608810900,689551943,'',"[wheel_left_joint, wheel_right_joint]","[637.5583602930419, 644.3695427756757]","[0.0, 0.0]","[0.0, 0.0]"
1608810900700038354,,52453,,1608810900,709389392,'',"[wheel_left_joint, wheel_right_joint]","[637.5583602930419, 644.3695427756757]","[0.0, 0.0]","[0.0, 0.0]"
1608810900700094504,,52454,,1608810900,728370222,'',"[wheel_left_joint, wheel_right_joint]","[637.5583602930419, 644.3695427756757]","[0.0, 0.0]","[0.0, 0.0]"
1608810900726681779,,52455,,1608810900,748514525,'',"[wheel_left_joint, wheel_right_joint]","[637.5583602930419, 644.3695427756757]","[0.0, 0.0]","[0.0, 0.0]"
1608810900854517681,,52456,,1608810900,770325939,'',"[wheel_left_joint, wheel_right_joint]","[637.5583602930419, 644.3695427756757]","[0.0, 0.0]","[0.0, 0.0]"
1608810900855567007,,52457,,1608810900,790625859,'',"[wheel_left_joint, wheel_right_joint]","[637.5583602930419, 644.3695427756757]","[0.0, 0.0]","[0.0, 0.0]"
1608810900904288208,,52458,,1608810900,809858068,'',"[wheel_left_joint, wheel_right_joint]","[637.5583602930419, 644.3695427756757]","[0.0, 0.0]","[0.0, 0.0]"
1608810900904307655,,52459,,1608810900,827774983,'',"[wheel_left_joint, wheel_right_joint]","[637.5583602930419, 644.3695427756757]","[0.0, 0.0]","[0.0, 0.0]"
1608810900904321319,,52460,,1608810900,847765422,'',"[wheel_left_joint, wheel_right_joint]","[637.5583602930419, 644.3695427756757]","[0.0, 0.0]","[0.0, 0.0]"
1608810900904339738,,52461,,1608810900,868777440,'',"[wheel_left_joint, wheel_right_joint]","[637.5583602930419, 644.3695427756757]","[0.0, 0.0]","[0.0, 0.0]"
1608810900904351459,,52462,,1608810900,888472412,'',"[wheel_left_joint, wheel_right_joint]","[637.5583602930419, 644.3695427756757]","[0.0, 0.0]","[0.0, 0.0]"
1608810900904408912,,52463,,1608810900,909045317,'',"[wheel_left_joint, wheel_right_joint]","[637.5583602930419, 644.3695427756757]","[0.0, 0.0]","[0.0, 0.0]"
1608810900941093973,,52464,,1608810900,929737928,'',"[wheel_left_joint, wheel_right_joint]","[637.5583602930419, 644.3695427756757]","[0.0, 0.0]","[0.0, 0.0]"
1608810900941120033,,52465,,1608810900,948643138,'',"[wheel_left_joint, wheel_right_joint]","[637.650963131804, 644.4597086976282]","[4.630141938105226, 4.508296097628772]","[0.0, 0.0]"
1608810900941145264,,52466,,1608810900,969700703,'',"[wheel_left_joint, wheel_right_joint]","[637.8020519739948, 644.5961760389619]","[7.554442109540105, 6.823367066681385]","[0.0, 0.0]"
1608810900971977419,,52467,,1608810900,988808536,'',"[wheel_left_joint, wheel_right_joint]","[637.9068393968046, 644.6960896281525]","[5.239371140487492, 4.9956794595345855]","[0.0, 0.0]"
1608810900972181861,,52468,,1608810901,8713623,'',"[wheel_left_joint, wheel_right_joint]","[637.9604515666142, 644.7497017979622]","[2.6806084904819727, 2.6806084904819727]","[0.0, 0.0]"
1608810901006920057,,52469,,1608810901,28701587,'',"[wheel_left_joint, wheel_right_joint]","[638.0043160691857, 644.8033139677718]","[2.1932251285761595, 2.6806084904819727]","[0.0, 0.0]"
1608810901044606681,,52470,,1608810901,49459684,'',"[wheel_left_joint, wheel_right_joint]","[638.0920450743288, 644.8861691392958]","[4.386450257152319, 4.142758576199412]","[0.0, 0.0]"
1608810901044732470,,52471,,1608810901,69779604,'',"[wheel_left_joint, wheel_right_joint]","[638.1870848299004, 644.9860827284865]","[4.751987778581679, 4.9956794595345855]","[0.0, 0.0]"
1608810901066488783,,52472,,1608810901,88688265,'',"[wheel_left_joint, wheel_right_joint]","[638.282124585472, 645.0859963176772]","[4.751987778581679, 4.9956794595345855]","[0.0, 0.0]"
1608810901066587004,,52473,,1608810901,108645299,'',"[wheel_left_joint, wheel_right_joint]","[638.3722905074246, 645.1810360732488]","[4.508296097628772, 4.751987778581679]","[0.0, 0.0]"
1608810901097139320,,52474,,1608810901,128681449,'',"[wheel_left_joint, wheel_right_joint]","[638.4600195125677, 645.2663281615824]","[4.386450257152319, 4.264604416675866]","[0.0, 0.0]"
1608810901121232228,,52475,,1608810901,148609288,'',"[wheel_left_joint, wheel_right_joint]","[638.5477485177107, 645.3540571667254]","[4.386450257152319, 4.386450257152319]","[0.0, 0.0]"
1608810901140785346,,52476,,1608810901,169109631,'',"[wheel_left_joint, wheel_right_joint]","[638.6306036892347, 645.4393492550589]","[4.142758576199412, 4.264604416675866]","[0.0, 0.0]"
1608810901168424194,,52477,,1608810901,190323777,'',"[wheel_left_joint, wheel_right_joint]","[638.7110219439492, 645.5197675097734]","[4.020912735722959, 4.020912735722959]","[0.0, 0.0]"
1608810901168449171,,52478,,1608810901,208796565,'',"[wheel_left_joint, wheel_right_joint]","[638.7963140322827, 645.6074965149164]","[4.264604416675866, 4.386450257152319]","[0.0, 0.0]"
1608810901192779940,,52479,,1608810901,227783175,'',"[wheel_left_joint, wheel_right_joint]","[638.8864799542353, 645.702536270488]","[4.508296097628772, 4.751987778581679]","[0.0, 0.0]"
1608810901222883254,,52480,,1608810901,247837426,'',"[wheel_left_joint, wheel_right_joint]","[638.9790827929974, 645.7975760260597]","[4.630141938105226, 4.751987778581679]","[0.0, 0.0]"
1608810901273661769,,52481,,1608810901,270292921,'',"[wheel_left_joint, wheel_right_joint]","[639.0619379645213, 645.8828681143932]","[4.142758576199412, 4.264604416675866]","[0.0, 0.0]"
1608810901273736678,,52482,,1608810901,288787313,'',"[wheel_left_joint, wheel_right_joint]","[639.1399193024263, 645.9608494522981]","[3.8990668952465057, 3.8990668952465057]","[0.0, 0.0]"
1608810901302925998,,52483,,1608810901,308775876,'',"[wheel_left_joint, wheel_right_joint]","[639.2227744739503, 646.0412677070126]","[4.142758576199412, 4.020912735722959]","[0.0, 0.0]"
1608810901302971907,,52484,,1608810901,327706725,'',"[wheel_left_joint, wheel_right_joint]","[639.3080665622838, 646.1265597953461]","[4.264604416675866, 4.264604416675866]","[0.0, 0.0]"
1608810901333179345,,52485,,1608810901,347880673,'',"[wheel_left_joint, wheel_right_joint]","[639.3982324842364, 646.2191626341082]","[4.508296097628772, 4.630141938105226]","[0.0, 0.0]"
1608810901333255737,,52486,,1608810901,368701863,'',"[wheel_left_joint, wheel_right_joint]","[639.4859614893794, 646.3117654728703]","[4.386450257152319, 4.630141938105226]","[0.0, 0.0]"
1608810901352332409,,52487,,1608810901,388274405,'',"[wheel_left_joint, wheel_right_joint]","[639.5712535777129, 646.4043683116324]","[4.264604416675866, 4.630141938105226]","[0.0, 0.0]"
1608810901380727274,,52488,,1608810901,407812499,'',"[wheel_left_joint, wheel_right_joint]","[639.6565456660464, 646.4896603999659]","[4.264604416675866, 4.264604416675866]","[0.0, 0.0]"
1608810901400741047,,52489,,1608810901,426928148,'',"[wheel_left_joint, wheel_right_joint]","[639.746711587999, 646.5725155714899]","[4.508296097628772, 4.142758576199412]","[0.0, 0.0]"
1608810901400858075,,52490,,1608810901,446984151,'',"[wheel_left_joint, wheel_right_joint]","[639.8344405931421, 646.660244576633]","[4.386450257152319, 4.386450257152319]","[0.0, 0.0]"
1608810901422040789,,52491,,1608810901,468006490,'',"[wheel_left_joint, wheel_right_joint]","[639.9221695982851, 646.7504104985856]","[4.386450257152319, 4.508296097628772]","[0.0, 0.0]"
1608810901443268051,,52492,,1608810901,486985802,'',"[wheel_left_joint, wheel_right_joint]","[640.0074616866186, 646.8381395037286]","[4.264604416675866, 4.386450257152319]","[0.0, 0.0]"
1608810901461778988,,52493,,1608810901,507027499,'',"[wheel_left_joint, wheel_right_joint]","[640.0927537749521, 646.9283054256812]","[4.264604416675866, 4.508296097628772]","[0.0, 0.0]"
1608810901500712265,,52494,,1608810901,527016647,'',"[wheel_left_joint, wheel_right_joint]","[640.1780458632857, 647.0160344308242]","[4.264604416675866, 4.386450257152319]","[0.0, 0.0]"
1608810901527593300,,52495,,1608810901,547052505,'',"[wheel_left_joint, wheel_right_joint]","[640.2657748684287, 647.1062003527768]","[4.386450257152319, 4.508296097628772]","[0.0, 0.0]"
1608810901527627895,,52496,,1608810901,568791860,'',"[wheel_left_joint, wheel_right_joint]","[640.3559407903813, 647.1939293579198]","[4.508296097628772, 4.386450257152319]","[0.0, 0.0]"
1608810901550823984,,52497,,1608810901,588086472,'',"[wheel_left_joint, wheel_right_joint]","[640.4412328787148, 647.2816583630629]","[4.264604416675866, 4.386450257152319]","[0.0, 0.0]"
1608810901570314845,,52498,,1608810901,607912130,'',"[wheel_left_joint, wheel_right_joint]","[640.5289618838578, 647.3693873682059]","[4.386450257152319, 4.386450257152319]","[0.0, 0.0]"
1608810901597030244,,52499,,1608810901,627957331,'',"[wheel_left_joint, wheel_right_joint]","[640.6191278058104, 647.457116373349]","[4.508296097628772, 4.386450257152319]","[0.0, 0.0]"
1608810901625772285,,52500,,1608810901,648792242,'',"[wheel_left_joint, wheel_right_joint]","[640.7068568109535, 647.5472822953016]","[4.386450257152319, 4.508296097628772]","[0.0, 0.0]"
1608810901625786385,,52501,,1608810901,668168014,'',"[wheel_left_joint, wheel_right_joint]","[640.7945858160965, 647.6374482172541]","[4.386450257152319, 4.508296097628772]","[0.0, 0.0]"
1608810901660508995,,52502,,1608810901,688208835,'',"[wheel_left_joint, wheel_right_joint]","[640.8823148212396, 647.7251772223972]","[4.386450257152319, 4.386450257152319]","[0.0, 0.0]"
1608810901686915026,,52503,,1608810901,708001796,'',"[wheel_left_joint, wheel_right_joint]","[640.9700438263826, 647.8129062275402]","[4.386450257152319, 4.386450257152319]","[0.0, 0.0]"
1608810901687044286,,52504,,1608810901,727973719,'',"[wheel_left_joint, wheel_right_joint]","[641.0577728315257, 647.9006352326833]","[4.386450257152319, 4.386450257152319]","[0.0, 0.0]"
1608810901718349138,,52505,,1608810901,748091030,'',"[wheel_left_joint, wheel_right_joint]","[641.1479387534782, 647.9883642378263]","[4.508296097628772, 4.386450257152319]","[0.0, 0.0]"
1608810901749963715,,52506,,1608810901,768223230,'',"[wheel_left_joint, wheel_right_joint]","[641.2356677586213, 648.0760932429694]","[4.386450257152319, 4.386450257152319]","[0.0, 0.0]"
1608810901750057387,,52507,,1608810901,788406229,'',"[wheel_left_joint, wheel_right_joint]","[641.3233967637643, 648.1638222481124]","[4.386450257152319, 4.386450257152319]","[0.0, 0.0]"
1608810901773100354,,52508,,1608810901,809909693,'',"[wheel_left_joint, wheel_right_joint]","[641.4135626857169, 648.2564250868745]","[4.508296097628772, 4.630141938105226]","[0.0, 0.0]"
1608810901797437311,,52509,,1608810901,827995654,'',"[wheel_left_joint, wheel_right_joint]","[641.50129169086, 648.3490279256366]","[4.386450257152319, 4.630141938105226]","[0.0, 0.0]"
1608810901826067379,,52510,,1608810901,848962524,'',"[wheel_left_joint, wheel_right_joint]","[641.589020696003, 648.4391938475892]","[4.386450257152319, 4.508296097628772]","[0.0, 0.0]"
1608810901862883900,,52511,,1608810901,868186485,'',"[wheel_left_joint, wheel_right_joint]","[641.6791866179556, 648.5269228527322]","[4.508296097628772, 4.386450257152319]","[0.0, 0.0]"
1608810901862938494,,52512,,1608810901,888239568,'',"[wheel_left_joint, wheel_right_joint]","[641.7693525399081, 648.6170887746848]","[4.508296097628772, 4.508296097628772]","[0.0, 0.0]"
1608810901888675079,,52513,,1608810901,908078948,'',"[wheel_left_joint, wheel_right_joint]","[641.8546446282417, 648.7023808630183]","[4.264604416675866, 4.264604416675866]","[0.0, 0.0]"
1608810901888720364,,52514,,1608810901,927115189,'',"[wheel_left_joint, wheel_right_joint]","[641.9448105501942, 648.7925467849709]","[4.508296097628772, 4.508296097628772]","[0.0, 0.0]"
1608810901912494611,,52515,,1608810901,948306564,'',"[wheel_left_joint, wheel_right_joint]","[642.0349764721468, 648.8827127069235]","[4.508296097628772, 4.508296097628772]","[0.0, 0.0]"
1608810901936539376,,52516,,1608810901,968165504,'',"[wheel_left_joint, wheel_right_joint]","[642.1227054772899, 648.9704417120665]","[4.386450257152319, 4.386450257152319]","[0.0, 0.0]"
1608810901967922153,,52517,,1608810901,988156111,'',"[wheel_left_joint, wheel_right_joint]","[642.2104344824329, 649.0630445508286]","[4.386450257152319, 4.630141938105226]","[0.0, 0.0]"
1608810901968012670,,52518,,1608810902,7193520,'',"[wheel_left_joint, wheel_right_joint]","[642.298163487576, 649.1556473895907]","[4.386450257152319, 4.630141938105226]","[0.0, 0.0]"
1608810902028585401,,52519,,1608810902,27171098,'',"[wheel_left_joint, wheel_right_joint]","[642.3883294095285, 649.2433763947338]","[4.508296097628772, 4.386450257152319]","[0.0, 0.0]"
1608810902055999370,,52520,,1608810902,49761709,'',"[wheel_left_joint, wheel_right_joint]","[642.4809322482906, 649.3359792334959]","[4.630141938105226, 4.630141938105226]","[0.0, 0.0]"
1608810902056002862,,52521,,1608810902,67217543,'',"[wheel_left_joint, wheel_right_joint]","[642.5710981702432, 649.428582072258]","[4.508296097628772, 4.630141938105226]","[0.0, 0.0]"
1608810902056006192,,52522,,1608810902,87209649,'',"[wheel_left_joint, wheel_right_joint]","[642.6588271753863, 649.516311077401]","[4.386450257152319, 4.386450257152319]","[0.0, 0.0]"
1608810902081617205,,52523,,1608810902,107257220,'',"[wheel_left_joint, wheel_right_joint]","[642.7465561805293, 649.6040400825441]","[4.386450257152319, 4.386450257152319]","[0.0, 0.0]"
1608810902116817384,,52524,,1608810902,128121314,'',"[wheel_left_joint, wheel_right_joint]","[642.8367221024819, 649.6966429213062]","[4.508296097628772, 4.630141938105226]","[0.0, 0.0]"
1608810902116829530,,52525,,1608810902,148285656,'',"[wheel_left_joint, wheel_right_joint]","[642.9268880244344, 649.7892457600683]","[4.508296097628772, 4.630141938105226]","[0.0, 0.0]"
1608810902141481799,,52526,,1608810902,167337461,'',"[wheel_left_joint, wheel_right_joint]","[643.017053946387, 649.8794116820209]","[4.508296097628772, 4.508296097628772]","[0.0, 0.0]"
1608810902159443114,,52527,,1608810902,187640177,'',"[wheel_left_joint, wheel_right_joint]","[643.1072198683396, 649.9695776039734]","[4.508296097628772, 4.508296097628772]","[0.0, 0.0]"
1608810902159528046,,52528,,1608810902,206536968,'',"[wheel_left_joint, wheel_right_joint]","[643.1973857902922, 650.0573066091165]","[4.508296097628772, 4.386450257152319]","[0.0, 0.0]"
1608810902179370267,,52529,,1608810902,226680875,'',"[wheel_left_joint, wheel_right_joint]","[643.2875517122447, 650.1474725310691]","[4.508296097628772, 4.508296097628772]","[0.0, 0.0]"
1608810902206362635,,52530,,1608810902,247594889,'',"[wheel_left_joint, wheel_right_joint]","[643.3777176341973, 650.2400753698312]","[4.508296097628772, 4.630141938105226]","[0.0, 0.0]"
1608810902243477261,,52531,,1608810902,266568457,'',"[wheel_left_joint, wheel_right_joint]","[643.4654466393404, 650.3302412917838]","[4.386450257152319, 4.508296097628772]","[0.0, 0.0]"
1608810902283047922,,52532,,1608810902,286612233,'',"[wheel_left_joint, wheel_right_joint]","[643.5580494781025, 650.4228441305459]","[4.630141938105226, 4.630141938105226]","[0.0, 0.0]"
1608810902284357959,,52533,,1608810902,306478225,'',"[wheel_left_joint, wheel_right_joint]","[643.6457784832455, 650.515446969308]","[4.386450257152319, 4.630141938105226]","[0.0, 0.0]"
1608810902310478797,,52534,,1608810902,326496311,'',"[wheel_left_joint, wheel_right_joint]","[643.7359444051981, 650.6080498080701]","[4.508296097628772, 4.630141938105226]","[0.0, 0.0]"
1608810902310576700,,52535,,1608810902,346674374,'',"[wheel_left_joint, wheel_right_joint]","[643.8285472439602, 650.7006526468322]","[4.630141938105226, 4.630141938105226]","[0.0, 0.0]"
1608810902354123014,,52536,,1608810902,366480813,'',"[wheel_left_joint, wheel_right_joint]","[643.9211500827223, 650.7932554855943]","[4.630141938105226, 4.630141938105226]","[0.0, 0.0]"
1608810902371056786,,52537,,1608810902,386585894,'',"[wheel_left_joint, wheel_right_joint]","[644.0113160046749, 650.8858583243564]","[4.508296097628772, 4.630141938105226]","[0.0, 0.0]"
1608810902371106787,,52538,,1608810902,406588800,'',"[wheel_left_joint, wheel_right_joint]","[644.1014819266275, 650.9735873294994]","[4.508296097628772, 4.386450257152319]","[0.0, 0.0]"
1608810902389340973,,52539,,1608810902,426563973,'',"[wheel_left_joint, wheel_right_joint]","[644.19164784858, 651.0661901682615]","[4.508296097628772, 4.630141938105226]","[0.0, 0.0]"
1608810902408442156,,52540,,1608810902,446923907,'',"[wheel_left_joint, wheel_right_joint]","[644.2842506873421, 651.1612299238332]","[4.630141938105226, 4.751987778581679]","[0.0, 0.0]"
1608810902456402797,,52541,,1608810902,466645686,'',"[wheel_left_joint, wheel_right_joint]","[644.3768535261042, 651.2538327625953]","[4.630141938105226, 4.630141938105226]","[0.0, 0.0]"
1608810902456418473,,52542,,1608810902,486663773,'',"[wheel_left_joint, wheel_right_joint]","[644.4670194480568, 651.3464356013574]","[4.508296097628772, 4.630141938105226]","[0.0, 0.0]"
1608810902475304796,,52543,,1608810902,505702149,'',"[wheel_left_joint, wheel_right_joint]","[644.5547484531999, 651.4341646065004]","[4.386450257152319, 4.386450257152319]","[0.0, 0.0]"
1608810902501041578,,52544,,1608810902,526577044,'',"[wheel_left_joint, wheel_right_joint]","[644.6449143751524, 651.5267674452625]","[4.508296097628772, 4.630141938105226]","[0.0, 0.0]"
1608810902501055312,,52545,,1608810902,546618484,'',"[wheel_left_joint, wheel_right_joint]","[644.7375172139145, 651.6193702840246]","[4.630141938105226, 4.630141938105226]","[0.0, 0.0]"
1608810902538537410,,52546,,1608810902,566591322,'',"[wheel_left_joint, wheel_right_joint]","[644.8301200526766, 651.7095362059772]","[4.630141938105226, 4.508296097628772]","[0.0, 0.0]"
1608810902575699575,,52547,,1608810902,585647797,'',"[wheel_left_joint, wheel_right_joint]","[644.9178490578197, 651.8045759615488]","[4.386450257152319, 4.751987778581679]","[0.0, 0.0]"
1608810902575739411,,52548,,1608810902,605694493,'',"[wheel_left_joint, wheel_right_joint]","[645.0080149797723, 651.8971788003109]","[4.508296097628772, 4.630141938105226]","[0.0, 0.0]"
1608810902598754200,,52549,,1608810902,626085663,'',"[wheel_left_joint, wheel_right_joint]","[645.1006178185344, 651.9946554726921]","[4.630141938105226, 4.873833619058132]","[0.0, 0.0]"
1608810902624253512,,52550,,1608810902,647687459,'',"[wheel_left_joint, wheel_right_joint]","[645.195657574106, 652.0872583114542]","[4.751987778581679, 4.630141938105226]","[0.0, 0.0]"
1608810902656380344,,52551,,1608810902,667189417,'',"[wheel_left_joint, wheel_right_joint]","[645.2858234960586, 652.1749873165973]","[4.508296097628772, 4.386450257152319]","[0.0, 0.0]"
1608810902656406093,,52552,,1608810902,686640287,'',"[wheel_left_joint, wheel_right_joint]","[645.3735525012016, 652.2651532385498]","[4.386450257152319, 4.508296097628772]","[0.0, 0.0]"
1608810902684107647,,52553,,1608810902,706684939,'',"[wheel_left_joint, wheel_right_joint]","[645.4637184231542, 652.3577560773119]","[4.508296097628772, 4.630141938105226]","[0.0, 0.0]"
1608810902684153392,,52554,,1608810902,726691640,'',"[wheel_left_joint, wheel_right_joint]","[645.5563212619163, 652.4552327496931]","[4.630141938105226, 4.873833619058132]","[0.0, 0.0]"
1608810902716432040,,52555,,1608810902,747609740,'',"[wheel_left_joint, wheel_right_joint]","[645.651361017488, 652.5502725052647]","[4.751987778581679, 4.751987778581679]","[0.0, 0.0]"
1608810902736606495,,52556,,1608810902,766542146,'',"[wheel_left_joint, wheel_right_joint]","[645.7415269394405, 652.6428753440268]","[4.508296097628772, 4.630141938105226]","[0.0, 0.0]"
1608810902782294650,,52557,,1608810902,786740352,'',"[wheel_left_joint, wheel_right_joint]","[645.8341297782026, 652.7354781827889]","[4.630141938105226, 4.630141938105226]","[0.0, 0.0]"
1608810902802730227,,52558,,1608810902,806635245,'',"[wheel_left_joint, wheel_right_joint]","[645.9242957001552, 652.828081021551]","[4.508296097628772, 4.630141938105226]","[0.0, 0.0]"
1608810902802762637,,52559,,1608810902,829070787,'',"[wheel_left_joint, wheel_right_joint]","[646.0168985389173, 652.9206838603131]","[4.630141938105226, 4.630141938105226]","[0.0, 0.0]"
1608810902802808081,,52560,,1608810902,845932256,'',"[wheel_left_joint, wheel_right_joint]","[646.1095013776794, 653.0132866990753]","[4.630141938105226, 4.630141938105226]","[0.0, 0.0]"
1608810902818802920,,52561,,1608810902,865893417,'',"[wheel_left_joint, wheel_right_joint]","[646.2021042164415, 653.1107633714564]","[4.630141938105226, 4.873833619058132]","[0.0, 0.0]"
1608810902839030915,,52562,,1608810902,885898658,'',"[wheel_left_joint, wheel_right_joint]","[646.2922701383941, 653.2033662102185]","[4.508296097628772, 4.630141938105226]","[0.0, 0.0]"
1608810902863667972,,52563,,1608810902,905885216,'',"[wheel_left_joint, wheel_right_joint]","[646.3848729771562, 653.2959690489806]","[4.630141938105226, 4.630141938105226]","[0.0, 0.0]"
1608810902890700378,,52564,,1608810902,925990881,'',"[wheel_left_joint, wheel_right_joint]","[646.4774758159183, 653.3934457213618]","[4.630141938105226, 4.873833619058132]","[0.0, 0.0]"
1608810902904459539,,52565,,1608810902,945969557,'',"[wheel_left_joint, wheel_right_joint]","[646.5700786546804, 653.4860485601239]","[4.630141938105226, 4.630141938105226]","[0.0, 0.0]"
1608810902934816777,,52566,,1608810902,965978302,'',"[wheel_left_joint, wheel_right_joint]","[646.665118410252, 653.578651398886]","[4.751987778581679, 4.630141938105226]","[0.0, 0.0]"
1608810902953808092,,52567,,1608810902,985905599,'',"[wheel_left_joint, wheel_right_joint]","[646.7577212490141, 653.6712542376481]","[4.630141938105226, 4.630141938105226]","[0.0, 0.0]"
1608810902973076881,,52568,,1608810903,5829684,'',"[wheel_left_joint, wheel_right_joint]","[646.8503240877762, 653.7638570764102]","[4.630141938105226, 4.630141938105226]","[0.0, 0.0]"
1608810902997578224,,52569,,1608810903,26245235,'',"[wheel_left_joint, wheel_right_joint]","[646.9429269265383, 653.8588968319818]","[4.630141938105226, 4.751987778581679]","[0.0, 0.0]"
1608810903014302844,,52570,,1608810903,46067936,'',"[wheel_left_joint, wheel_right_joint]","[647.0355297653005, 653.9539365875535]","[4.630141938105226, 4.751987778581679]","[0.0, 0.0]"
1608810903040214971,,52571,,1608810903,66001837,'',"[wheel_left_joint, wheel_right_joint]","[647.1281326040626, 654.0489763431251]","[4.630141938105226, 4.751987778581679]","[0.0, 0.0]"
1608810903067578570,,52572,,1608810903,86157592,'',"[wheel_left_joint, wheel_right_joint]","[647.2207354428247, 654.1415791818872]","[4.630141938105226, 4.630141938105226]","[0.0, 0.0]"
1608810903067668672,,52573,,1608810903,105134601,'',"[wheel_left_joint, wheel_right_joint]","[647.3157751983963, 654.2366189374588]","[4.751987778581679, 4.751987778581679]","[0.0, 0.0]"
1608810903108500324,,52574,,1608810903,126066262,'',"[wheel_left_joint, wheel_right_joint]","[647.4108149539679, 654.329221776221]","[4.751987778581679, 4.630141938105226]","[0.0, 0.0]"
1608810903133171546,,52575,,1608810903,146004542,'',"[wheel_left_joint, wheel_right_joint]","[647.50341779273, 654.421824614983]","[4.630141938105226, 4.630141938105226]","[0.0, 0.0]"
1608810903133186920,,52576,,1608810903,165995658,'',"[wheel_left_joint, wheel_right_joint]","[647.5984575483017, 654.5144274537452]","[4.751987778581679, 4.630141938105226]","[0.0, 0.0]"
1608810903164732521,,52577,,1608810903,185159199,'',"[wheel_left_joint, wheel_right_joint]","[647.6910603870638, 654.6094672093168]","[4.630141938105226, 4.751987778581679]","[0.0, 0.0]"
1608810903186299048,,52578,,1608810903,205264162,'',"[wheel_left_joint, wheel_right_joint]","[647.7836632258259, 654.7045069648884]","[4.630141938105226, 4.751987778581679]","[0.0, 0.0]"
1608810903186315590,,52579,,1608810903,226080226,'',"[wheel_left_joint, wheel_right_joint]","[647.8787029813975, 654.7995467204601]","[4.751987778581679, 4.751987778581679]","[0.0, 0.0]"
1608810903210038664,,52580,,1608810903,245300106,'',"[wheel_left_joint, wheel_right_joint]","[647.9737427369691, 654.8945864760317]","[4.751987778581679, 4.751987778581679]","[0.0, 0.0]"
1608810903233435261,,52581,,1608810903,265159277,'',"[wheel_left_joint, wheel_right_joint]","[648.0687824925408, 654.9896262316033]","[4.751987778581679, 4.751987778581679]","[0.0, 0.0]"
1608810903251406699,,52582,,1608810903,285200603,'',"[wheel_left_joint, wheel_right_joint]","[648.1613853313029, 655.084665987175]","[4.630141938105226, 4.751987778581679]","[0.0, 0.0]"
1608810903270685725,,52583,,1608810903,305222078,'',"[wheel_left_joint, wheel_right_joint]","[648.2564250868745, 655.1772688259371]","[4.751987778581679, 4.630141938105226]","[0.0, 0.0]"
1608810903296582220,,52584,,1608810903,326200737,'',"[wheel_left_joint, wheel_right_joint]","[648.3490279256366, 655.2723085815087]","[4.630141938105226, 4.751987778581679]","[0.0, 0.0]"
1608810903309369218,,52585,,1608810903,345768871,'',"[wheel_left_joint, wheel_right_joint]","[648.4440676812083, 655.3649114202708]","[4.751987778581679, 4.630141938105226]","[0.0, 0.0]"
1608810903330399663,,52586,,1608810903,365667158,'',"[wheel_left_joint, wheel_right_joint]","[648.5391074367799, 655.462388092652]","[4.751987778581679, 4.873833619058132]","[0.0, 0.0]"
1608810903352465007,,52587,,1608810903,385304767,'',"[wheel_left_joint, wheel_right_joint]","[648.6341471923515, 655.5574278482236]","[4.751987778581679, 4.751987778581679]","[0.0, 0.0]"
1608810903372118778,,52588,,1608810903,405384333,'',"[wheel_left_joint, wheel_right_joint]","[648.7291869479232, 655.6549045206048]","[4.751987778581679, 4.873833619058132]","[0.0, 0.0]"
1608810903390896733,,52589,,1608810903,426290014,'',"[wheel_left_joint, wheel_right_joint]","[648.8242267034948, 655.7523811929859]","[4.751987778581679, 4.873833619058132]","[0.0, 0.0]"
1608810903422417415,,52590,,1608810903,445475741,'',"[wheel_left_joint, wheel_right_joint]","[648.9192664590664, 655.844984031748]","[4.751987778581679, 4.630141938105226]","[0.0, 0.0]"
1608810903422457675,,52591,,1608810903,465598802,'',"[wheel_left_joint, wheel_right_joint]","[649.0118692978285, 655.9375868705101]","[4.630141938105226, 4.630141938105226]","[0.0, 0.0]"
1608810903549116128,,52592,,1608810903,485418273,'',"[wheel_left_joint, wheel_right_joint]","[649.1069090534002, 656.0375004597008]","[4.751987778581679, 4.9956794595345855]","[0.0, 0.0]"
1608810903549172906,,52593,,1608810903,505362099,'',"[wheel_left_joint, wheel_right_joint]","[649.2019488089718, 656.134977132082]","[4.751987778581679, 4.873833619058132]","[0.0, 0.0]"
1608810903579693133,,52594,,1608810903,525456553,'',"[wheel_left_joint, wheel_right_joint]","[649.2969885645434, 656.2275799708441]","[4.751987778581679, 4.630141938105226]","[0.0, 0.0]"
1608810903579714194,,52595,,1608810903,545519480,'',"[wheel_left_joint, wheel_right_joint]","[649.3920283201151, 656.3226197264157]","[4.751987778581679, 4.751987778581679]","[0.0, 0.0]"
1608810903579752727,,52596,,1608810903,566431875,'',"[wheel_left_joint, wheel_right_joint]","[649.4870680756867, 656.4176594819874]","[4.751987778581679, 4.751987778581679]","[0.0, 0.0]"
1608810903579776246,,52597,,1608810903,586298928,'',"[wheel_left_joint, wheel_right_joint]","[649.5821078312583, 656.512699237559]","[4.751987778581679, 4.751987778581679]","[0.0, 0.0]"
1608810903579816744,,52598,,1608810903,605586824,'',"[wheel_left_joint, wheel_right_joint]","[649.6747106700204, 656.6053020763211]","[4.630141938105226, 4.630141938105226]","[0.0, 0.0]"
1608810903608780591,,52599,,1608810903,627259946,'',"[wheel_left_joint, wheel_right_joint]","[649.7697504255921, 656.7027787487023]","[4.751987778581679, 4.873833619058132]","[0.0, 0.0]"
1608810903608824235,,52600,,1608810903,646539085,'',"[wheel_left_joint, wheel_right_joint]","[649.8647901811637, 656.8002554210834]","[4.751987778581679, 4.873833619058132]","[0.0, 0.0]"
1608810903628336272,,52601,,1608810903,665416551,'',"[wheel_left_joint, wheel_right_joint]","[649.9598299367353, 656.8977320934646]","[4.751987778581679, 4.873833619058132]","[0.0, 0.0]"
1608810903668818094,,52602,,1608810903,685477143,'',"[wheel_left_joint, wheel_right_joint]","[650.0573066091165, 656.9952087658457]","[4.873833619058132, 4.873833619058132]","[0.0, 0.0]"
1608810903668882616,,52603,,1608810903,705443154,'',"[wheel_left_joint, wheel_right_joint]","[650.1547832814977, 657.0878116046079]","[4.873833619058132, 4.630141938105226]","[0.0, 0.0]"
1608810903709252259,,52604,,1608810903,726368686,'',"[wheel_left_joint, wheel_right_joint]","[650.2498230370693, 657.185288276989]","[4.751987778581679, 4.873833619058132]","[0.0, 0.0]"
1608810903709354361,,52605,,1608810903,745549158,'',"[wheel_left_joint, wheel_right_joint]","[650.3448627926409, 657.2827649493702]","[4.751987778581679, 4.873833619058132]","[0.0, 0.0]"
1608810903742835399,,52606,,1608810903,765373883,'',"[wheel_left_joint, wheel_right_joint]","[650.437465631403, 657.3778047049418]","[4.630141938105226, 4.751987778581679]","[0.0, 0.0]"
1608810903768189646,,52607,,1608810903,787093419,'',"[wheel_left_joint, wheel_right_joint]","[650.5349423037842, 657.4728444605134]","[4.873833619058132, 4.751987778581679]","[0.0, 0.0]"
1608810903768217664,,52608,,1608810903,805407784,'',"[wheel_left_joint, wheel_right_joint]","[650.6299820593558, 657.5703211328946]","[4.751987778581679, 4.873833619058132]","[0.0, 0.0]"
1608810903797550409,,52609,,1608810903,826419430,'',"[wheel_left_joint, wheel_right_joint]","[650.7250218149275, 657.6702347220853]","[4.751987778581679, 4.9956794595345855]","[0.0, 0.0]"
1608810903819200184,,52610,,1608810903,846249410,'',"[wheel_left_joint, wheel_right_joint]","[650.8224984873086, 657.7652744776569]","[4.873833619058132, 4.751987778581679]","[0.0, 0.0]"
1608810903819228477,,52611,,1608810903,865514829,'',"[wheel_left_joint, wheel_right_joint]","[650.9175382428803, 657.857877316419]","[4.751987778581679, 4.630141938105226]","[0.0, 0.0]"
1608810903845128898,,52612,,1608810903,885775381,'',"[wheel_left_joint, wheel_right_joint]","[651.0150149152614, 657.9529170719907]","[4.873833619058132, 4.751987778581679]","[0.0, 0.0]"
1608810903878686431,,52613,,1608810903,905435467,'',"[wheel_left_joint, wheel_right_joint]","[651.110054670833, 658.0503937443718]","[4.751987778581679, 4.873833619058132]","[0.0, 0.0]"
1608810903878725201,,52614,,1608810903,926267003,'',"[wheel_left_joint, wheel_right_joint]","[651.2050944264047, 658.1503073335625]","[4.751987778581679, 4.9956794595345855]","[0.0, 0.0]"
1608810903916966710,,52615,,1608810903,945774418,'',"[wheel_left_joint, wheel_right_joint]","[651.3001341819763, 658.2477840059437]","[4.751987778581679, 4.873833619058132]","[0.0, 0.0]"
1608810903947840974,,52616,,1608810903,966508162,'',"[wheel_left_joint, wheel_right_joint]","[651.395173937548, 658.3428237615153]","[4.751987778581679, 4.751987778581679]","[0.0, 0.0]"
1608810903969325539,,52617,,1608810903,987637449,'',"[wheel_left_joint, wheel_right_joint]","[651.4926506099291, 658.4403004338965]","[4.873833619058132, 4.873833619058132]","[0.0, 0.0]"
1608810903969364768,,52618,,1608810904,8227572,'',"[wheel_left_joint, wheel_right_joint]","[651.5876903655007, 658.5353401894681]","[4.751987778581679, 4.751987778581679]","[0.0, 0.0]"
1608810903993646680,,52619,,1608810904,27478683,'',"[wheel_left_joint, wheel_right_joint]","[651.6827301210724, 658.6328168618493]","[4.751987778581679, 4.873833619058132]","[0.0, 0.0]"
1608810904028143873,,52620,,1608810904,46087085,'',"[wheel_left_joint, wheel_right_joint]","[651.7802067934535, 658.73273045104]","[4.873833619058132, 4.9956794595345855]","[0.0, 0.0]"
1608810904028324329,,52621,,1608810904,65615548,'',"[wheel_left_joint, wheel_right_joint]","[651.8776834658347, 658.8277702066116]","[4.873833619058132, 4.751987778581679]","[0.0, 0.0]"
1608810904051100384,,52622,,1608810904,86529666,'',"[wheel_left_joint, wheel_right_joint]","[651.9727232214063, 658.9276837958023]","[4.751987778581679, 4.9956794595345855]","[0.0, 0.0]"
1608810904081500787,,52623,,1608810904,105617943,'',"[wheel_left_joint, wheel_right_joint]","[652.0701998937875, 659.0251604681835]","[4.873833619058132, 4.873833619058132]","[0.0, 0.0]"
1608810904081531902,,52624,,1608810904,125508656,'',"[wheel_left_joint, wheel_right_joint]","[652.1676765661687, 659.1202002237551]","[4.873833619058132, 4.751987778581679]","[0.0, 0.0]"
1608810904110630092,,52625,,1608810904,145373389,'',"[wheel_left_joint, wheel_right_joint]","[652.2651532385498, 659.2176768961363]","[4.873833619058132, 4.873833619058132]","[0.0, 0.0]"
1608810904142735878,,52626,,1608810904,165570890,'',"[wheel_left_joint, wheel_right_joint]","[652.3601929941215, 659.3127166517079]","[4.751987778581679, 4.751987778581679]","[0.0, 0.0]"
1608810904168475033,,52627,,1608810904,186298191,'',"[wheel_left_joint, wheel_right_joint]","[652.4576696665026, 659.4126302408986]","[4.873833619058132, 4.9956794595345855]","[0.0, 0.0]"
1608810904170096300,,52628,,1608810904,204725021,'',"[wheel_left_joint, wheel_right_joint]","[652.5527094220743, 659.5101069132797]","[4.751987778581679, 4.873833619058132]","[0.0, 0.0]"
1608810904192402645,,52629,,1608810904,224747089,'',"[wheel_left_joint, wheel_right_joint]","[652.6477491776459, 659.6051466688514]","[4.751987778581679, 4.751987778581679]","[0.0, 0.0]"
1608810904219811328,,52630,,1608810904,244722453,'',"[wheel_left_joint, wheel_right_joint]","[652.745225850027, 659.7050602580421]","[4.873833619058132, 4.9956794595345855]","[0.0, 0.0]"
1608810904219840734,,52631,,1608810904,264640021,'',"[wheel_left_joint, wheel_right_joint]","[652.8402656055987, 659.8049738472328]","[4.751987778581679, 4.9956794595345855]","[0.0, 0.0]"
1608810904239624438,,52632,,1608810904,283772959,'',"[wheel_left_joint, wheel_right_joint]","[652.9401791947894, 659.9000136028044]","[4.9956794595345855, 4.751987778581679]","[0.0, 0.0]"
1608810904254720753,,52633,,1608810904,304754213,'',"[wheel_left_joint, wheel_right_joint]","[653.0376558671705, 659.9974902751856]","[4.873833619058132, 4.873833619058132]","[0.0, 0.0]"
1608810904282209610,,52634,,1608810904,324702139,'',"[wheel_left_joint, wheel_right_joint]","[653.1375694563612, 660.0974038643762]","[4.9956794595345855, 4.9956794595345855]","[0.0, 0.0]"
1608810904301158542,,52635,,1608810904,344703774,'',"[wheel_left_joint, wheel_right_joint]","[653.2326092119329, 660.1948805367574]","[4.751987778581679, 4.873833619058132]","[0.0, 0.0]"
1608810904336310061,,52636,,1608810904,363939169,'',"[wheel_left_joint, wheel_right_joint]","[653.330085884314, 660.2947941259481]","[4.873833619058132, 4.9956794595345855]","[0.0, 0.0]"
1608810904356010210,,52637,,1608810904,383771794,'',"[wheel_left_joint, wheel_right_joint]","[653.4275625566952, 660.3922707983293]","[4.873833619058132, 4.873833619058132]","[0.0, 0.0]"
1608810904401328914,,52638,,1608810904,404731448,'',"[wheel_left_joint, wheel_right_joint]","[653.5250392290764, 660.4897474707104]","[4.873833619058132, 4.873833619058132]","[0.0, 0.0]"
1608810904401486590,,52639,,1608810904,423698002,'',"[wheel_left_joint, wheel_right_joint]","[653.624952818267, 660.5896610599011]","[4.9956794595345855, 4.9956794595345855]","[0.0, 0.0]"
1608810904444404378,,52640,,1608810904,444096039,'',"[wheel_left_joint, wheel_right_joint]","[653.7224294906482, 660.6895746490918]","[4.873833619058132, 4.9956794595345855]","[0.0, 0.0]"
1608810904444413516,,52641,,1608810904,463717327,'',"[wheel_left_joint, wheel_right_joint]","[653.8199061630294, 660.7846144046634]","[4.873833619058132, 4.751987778581679]","[0.0, 0.0]"
1608810904444440422,,52642,,1608810904,483714000,'',"[wheel_left_joint, wheel_right_joint]","[653.914945918601, 660.8796541602351]","[4.751987778581679, 4.751987778581679]","[0.0, 0.0]"
1608810904458821011,,52643,,1608810904,504774360,'',"[wheel_left_joint, wheel_right_joint]","[654.0148595077917, 660.9820046662353]","[4.9956794595345855, 5.117525300011039]","[0.0, 0.0]"
1608810904486291820,,52644,,1608810904,523653052,'',"[wheel_left_joint, wheel_right_joint]","[654.1123361801729, 661.0794813386165]","[4.873833619058132, 4.873833619058132]","[0.0, 0.0]"
1608810904520171757,,52645,,1608810904,543909225,'',"[wheel_left_joint, wheel_right_joint]","[654.2122497693636, 661.1793949278072]","[4.9956794595345855, 4.9956794595345855]","[0.0, 0.0]"
