rosbagTimestamp,header,seq,stamp,secs,nsecs,frame_id,pose,position,x,y,z,orientation,x,y,z,w
1608810897465558438,,17693,,1608810897,465351951,"""world""",,,2.81965756416,4.7359161377,0.445277154446,,0.00876533146948,0.00895015709102,0.70626193285,-0.707839787006
1608810897465638777,,17694,,1608810897,465407609,"""world""",,,2.81967043877,4.73590803146,0.445270657539,,0.00877385213971,0.00888528488576,0.706263184547,-0.70783919096
1608810897465662784,,17696,,1608810897,465461380,"""world""",,,2.81966114044,4.73590707779,0.445274084806,,0.00876600202173,0.00899386126548,0.706280469894,-0.70782071352
1608810897466092307,,17697,,1608810897,465511742,"""world""",,,2.81965923309,4.73592281342,0.445271998644,,0.00881440006196,0.00895607005805,0.706236302853,-0.707864761353
1608810897616221061,,17698,,1608810897,615341103,"""world""",,,2.81966781616,4.73590993881,0.445266067982,,0.00884277094156,0.00894168578088,0.706232190132,-0.707868635654
1608810897616282896,,17702,,1608810897,615534210,"""world""",,,2.81967258453,4.73590898514,0.445269972086,,0.00881154462695,0.00898608192801,0.7062702775,-0.707830488682
1608810897675510421,,17703,,1608810897,675273898,"""world""",,,2.8196644783,4.73591852188,0.4452727139,,0.00879285112023,0.00893565826118,0.706262171268,-0.707839429379
1608810897675520504,,17704,,1608810897,675303461,"""world""",,,2.8196721077,4.73591899872,0.445262014866,,0.00883643515408,0.00899704918265,0.706194400787,-0.707905650139
1608810897675844494,,17705,,1608810897,675351686,"""world""",,,2.81967949867,4.73590946198,0.445276468992,,0.00886468868703,0.00899012666196,0.706196665764,-0.707903146744
1608810897675884827,,17708,,1608810897,675420032,"""world""",,,2.81967234612,4.73590135574,0.445279121399,,0.00874940864742,0.00898851081729,0.706235468388,-0.707865953445
1608810897696682382,,17709,,1608810897,695304491,"""world""",,,2.81966042519,4.73590993881,0.445276677608,,0.00877424236387,0.00898363534361,0.706243336201,-0.707857847214
1608810897696691331,,17710,,1608810897,695356645,"""world""",,,2.81966996193,4.73591899872,0.445271283388,,0.00885905325413,0.0089726196602,0.706237792969,-0.707862436771
1608810897696743332,,17713,,1608810897,695400006,"""world""",,,2.81966471672,4.73590373993,0.445267736912,,0.00876923371106,0.00889808032662,0.706258654594,-0.707843720913
1608810897696754428,,17714,,1608810897,695436359,"""world""",,,2.81967043877,4.73591518402,0.445280015469,,0.00873149558902,0.00892557390034,0.706223130226,-0.707879185677
1608810897696760624,,17721,,1608810897,695534639,"""world""",,,2.81967306137,4.73590898514,0.445275425911,,0.00880716461688,0.00907846633345,0.706237018108,-0.707862436771
1608810897696767740,,17722,,1608810897,695576196,"""world""",,,2.81967711449,4.735912323,0.445270687342,,0.00882760249078,0.00896294228733,0.70621663332,-0.707884013653
1608810897696800921,,17727,,1608810897,695686715,"""world""",,,2.81967163086,4.73591566086,0.445279240608,,0.00873116590083,0.00894814915955,0.706230223179,-0.707871854305
1608810897696812179,,17728,,1608810897,695738081,"""world""",,,2.81967401505,4.735912323,0.44526809454,,0.00879181548953,0.00899894349277,0.706258416176,-0.707842350006
1608810897696856486,,17734,,1608810897,695843324,"""world""",,,2.81967711449,4.7359213829,0.445270985365,,0.00880891550332,0.00904361065477,0.706223905087,-0.707875967026
1608810897696883299,,17735,,1608810897,695891996,"""world""",,,2.81967258453,4.73591470718,0.445275187492,,0.00873684510589,0.00899197161198,0.706203818321,-0.707897663116
1608810897696924455,,17737,,1608810897,695925438,"""world""",,,2.81967759132,4.73591947556,0.445271193981,,0.00881961453706,0.00889869872481,0.706155121326,-0.707946360111
1608810897696935670,,17738,,1608810897,695972008,"""world""",,,2.81967067719,4.73591756821,0.445276141167,,0.0088128298521,0.00888755451888,0.706219136715,-0.707882761955
1608810897705531962,,17739,,1608810897,705311186,"""world""",,,2.81968092918,4.73591423035,0.445276618004,,0.00872134882957,0.00885239802301,0.706214845181,-0.70788860321
1608810897715688540,,17740,,1608810897,715314032,"""world""",,,2.8196644783,4.73592329025,0.445268720388,,0.00879423692822,0.0089147053659,0.706142365932,-0.707959115505
1608810897715703698,,17741,,1608810897,715369433,"""world""",,,2.81967663765,4.73590183258,0.445294886827,,0.00880383513868,0.00888491701335,0.706201016903,-0.707900941372
1608810897735932162,,17742,,1608810897,735348194,"""world""",,,2.81967353821,4.73592042923,0.445272535086,,0.00879066251218,0.0088593121618,0.706174969673,-0.707927465439
1608810897736028959,,17743,,1608810897,735457600,"""world""",,,2.81966161728,4.7359161377,0.445283979177,,0.00878779124469,0.00891247112304,0.706121385098,-0.707980215549
1608810897746197715,,17744,,1608810897,745425456,"""world""",,,2.81966519356,4.73592185974,0.445282131433,,0.00874144304544,0.00892474316061,0.70615953207,-0.707942545414
1608810897755752895,,17745,,1608810897,755360849,"""world""",,,2.81966471672,4.735912323,0.445283949375,,0.00878791511059,0.0089542940259,0.706163406372,-0.707937777042
1608810897766336650,,17746,,1608810897,765298168,"""world""",,,2.81966924667,4.73592424393,0.445271879435,,0.00880517531186,0.00892762094736,0.706146478653,-0.707954764366
1608810897775536755,,17747,,1608810897,775306187,"""world""",,,2.81966471672,4.7359085083,0.445279717445,,0.0087651880458,0.00894169788808,0.706174314022,-0.707927286625
1608810897775598488,,17748,,1608810897,775386869,"""world""",,,2.81967544556,4.73591184616,0.445278465748,,0.00878533162177,0.00894762203097,0.706219017506,-0.707882344723
1608810897795505274,,17749,,1608810897,795302549,"""world""",,,2.81968164444,4.73591327667,0.445283800364,,0.00870522297919,0.00891834683716,0.706219434738,-0.707883417606
1608810897795535803,,17750,,1608810897,795347132,"""world""",,,2.81967139244,4.73591136932,0.445293426514,,0.00860391743481,0.00886967312545,0.70623934269,-0.707865357399
1608810897825492871,,17751,,1608810897,825267108,"""world""",,,2.81967401505,4.73591184616,0.445285052061,,0.00863661430776,0.0088888918981,0.706256270409,-0.707847893238
1608810897835792208,,17752,,1608810897,835275623,"""world""",,,2.81967043877,4.7359085083,0.445291429758,,0.00868803821504,0.00901748705655,0.706266701221,-0.707835137844
1608810897835805621,,17753,,1608810897,835325654,"""world""",,,2.81966257095,4.73591899872,0.445287972689,,0.00862229336053,0.0089547438547,0.706249237061,-0.70785421133
1608810897835811890,,17754,,1608810897,835348515,"""world""",,,2.81967377663,4.73590373993,0.445295959711,,0.00862479303032,0.00894994288683,0.706276476383,-0.707827091217
1608810897835930509,,17755,,1608810897,835404614,"""world""",,,2.8196709156,4.73590946198,0.445286601782,,0.00864463485777,0.00887482706457,0.706263184547,-0.707840979099
1608810897845533256,,17756,,1608810897,845342689,"""world""",,,2.81967782974,4.73590803146,0.445279896259,,0.00866529811174,0.00889807660133,0.706254899502,-0.707848727703
1608810897855699225,,17757,,1608810897,855345320,"""world""",,,2.81966710091,4.73590230942,0.445274233818,,0.00860003661364,0.00888659898192,0.706253170967,-0.707851409912
1608810897878992451,,17758,,1608810897,875326693,"""world""",,,2.81967568398,4.73591089249,0.445272356272,,0.00871570874006,0.00898053124547,0.7062240839,-0.70787781477
1608810897878998311,,17759,,1608810897,875408492,"""world""",,,2.81967020035,4.73590326309,0.445283859968,,0.0087602166459,0.00899593345821,0.706231594086,-0.707869648933
1608810897886177223,,17760,,1608810897,885324955,"""world""",,,2.81966948509,4.73591470718,0.445271104574,,0.00871731992811,0.00897715706378,0.706220507622,-0.707881391048
1608810897886383506,,17761,,1608810897,885367330,"""world""",,,2.81968331337,4.73590326309,0.44529235363,,0.00866889953613,0.0089861350134,0.70622998476,-0.707872390747
1608810897905723064,,17762,,1608810897,905300402,"""world""",,,2.81968069077,4.73590755463,0.445284426212,,0.00862803217024,0.00887085963041,0.706272959709,-0.707831501961
1608810897905794216,,17763,,1608810897,905333406,"""world""",,,2.81966662407,4.73591852188,0.445271492004,,0.0087411608547,0.00894024968147,0.706197321415,-0.707904696465
1608810897915789350,,17764,,1608810897,915330475,"""world""",,,2.81967496872,4.73591852188,0.445283293724,,0.00865574926138,0.00891875568777,0.706218957901,-0.707884430885
1608810897925780301,,17765,,1608810897,925270755,"""world""",,,2.81966876984,4.73592281342,0.445274114609,,0.00874188728631,0.0090223941952,0.706224381924,-0.707876682281
1608810897935426212,,17766,,1608810897,935254322,"""world""",,,2.81966233253,4.7359046936,0.445273220539,,0.00873085204512,0.00889437459409,0.706231236458,-0.707871556282
1608810897945622032,,17767,,1608810897,945287874,"""world""",,,2.81966090202,4.73591279984,0.445270329714,,0.00869751349092,0.00899036321789,0.706243395805,-0.707858622074
1608810897945668626,,17768,,1608810897,945334184,"""world""",,,2.81966781616,4.7359161377,0.445272296667,,0.00869315490127,0.00891108065844,0.706211268902,-0.707891762257
1608810897955474923,,17769,,1608810897,955289155,"""world""",,,2.8196747303,4.73591136932,0.445266902447,,0.00880791433156,0.00905644521117,0.706197023392,-0.707902729511
1608810897965550647,,17770,,1608810897,965267539,"""world""",,,2.81967043877,4.73590755463,0.445274919271,,0.00873088277876,0.00906391255558,0.70624512434,-0.707855582237
1608810897975599080,,17771,,1608810897,975375579,"""world""",,,2.81966114044,4.73591089249,0.445255041122,,0.00875728204846,0.00896861217916,0.706268489361,-0.707833170891
1608810897975617932,,17772,,1608810897,975416590,"""world""",,,2.81966519356,4.7359213829,0.445278435946,,0.00871552433819,0.0090062180534,0.706281423569,-0.707820296288
1608810897995530757,,17773,,1608810897,995324642,"""world""",,,2.81965517998,4.73591279984,0.445260256529,,0.00882433075458,0.00897863227874,0.706275582314,-0.707825064659
1608810898005623274,,17774,,1608810898,5276753,"""world""",,,2.81966209412,4.7359213829,0.44526013732,,0.0087207229808,0.00902863312513,0.706219732761,-0.707881510258
1608810898005636221,,17775,,1608810898,5327371,"""world""",,,2.81966924667,4.73591136932,0.445265471935,,0.00872881058604,0.00896757282317,0.706217825413,-0.707884073257
1608810898015480829,,17776,,1608810898,15331557,"""world""",,,2.81966948509,4.735912323,0.445272952318,,0.00882063060999,0.008967702277,0.706252872944,-0.707847952843
1608810898025562314,,17777,,1608810898,25296809,"""world""",,,2.81965637207,4.73592185974,0.445265471935,,0.00877886172384,0.00903528369963,0.706235051155,-0.707865357399
1608810898035702500,,17778,,1608810898,35305893,"""world""",,,2.81966805458,4.73590612411,0.445260703564,,0.00869537796825,0.00885363668203,0.706305921078,-0.70779800415
1608810898035768267,,17779,,1608810898,35383899,"""world""",,,2.81964731216,4.73591041565,0.445255637169,,0.00882301945239,0.00888968724757,0.706219732761,-0.7078820467
1608810898045923308,,17780,,1608810898,45314575,"""world""",,,2.81965899467,4.73591566086,0.445273667574,,0.00878547970206,0.00906245410442,0.706250071526,-0.707849919796
1608810898055599146,,17781,,1608810898,55311836,"""world""",,,2.81966757774,4.7359085083,0.445270478725,,0.0087723005563,0.00885301269591,0.706233680248,-0.707869112492
1608810898065582024,,17782,,1608810898,65322575,"""world""",,,2.81965684891,4.73591470718,0.445257723331,,0.00877427496016,0.00894045829773,0.706273436546,-0.707828402519
1608810898076232619,,17783,,1608810898,75370843,"""world""",,,2.8196606636,4.73590946198,0.44525384903,,0.00882547721267,0.00898068025708,0.706276774406,-0.707823812962
1608810898076266683,,17784,,1608810898,75412545,"""world""",,,2.81965303421,4.73590993881,0.44525796175,,0.00878278538585,0.0089175272733,0.706276834011,-0.707825183868
1608810898096351880,,17785,,1608810898,95325637,"""world""",,,2.81965017319,4.73591423035,0.445268183947,,0.00883643887937,0.00892279483378,0.706230342388,-0.707870841026
1608810898096423349,,17786,,1608810898,95366756,"""world""",,,2.81965303421,4.73590564728,0.445256948471,,0.00873717479408,0.00896065402776,0.706321775913,-0.707780301571
1608810898105608054,,17787,,1608810898,105336266,"""world""",,,2.81965947151,4.73590707779,0.445265710354,,0.00877685472369,0.00894248392433,0.706230580807,-0.70787101984
1608810898115464485,,17788,,1608810898,115309363,"""world""",,,2.81965637207,4.73589992523,0.445266753435,,0.00876484997571,0.00897833425552,0.70629543066,-0.707805991173
1608810898145570175,,17789,,1608810898,145293944,"""world""",,,2.81965875626,4.73590040207,0.445263624191,,0.00877689011395,0.00888656638563,0.706276118755,-0.707826375961
1608810898145833496,,17790,,1608810898,145361034,"""world""",,,2.81966257095,4.73591709137,0.445268988609,,0.00870544556528,0.00887670740485,0.706290304661,-0.70781314373
1608810898145846141,,17792,,1608810898,145422779,"""world""",,,2.81966304779,4.73592090607,0.445259153843,,0.00879327021539,0.00902055762708,0.706242740154,-0.707857728004
1608810898158256352,,17793,,1608810898,155302748,"""world""",,,2.81966137886,4.7359161377,0.445264369249,,0.00878507643938,0.0088999029249,0.706228017807,-0.707874059677
1608810898165509184,,17794,,1608810898,165295441,"""world""",,,2.81965351105,4.73590707779,0.44526937604,,0.00876786187291,0.00896107032895,0.706249237061,-0.707852244377
1608810898175592927,,17795,,1608810898,175331695,"""world""",,,2.81967520714,4.73591136932,0.445271790028,,0.00880428869277,0.00888981018215,0.706275343895,-0.707826733589
1608810898185681985,,17796,,1608810898,185432712,"""world""",,,2.81965970993,4.73591184616,0.445270389318,,0.00875404383987,0.00898684002459,0.706307470798,-0.707794129848
1608810898226951866,,17797,,1608810898,225530599,"""world""",,,2.8196554184,4.73591327667,0.445258945227,,0.00881946459413,0.00891275238246,0.706242382526,-0.707859098911
1608810898227002274,,17802,,1608810898,225735906,"""world""",,,2.81966805458,4.73590326309,0.445273727179,,0.00875099468976,0.00883823633194,0.70631146431,-0.707791984081
1608810898255636765,,17803,,1608810898,255299682,"""world""",,,2.81965875626,4.73591279984,0.445265442133,,0.00878060143441,0.00883364863694,0.706294000149,-0.707809090614
1608810898258223345,,17804,,1608810898,255405076,"""world""",,,2.8196721077,4.73590135574,0.445274472237,,0.0088762557134,0.00897635426372,0.706240773201,-0.707859218121
1608810898258253800,,17805,,1608810898,255482974,"""world""",,,2.8196721077,4.73590135574,0.445280790329,,0.00880484376103,0.00882904138416,0.706259131432,-0.707843601704
1608810898275788418,,17806,,1608810898,275326237,"""world""",,,2.81965613365,4.7359046936,0.445269823074,,0.00881588365883,0.00886787939817,0.70626449585,-0.707837641239
1608810898275821431,,17807,,1608810898,275432128,"""world""",,,2.81967449188,4.73590087891,0.445270478725,,0.00885449443012,0.00883742421865,0.706287443638,-0.707814633846
1608810898285711106,,17808,,1608810898,285314028,"""world""",,,2.81965517998,4.73590564728,0.44526925683,,0.00883049424738,0.00889541953802,0.70628118515,-0.707820475101
1608810898285729426,,17809,,1608810898,285354639,"""world""",,,2.8196542263,4.73590898514,0.445270270109,,0.00878344476223,0.00885460805148,0.706260323524,-0.707842350006
1608810898295549472,,17810,,1608810898,295296958,"""world""",,,2.81966042519,4.73589754105,0.445271611214,,0.00880453083664,0.00895979814231,0.706282019615,-0.707819223404
1608810898306734511,,17811,,1608810898,305360673,"""world""",,,2.81965565681,4.73590612411,0.445266664028,,0.0088895149529,0.00900405738503,0.706247031689,-0.707852423191
1608810898325710396,,17812,,1608810898,325313485,"""world""",,,2.81965756416,4.73591089249,0.445278674364,,0.00874641165137,0.00893751718104,0.7063139081,-0.707788288593
1608810898325790501,,17813,,1608810898,325398476,"""world""",,,2.81964159012,4.73591041565,0.445272386074,,0.00879598874599,0.00890061166137,0.706253886223,-0.707848072052
1608810898340895014,,17814,,1608810898,335362251,"""world""",,,2.81982803345,4.73594522476,0.445137470961,,0.00835070386529,0.0114613417536,0.706443369389,-0.707627534866
1608810898340954485,,17815,,1608810898,335404700,"""world""",,,2.81966376305,4.73591423035,0.445272237062,,0.00884470250458,0.00887516699731,0.706234514713,-0.707867145538
1608810898345690758,,17816,,1608810898,345318587,"""world""",,,2.81965565681,4.73590373993,0.445284962654,,0.00884290132672,0.00899033620954,0.706269979477,-0.707830309868
1608810898356395356,,17817,,1608810898,355407463,"""world""",,,2.8196554184,4.73590421677,0.445268213749,,0.00881561916322,0.00891179777682,0.706255972385,-0.707845568657
1608810898365664473,,17818,,1608810898,365321696,"""world""",,,2.81964993477,4.73591518402,0.445272475481,,0.00890127383173,0.00896749366075,0.706242501736,-0.707857251167
1608810898380008585,,17819,,1608810898,375323796,"""world""",,,2.81965255737,4.73590946198,0.445277094841,,0.00885186251253,0.00893453042954,0.706232964993,-0.707867860794
1608810898380019608,,17820,,1608810898,375365538,"""world""",,,2.81965732574,4.7359251976,0.445273429155,,0.00879082269967,0.00880767870694,0.70620316267,-0.707899868488
1608810898387826676,,17821,,1608810898,385312986,"""world""",,,2.81964945793,4.73590707779,0.445277065039,,0.00879365205765,0.00886403210461,0.706254482269,-0.707848012447
1608810898405724202,,17822,,1608810898,405327762,"""world""",,,2.81966018677,4.73591709137,0.44527515769,,0.00880619417876,0.00901797041297,0.706200480461,-0.707899749279
1608810898405745435,,17823,,1608810898,405397270,"""world""",,,2.81964874268,4.73591089249,0.445262551308,,0.00884452275932,0.00876719038934,0.706269919872,-0.707833111286
1608810898425716388,,17824,,1608810898,425318798,"""world""",,,2.8196606636,4.73589468002,0.445288777351,,0.00883365608752,0.00884081516415,0.706268787384,-0.707833468914
1608810898435855275,,17825,,1608810898,435284295,"""world""",,,2.81964993477,4.73590898514,0.445276677608,,0.00874101184309,0.00888852588832,0.70622420311,-0.70787858963
1608810898435969839,,17826,,1608810898,435313713,"""world""",,,2.81966638565,4.73589801788,0.445272415876,,0.00883406028152,0.00885203480721,0.706247031689,-0.7078551054
1608810898446623092,,17827,,1608810898,445381228,"""world""",,,2.81965780258,4.73590326309,0.445270329714,,0.00876828655601,0.00877718813717,0.706245720387,-0.707858145237
1608810898446644765,,17828,,1608810898,445466441,"""world""",,,2.81966471672,4.73590660095,0.445273131132,,0.00882958248258,0.00892292801291,0.706271290779,-0.707830011845
1608810898455705947,,17829,,1608810898,455384476,"""world""",,,2.81965470314,4.73590373993,0.44526925683,,0.00885502342135,0.00888067297637,0.70627373457,-0.707827806473
1608810898475656148,,17830,,1608810898,475339094,"""world""",,,2.81965279579,4.73591136932,0.44525924325,,0.00890285428613,0.00891986954957,0.70621830225,-0.70788192749
1608810898485794083,,17831,,1608810898,485339386,"""world""",,,2.81965041161,4.73590803146,0.445261985064,,0.00886181835085,0.00895694363862,0.706251442432,-0.707849025726
1608810898485815243,,17832,,1608810898,485397403,"""world""",,,2.81965827942,4.73589801788,0.445268779993,,0.00881794281304,0.00885169859976,0.706276535988,-0.70782583952
1608810898496168225,,17833,,1608810898,495330281,"""world""",,,2.81965875626,4.73591518402,0.445264875889,,0.0088845891878,0.00883684214205,0.706285595894,-0.707816123962
1608810898496190135,,17834,,1608810898,495376617,"""world""",,,2.8196439743,4.73591375351,0.445262849331,,0.00876893382519,0.00894813425839,0.706234812737,-0.70786690712
1608810898515716633,,17835,,1608810898,515327189,"""world""",,,2.81965708733,4.73590230942,0.445268630981,,0.00876747909933,0.008874011226,0.70626193285,-0.707840800285
1608810898515729649,,17836,,1608810898,515416858,"""world""",,,2.81966471672,4.73589801788,0.445268839598,,0.00884219631553,0.00880864262581,0.706263124943,-0.707839429379
1608810898535827697,,17837,,1608810898,535331299,"""world""",,,2.81965088844,4.735891819,0.445276498795,,0.00878348667175,0.00889097340405,0.706268787384,-0.707833468914
1608810898535858570,,17838,,1608810898,535426351,"""world""",,,2.81982564926,4.7359380722,0.445137500763,,0.00826859846711,0.0113522969186,0.706505060196,-0.707568585873
1608810898535922356,,17839,,1608810898,535467672,"""world""",,,2.81965446472,4.73590183258,0.445278018713,,0.00883279927075,0.00880809873343,0.706260561943,-0.707842111588
1608810898545633465,,17840,,1608810898,545319731,"""world""",,,2.81964898109,4.73591136932,0.44525423646,,0.00882808677852,0.00891237985343,0.706274628639,-0.707826852798
1608810898555771190,,17841,,1608810898,555372653,"""world""",,,2.81964349747,4.73590707779,0.445264816284,,0.00883078202605,0.00890840310603,0.706257641315,-0.707843840122
1608810898555856794,,17842,,1608810898,555421161,"""world""",,,2.81965851784,4.73590373993,0.445258557796,,0.0088381934911,0.00889704562724,0.706293463707,-0.707808077335
1608810898566613024,,17843,,1608810898,566391657,"""world""",,,2.81965756416,4.73590040207,0.445264697075,,0.00883748196065,0.00887478888035,0.706281721592,-0.707820057869
1608810898585829523,,17844,,1608810898,585316468,"""world""",,,2.81965637207,4.73590326309,0.445257276297,,0.0087700271979,0.00885568093508,0.706259012222,-0.707843780518
1608810898585945126,,17845,,1608810898,585403985,"""world""",,,2.81966471672,4.73589849472,0.445262521505,,0.00881784874946,0.00890492647886,0.706222116947,-0.707879424095
1608810898710654983,,17846,,1608810898,710256859,"""world""",,,2.81966161728,4.73590326309,0.445257812738,,0.00883772596717,0.00884347502142,0.706263422966,-0.707838773727
1608810898721879281,,17847,,1608810898,715433787,"""world""",,,2.81965708733,4.73590946198,0.44525924325,,0.00882631912827,0.00891420524567,0.706227481365,-0.707873940468
1608810898721884250,,17848,,1608810898,715545141,"""world""",,,2.81965827942,4.73590517044,0.445267230272,,0.00878442730755,0.00881980918348,0.706268787384,-0.707834422588
1608810898721889300,,17849,,1608810898,715592746,"""world""",,,2.81965327263,4.7359161377,0.445242255926,,0.00889219623059,0.00895176175982,0.706201612949,-0.707898378372
1608810898721893675,,17850,,1608810898,715686810,"""world""",,,2.81966137886,4.73590946198,0.445268273354,,0.00884121470153,0.00894916802645,0.706218540668,-0.707882165909
1608810898721898301,,17851,,1608810898,715740343,"""world""",,,2.81965947151,4.73590946198,0.445258885622,,0.00875893794,0.00884687900543,0.706227719784,-0.707875311375
1608810898721902775,,17852,,1608810898,715886238,"""world""",,,2.81965351105,4.73590183258,0.445259660482,,0.00879851542413,0.00893738027662,0.706222891808,-0.707878470421
1608810898736889103,,17853,,1608810898,725833255,"""world""",,,2.81966638565,4.73590564728,0.445267289877,,0.00873213261366,0.00892728380859,0.706253767014,-0.707848668098
1608810898736976055,,17861,,1608810898,726282999,"""world""",,,2.81965780258,4.73590326309,0.445265948772,,0.00876225158572,0.00892783235759,0.706246376038,-0.707855641842
1608810898747518192,,17862,,1608810898,745340946,"""world""",,,2.81965327263,4.73590373993,0.445270568132,,0.00878007151186,0.00897893961519,0.706269621849,-0.70783162117
1608810898747540182,,17863,,1608810898,745389663,"""world""",,,2.81967043877,4.73589468002,0.445273935795,,0.00881557445973,0.00895733200014,0.706262886524,-0.707838118076
1608810898755876614,,17864,,1608810898,755369300,"""world""",,,2.81966710091,4.73590183258,0.445255875587,,0.00879726465791,0.00884325988591,0.706299543381,-0.707803249359
1608810898756096912,,17865,,1608810898,755433718,"""world""",,,2.81966495514,4.73591327667,0.445262044668,,0.00885333307087,0.00894545949996,0.706229150295,-0.707871496677
1608810898765886203,,17866,,1608810898,765304127,"""world""",,,2.81965994835,4.73590421677,0.445261895657,,0.00880111381412,0.0090132439509,0.706283926964,-0.707816660404
1608810898765900871,,17867,,1608810898,765413988,"""world""",,,2.81966781616,4.73590898514,0.445268601179,,0.0088224215433,0.00891252420843,0.706294715405,-0.707806885242
1608810898785637354,,17868,,1608810898,785303629,"""world""",,,2.81966042519,4.73590183258,0.445270240307,,0.00878422893584,0.00885021965951,0.706243693829,-0.707859039307
1608810898785649118,,17869,,1608810898,785365989,"""world""",,,2.81965899467,4.7359161377,0.445255547762,,0.00886200740933,0.00892399344593,0.706255316734,-0.707845568657
1608810898795517572,,17870,,1608810898,795286913,"""world""",,,2.81964945793,4.735912323,0.445259839296,,0.00881336256862,0.00892063602805,0.706225335598,-0.707876086235
1608810898805506670,,17871,,1608810898,805299564,"""world""",,,2.81966519356,4.73590803146,0.445264726877,,0.00881294999272,0.00896680634469,0.706270992756,-0.70782995224
1608810898815559529,,17872,,1608810898,815270617,"""world""",,,2.81966018677,4.73591566086,0.44526013732,,0.00883935298771,0.00899476837367,0.706233680248,-0.707866549492
1608810898815570599,,17873,,1608810898,815361305,"""world""",,,2.81966328621,4.73591184616,0.4452650249,,0.0088208746165,0.00886060390621,0.706268250942,-0.707834005356
1608810898825420675,,17874,,1608810898,825268095,"""world""",,,2.81984186172,4.73593473434,0.44514170289,,0.0083113508299,0.0113711860031,0.706505715847,-0.70756727457
1608810898855721315,,17875,,1608810898,855405450,"""world""",,,2.81966686249,4.73591089249,0.445267319679,,0.00878962315619,0.00884812884033,0.706212282181,-0.707890331745
1608810898927206647,,17876,,1608810898,925514754,"""world""",,,2.81965994835,4.73591041565,0.445270717144,,0.0087370024994,0.00896745920181,0.70622330904,-0.707878530025
1608810898927269692,,17877,,1608810898,925604599,"""world""",,,2.81966519356,4.73590183258,0.445270478725,,0.0087964264676,0.00887804478407,0.706294953823,-0.707807481289
1608810898927334818,,17880,,1608810898,925721575,"""world""",,,2.81965017319,4.73591184616,0.445256441832,,0.00881229806691,0.00903278123587,0.706243276596,-0.707856714725
1608810898927386333,,17881,,1608810898,925806829,"""world""",,,2.81965112686,4.73591470718,0.445247471333,,0.00883123185486,0.00897852424532,0.706241846085,-0.707858741283
1608810898927413070,,17883,,1608810898,925877804,"""world""",,,2.81965613365,4.73589706421,0.445263236761,,0.00870016124099,0.00884751509875,0.706322014332,-0.707781910896
1608810898927483696,,17884,,1608810898,926009015,"""world""",,,2.81965947151,4.73591184616,0.44526258111,,0.00890618376434,0.00897228252143,0.706198632717,-0.707900941372
1608810898927527257,,17885,,1608810898,926115309,"""world""",,,2.81966972351,4.73590612411,0.445259273052,,0.00876179523766,0.00889078062028,0.706276655197,-0.707825958729
1608810898945629363,,17886,,1608810898,945331096,"""world""",,,2.81967306137,4.73589992523,0.445273846388,,0.00877437647432,0.00888042431325,0.706262409687,-0.70784008503
1608810898945767427,,17887,,1608810898,945409060,"""world""",,,2.81967186928,4.73589849472,0.445279031992,,0.00876790937036,0.00901720207185,0.706288576126,-0.707812309265
1608810898955807526,,17888,,1608810898,955360680,"""world""",,,2.81966042519,4.73591041565,0.445259749889,,0.00878635887057,0.00899242144078,0.706288218498,-0.707812845707
1608810898955920229,,17889,,1608810898,955423805,"""world""",,,2.819658041,4.73592090607,0.445252537727,,0.00893438886851,0.00905169080943,0.70618134737,-0.707916796207
1608810898965680849,,17890,,1608810898,965325384,"""world""",,,2.81964802742,4.73590326309,0.445251017809,,0.00878564547747,0.00894798897207,0.706282794476,-0.707818746567
1608810898975691414,,17891,,1608810898,975315359,"""world""",,,2.8196644783,4.73590707779,0.445265054703,,0.00884883292019,0.00887275394052,0.706195116043,-0.707906365395
1608810898975723837,,17892,,1608810898,975404595,"""world""",,,2.81966948509,4.73590660095,0.445271641016,,0.00876491051167,0.00894740130752,0.706259310246,-0.70784252882
1608810898995790746,,17893,,1608810898,995291822,"""world""",,,2.81967496872,4.73590755463,0.445269316435,,0.00887901801616,0.00892924703658,0.706279397011,-0.707821249962
1608810898995823820,,17894,,1608810898,995319645,"""world""",,,2.81965875626,4.73591184616,0.445261836052,,0.00882393121719,0.00899475999177,0.706183791161,-0.70791643858
1608810899005665982,,17895,,1608810899,5365103,"""world""",,,2.81965589523,4.73590898514,0.445264905691,,0.00880566984415,0.00897139497101,0.706242203712,-0.707858681679
1608810899015771772,,17896,,1608810899,15366384,"""world""",,,2.8196618557,4.73591089249,0.445268005133,,0.00879970192909,0.00883985031396,0.70626282692,-0.707839846611
1608810899025677949,,17897,,1608810899,25388993,"""world""",,,2.81966042519,4.7359161377,0.445268362761,,0.00877935718745,0.00892991293222,0.706220030785,-0.707881689072
1608810899036580080,,17898,,1608810899,35320035,"""world""",,,2.81966257095,4.73590087891,0.445269584656,,0.00877528544515,0.00888136215508,0.706255972385,-0.707846522331
1608810899036595282,,17899,,1608810899,35595246,"""world""",,,2.81967115402,4.73591375351,0.44526809454,,0.00874826312065,0.00894510187209,0.706210374832,-0.707891583443
1608810899055570492,,17900,,1608810899,55286233,"""world""",,,2.8196606636,4.73590660095,0.445264309645,,0.00876436475664,0.00900479219854,0.70625603199,-0.707845032215
1608810899055706171,,17901,,1608810899,55362471,"""world""",,,2.81966757774,4.73589849472,0.445277392864,,0.00870754383504,0.00882696080953,0.706245541573,-0.707858502865
1608810899055736912,,17902,,1608810899,55397850,"""world""",,,2.81967496872,4.73589324951,0.445268392563,,0.00869653373957,0.0089123044163,0.706291556358,-0.707811534405
1608810899066028878,,17903,,1608810899,65299666,"""world""",,,2.81968092918,4.73590564728,0.445270329714,,0.00873875524849,0.0088609661907,0.706242859364,-0.707860291004
1608810899075573402,,17904,,1608810899,75325379,"""world""",,,2.81967878342,4.73589849472,0.445283323526,,0.00868742633611,0.00892763305455,0.706234931946,-0.707868039608
1608810899085691154,,17905,,1608810899,85327476,"""world""",,,2.81966972351,4.7359046936,0.445272147655,,0.00888401921839,0.00894451886415,0.706186175346,-0.707913994789
1608810899115965208,,17906,,1608810899,115433620,"""world""",,,2.81967544556,4.73590183258,0.445267945528,,0.00871690921485,0.00890564359725,0.706254065037,-0.707848906517
1608810899116091480,,17907,,1608810899,115469389,"""world""",,,2.81966567039,4.73590040207,0.445271998644,,0.00868467520922,0.008898508735,0.706290304661,-0.707813203335
1608810899116130861,,17908,,1608810899,115614858,"""world""",,,2.81965494156,4.73590087891,0.445269137621,,0.00871491152793,0.00891551095992,0.706251442432,-0.707851350307
1608810899126176074,,17909,,1608810899,125379140,"""world""",,,2.8196709156,4.73590421677,0.445270746946,,0.00870368722826,0.0089679537341,0.706246256828,-0.707855939865
1608810899387262844,,17910,,1608810899,385320692,"""world""",,,2.81967139244,4.73589468002,0.445273786783,,0.00868623424321,0.00884813349694,0.706257820129,-0.707846224308
1608810899387282653,,17939,,1608810899,386261361,"""world""",,,2.81966757774,4.73591327667,0.445264160633,,0.00877215713263,0.00905881356448,0.706274867058,-0.707825481892
1608810899455705566,,17940,,1608810899,455317244,"""world""",,,2.81967520714,4.73591661453,0.445259392262,,0.00880651734769,0.00903508253396,0.706241071224,-0.707858979702
1608810899456346184,,17941,,1608810899,455623811,"""world""",,,2.81965947151,4.73590803146,0.445276856422,,0.00868907850236,0.00899802427739,0.706290125847,-0.707811951637
1608810899456372537,,17948,,1608810899,455903511,"""world""",,,2.81966781616,4.73590087891,0.445255607367,,0.00881895702332,0.00906483270228,0.706262409687,-0.707837224007
1608810899466608634,,17949,,1608810899,465350436,"""world""",,,2.81965565681,4.73591899872,0.445258438587,,0.00880483910441,0.00895168166608,0.706266105175,-0.707835137844
1608810899466624339,,17950,,1608810899,465435905,"""world""",,,2.81966662407,4.7359046936,0.445273280144,,0.00870097801089,0.00896511506289,0.706258833408,-0.707843542099
1608810899476081060,,17951,,1608810899,475361481,"""world""",,,2.81966042519,4.73592281342,0.445251494646,,0.00883064419031,0.00900599174201,0.706217050552,-0.707883000374
1608810899510981330,,17952,,1608810899,505417903,"""world""",,,2.81967186928,4.735912323,0.445260971785,,0.00873686559498,0.00887016486377,0.706273674965,-0.707829475403
1608810899511064710,,17953,,1608810899,505513623,"""world""",,,2.81966900826,4.73591804504,0.445257127285,,0.00880701374263,0.00908264797181,0.706253886223,-0.707845687866
1608810899511104216,,17955,,1608810899,505593484,"""world""",,,2.81966662407,4.73591947556,0.445265710354,,0.00875183567405,0.00898240599781,0.706229329109,-0.707872033119
1608810899511142828,,17956,,1608810899,505731614,"""world""",,,2.8196606636,4.7359161377,0.445260703564,,0.00882053654641,0.00894861202687,0.706261992455,-0.707839071751
1608810899525895818,,17957,,1608810899,525336630,"""world""",,,2.8196721077,4.73591375351,0.445265382528,,0.00881340634078,0.00898103695363,0.706202924252,-0.707897722721
1608810899525917454,,17958,,1608810899,525382166,"""world""",,,2.81967496872,4.73591184616,0.445262819529,,0.00875272043049,0.00891118962318,0.706257045269,-0.707845330238
1608810899545702539,,17959,,1608810899,545328819,"""world""",,,2.8196618557,4.73591470718,0.445257723331,,0.00879108160734,0.00895371753722,0.706236422062,-0.707864880562
1608810899555891895,,17960,,1608810899,555300914,"""world""",,,2.81965875626,4.73591327667,0.445262432098,,0.00877939257771,0.00901198387146,0.706275880337,-0.707825005054
1608810899556009832,,17961,,1608810899,555374820,"""world""",,,2.81967306137,4.735912323,0.445264726877,,0.00876746512949,0.00899525545537,0.706227183342,-0.707873880863
1608810899566881852,,17962,,1608810899,565424055,"""world""",,,2.81967020035,4.73591041565,0.445259690285,,0.00882969796658,0.00893220957369,0.70624268055,-0.70785844326
1608810899615575607,,17963,,1608810899,615302001,"""world""",,,2.81966400146,4.73591995239,0.445266246796,,0.00871662795544,0.00900584924966,0.706268668175,-0.707833051682
1608810899615610059,,17964,,1608810899,615359872,"""world""",,,2.81965947151,4.73591756821,0.445257425308,,0.00874886102974,0.00896077323705,0.706263244152,-0.707838594913
1608810899676025122,,17965,,1608810899,675304925,"""world""",,,2.81967306137,4.73591089249,0.445261150599,,0.00872614141554,0.00899312086403,0.706276595592,-0.707825183868
1608810899676032417,,17975,,1608810899,675520540,"""world""",,,2.81967830658,4.73590564728,0.445263296366,,0.00879133027047,0.00892031472176,0.706264078617,-0.707837700844
1608810899695781625,,17976,,1608810899,695278578,"""world""",,,2.81966376305,4.73589658737,0.445269107819,,0.00870478805155,0.00886881165206,0.706245660782,-0.707857787609
1608810899695790199,,17978,,1608810899,695325674,"""world""",,,2.81966662407,4.7359213829,0.445267796516,,0.00876287184656,0.00884483661503,0.706235408783,-0.70786768198
1608810899706010277,,17979,,1608810899,705299971,"""world""",,,2.81965851784,4.73592281342,0.445268332958,,0.00877387914807,0.00895946286619,0.706208050251,-0.707893311977
1608810899706014335,,17980,,1608810899,705325044,"""world""",,,2.81965684891,4.73591756821,0.445261150599,,0.00877725798637,0.00897711049765,0.7062266469,-0.707874536514
1608810899715545464,,17981,,1608810899,715287100,"""world""",,,2.81966352463,4.735912323,0.445267140865,,0.00880735833198,0.0090143866837,0.70623666048,-0.707863688469
1608810899725599227,,17982,,1608810899,725292402,"""world""",,,2.81966233253,4.73590278625,0.445266991854,,0.00878755282611,0.00897749140859,0.706254005432,-0.707847177982
1608810899735489458,,17983,,1608810899,735303000,"""world""",,,2.81966328621,4.73591566086,0.445257931948,,0.00879447255284,0.00898297224194,0.706239759922,-0.707861125469
1608810899745506397,,17984,,1608810899,745310709,"""world""",,,2.81966567039,4.73591375351,0.445262551308,,0.00879686325788,0.00889887753874,0.706205487251,-0.707896411419
1608810899765422920,,17985,,1608810899,765268223,"""world""",,,2.81966495514,4.7359161377,0.445246607065,,0.00883400812745,0.00882081873715,0.706244707108,-0.707857728004
1608810899765539912,,17986,,1608810899,765311379,"""world""",,,2.81966018677,4.73590612411,0.445260196924,,0.0088731078431,0.00906604714692,0.706260740757,-0.707838118076
1608810899765547307,,17987,,1608810899,765332015,"""world""",,,2.81966423988,4.73591756821,0.445262819529,,0.00880525261164,0.00892257224768,0.706236541271,-0.707864940166
1608810899776889823,,17988,,1608810899,775722892,"""world""",,,2.81966710091,4.73591518402,0.44525206089,,0.00880432501435,0.00905567221344,0.706215560436,-0.707884252071
1608810899806264148,,17989,,1608810899,806040974,"""world""",,,2.81966352463,4.73590898514,0.44527554512,,0.00877317413688,0.00891464389861,0.706260800362,-0.707841217518
1608810899806272580,,17990,,1608810899,806102912,"""world""",,,2.81966567039,4.73591661453,0.44525873661,,0.00884007290006,0.00895882118493,0.706216514111,-0.707884132862
1608810899815642571,,17991,,1608810899,815288749,"""world""",,,2.81966423988,4.73591327667,0.445252090693,,0.00894159916788,0.00898039713502,0.706208467484,-0.707890570164
1608810899815645807,,17992,,1608810899,815347697,"""world""",,,2.81965208054,4.7359251976,0.445255428553,,0.00888611003757,0.00888962391764,0.706171870232,-0.707928836346
1608810899825501449,,17993,,1608810899,825280672,"""world""",,,2.81968164444,4.73591518402,0.445256203413,,0.00883897114545,0.00897097215056,0.706187784672,-0.707912623882
1608810899835509115,,17994,,1608810899,835262085,"""world""",,,2.81967115402,4.73590087891,0.445260077715,,0.00887829717249,0.00896118208766,0.706181049347,-0.707919001579
1608810899835517891,,17995,,1608810899,835344576,"""world""",,,2.81966376305,4.73592233658,0.445260226727,,0.00882143899798,0.00892228167504,0.706166565418,-0.707934558392
1608810899845476293,,17996,,1608810899,845275168,"""world""",,,2.81965923309,4.7359161377,0.445256620646,,0.00881862360984,0.00888949632645,0.706232786179,-0.707869052887
1608810899855545131,,17997,,1608810899,855333393,"""world""",,,2.81966161728,4.73591661453,0.445264399052,,0.00875746179372,0.00900792144239,0.706210613251,-0.707890331745
1608810899875532173,,17998,,1608810899,875278816,"""world""",,,2.81966686249,4.73591470718,0.445263504982,,0.00879550632089,0.00901470612735,0.706179380417,-0.707921028137
1608810899875875438,,17999,,1608810899,875322748,"""world""",,,2.81965136528,4.73591041565,0.445247381926,,0.00888296961784,0.0089958300814,0.706241309643,-0.707858324051
1608810899875881321,,18000,,1608810899,875344053,"""world""",,,2.81966280937,4.73590421677,0.445266872644,,0.00877268984914,0.00900429207832,0.706245362759,-0.707855641842
1608810899885570437,,18001,,1608810899,885378338,"""world""",,,2.81965923309,4.735912323,0.445260554552,,0.00883328262717,0.00887475535274,0.706184089184,-0.707917571068
1608810899905617965,,18002,,1608810899,905288315,"""world""",,,2.81965255737,4.73591089249,0.445249676704,,0.00881218817085,0.00895655993372,0.7062458992,-0.7078551054
1608810899905624566,,18003,,1608810899,905309143,"""world""",,,2.81967258453,4.73591279984,0.445264130831,,0.00882872659713,0.00890534557402,0.70622253418,-0.707878947258
1608810899916243943,,18004,,1608810899,915717957,"""world""",,,2.81967234612,4.73590517044,0.445267230272,,0.00878518726677,0.00896906107664,0.706248164177,-0.707853078842
1608810899917141730,,18005,,1608810899,915740328,"""world""",,,2.81965589523,4.73591852188,0.44524922967,,0.00877714995295,0.0090107684955,0.706240177155,-0.707860589027
1608810899935594105,,18006,,1608810899,935280318,"""world""",,,2.81966590881,4.73590564728,0.445256114006,,0.00878333300352,0.00902503728867,0.706209361553,-0.707891047001
1608810899935605637,,18007,,1608810899,935301921,"""world""",,,2.81965231895,4.73591518402,0.445251971483,,0.00883096456528,0.00901836063713,0.706161499023,-0.70793825388
1608810899965474716,,18008,,1608810899,965270943,"""world""",,,2.81966018677,4.73591566086,0.445254355669,,0.00881574489176,0.00903085805476,0.706254124641,-0.707845926285
1608810899965483035,,18009,,1608810899,965331524,"""world""",,,2.8196644783,4.73590755463,0.445270359516,,0.0087277982384,0.0089589189738,0.706245958805,-0.707856178284
1608810899965542938,,18010,,1608810899,965351055,"""world""",,,2.81967020035,4.73591041565,0.445261925459,,0.00873362738639,0.00895702186972,0.706229805946,-0.707872152328
1608810899995439701,,18011,,1608810899,995265731,"""world""",,,2.81965899467,4.7359085083,0.445255249739,,0.00875479634851,0.00901260413229,0.706262648106,-0.707838356495
1608810899995740697,,18012,,1608810899,995304173,"""world""",,,2.81965661049,4.73591423035,0.44524949789,,0.00884727761149,0.00890045799315,0.70622831583,-0.707872986794
1608810899995792744,,18013,,1608810899,995323629,"""world""",,,2.81965994835,4.73591041565,0.44526091218,,0.00873565953225,0.00894708465785,0.706275880337,-0.707826256752
1608810900005529340,,18014,,1608810900,5262633,"""world""",,,2.81966996193,4.73590660095,0.445260107517,,0.00872756913304,0.00895648729056,0.706240355968,-0.707861661911
1608810900005570157,,18015,,1608810900,5309868,"""world""",,,2.81966328621,4.73591089249,0.445262879133,,0.00878433417529,0.00889692083001,0.70621329546,-0.707888841629
1608810900015433651,,18016,,1608810900,15258230,"""world""",,,2.81965208054,4.73591375351,0.445266902447,,0.00868427474052,0.00889282952994,0.706267952919,-0.707835495472
1608810900025465083,,18017,,1608810900,25281095,"""world""",,,2.81967020035,4.73590993881,0.44525885582,,0.00872796960175,0.00893873721361,0.706244587898,-0.707857787609
1608810900045484239,,18018,,1608810900,45275867,"""world""",,,2.81966161728,4.73590707779,0.445261418819,,0.0088072558865,0.00891972333193,0.706253528595,-0.707848012447
1608810900045495166,,18019,,1608810900,45333918,"""world""",,,2.8196644783,4.73591470718,0.4452650249,,0.00873095262796,0.00894909817725,0.706230759621,-0.707871437073
1608810900045501828,,18020,,1608810900,45355140,"""world""",,,2.81966495514,4.73591041565,0.445254355669,,0.00880352593958,0.00893344264477,0.706251442432,-0.707849979401
1608810900055740127,,18021,,1608810900,55568248,"""world""",,,2.81965780258,4.73590278625,0.445252656937,,0.0087496638298,0.00892649684101,0.706251204014,-0.70785099268
1608810900065457161,,18022,,1608810900,65267514,"""world""",,,2.81966757774,4.73590803146,0.445263773203,,0.00878208968788,0.00892419740558,0.70620983839,-0.707891941071
1608810900065489411,,18023,,1608810900,65342174,"""world""",,,2.81966853142,4.73590564728,0.445249080658,,0.00878996122628,0.00888420268893,0.706252396107,-0.707849860191
1608810900085483923,,18024,,1608810900,85259671,"""world""",,,2.819637537,4.73581933975,0.445357322693,,0.00863197352737,0.0101530095562,0.706503510475,-0.70758408308
1608810900095685893,,18025,,1608810900,95420544,"""world""",,,2.81966757774,4.73591470718,0.445248484612,,0.00880801025778,0.00892350729555,0.70626604557,-0.707835555077
1608810900095782457,,18026,,1608810900,95437111,"""world""",,,2.81966114044,4.73590707779,0.445261895657,,0.00875399261713,0.00885425880551,0.706242620945,-0.707860410213
1608810900125916305,,18027,,1608810900,125272592,"""world""",,,2.81966590881,4.73590755463,0.44527387619,,0.0087525723502,0.00890725664794,0.706197500229,-0.707904815674
1608810900125934937,,18028,,1608810900,125322903,"""world""",,,2.81966948509,4.73590326309,0.445263177156,,0.00877435784787,0.0087927095592,0.706201016903,-0.707902431488
1608810900125944467,,18029,,1608810900,125344108,"""world""",,,2.81965136528,4.73591327667,0.445251584053,,0.0087876887992,0.00899908877909,0.706243634224,-0.707857191563
1608810900135803416,,18030,,1608810900,135309117,"""world""",,,2.81967067719,4.73591518402,0.445261448622,,0.00871212407947,0.00901094079018,0.706274271011,-0.70782738924
1608810900145572938,,18031,,1608810900,145285059,"""world""",,,2.81965303421,4.73590946198,0.445250362158,,0.00875299423933,0.00897921994328,0.706266880035,-0.707834601402
1608810900145653907,,18032,,1608810900,145338868,"""world""",,,2.81964802742,4.73591852188,0.445253968239,,0.00873691961169,0.00895919650793,0.706259608269,-0.707842469215
1608810900165552684,,18033,,1608810900,165310558,"""world""",,,2.81965708733,4.73591947556,0.445258438587,,0.00871733762324,0.00891511701047,0.706271290779,-0.707831501961
1608810900205732399,,18034,,1608810900,205379076,"""world""",,,2.81982779503,4.73593711853,0.445113807917,,0.00830982159823,0.0114326570183,0.706497907639,-0.7075740695
1608810900206327736,,18035,,1608810900,205480948,"""world""",,,2.819658041,4.73590517044,0.445258170366,,0.00878866482526,0.00893387943506,0.706228017807,-0.70787358284
1608810900206346560,,18037,,1608810900,205574462,"""world""",,,2.81966972351,4.73590803146,0.445253461599,,0.00871495995671,0.00887188594788,0.706253409386,-0.707849979401
1608810900206359959,,18038,,1608810900,205884613,"""world""",,,2.81966662407,4.73590326309,0.445264130831,,0.00869068875909,0.00894501432776,0.706288278103,-0.707814574242
1608810900285534312,,18039,,1608810900,285302047,"""world""",,,2.81965184212,4.73591423035,0.445246547461,,0.00888207368553,0.00896607711911,0.706255674362,-0.707844436169
1608810900295602057,,18040,,1608810900,295264324,"""world""",,,2.81964826584,4.73591184616,0.445253610611,,0.00872778333724,0.00892723817378,0.706268012524,-0.707834541798
1608810900295627447,,18041,,1608810900,295313167,"""world""",,,2.81965351105,4.73591518402,0.445254385471,,0.00874007306993,0.00901238899678,0.706249654293,-0.707851529121
1608810900295657220,,18043,,1608810900,295347601,"""world""",,,2.819678545,4.7359046936,0.445269286633,,0.0088030193001,0.00900285784155,0.706284403801,-0.707816243172
1608810900305828834,,18044,,1608810900,305393821,"""world""",,,2.81966137886,4.73591566086,0.445261597633,,0.00878604501486,0.00896454043686,0.706242382526,-0.707858860493
1608810900305839266,,18049,,1608810900,305510616,"""world""",,,2.81967186928,4.73590898514,0.445256710052,,0.00886093080044,0.00888818223029,0.706227064133,-0.707874178886
1608810900315504154,,18050,,1608810900,315269313,"""world""",,,2.81966924667,4.73590087891,0.445259153843,,0.00877164583653,0.00882778409868,0.706204950809,-0.707898080349
1608810900346297990,,18051,,1608810900,345274545,"""world""",,,2.81966161728,4.73591089249,0.445261448622,,0.00876191910356,0.00889032986015,0.706288576126,-0.7078140378
1608810900346306373,,18052,,1608810900,345336311,"""world""",,,2.81966304779,4.73591041565,0.445266991854,,0.00881021283567,0.00898367539048,0.706232845783,-0.707867920399
1608810900346310035,,18053,,1608810900,345456425,"""world""",,,2.81965732574,4.73591136932,0.44525206089,,0.00879532843828,0.00886029191315,0.706260859966,-0.70784163475
1608810900346313529,,18056,,1608810900,345533156,"""world""",,,2.81966805458,4.7359085083,0.445271581411,,0.00878092646599,0.00899016205221,0.706213593483,-0.707887351513
1608810900355443542,,18057,,1608810900,355280946,"""world""",,,2.81966900826,4.73590183258,0.445273071527,,0.00873238500208,0.00891261454672,0.706259489059,-0.707843065262
1608810900365414546,,18058,,1608810900,365266527,"""world""",,,2.81967043877,4.73590898514,0.445264428854,,0.00878594815731,0.00899453833699,0.706201851368,-0.707898914814
1608810900396467782,,18059,,1608810900,395342420,"""world""",,,2.81966495514,4.73591089249,0.445264577866,,0.00875636842102,0.00893848668784,0.706247150898,-0.707854866982
1608810900396486601,,18062,,1608810900,395401356,"""world""",,,2.81966304779,4.73591947556,0.445256739855,,0.00879212655127,0.00893663428724,0.706254184246,-0.707847356796
1608810900405502870,,18063,,1608810900,405257033,"""world""",,,2.81966161728,4.73591279984,0.445264190435,,0.00880979280919,0.00893560331315,0.706207334995,-0.707893967628
1608810900415475846,,18064,,1608810900,415278731,"""world""",,,2.81965970993,4.73592090607,0.445263713598,,0.00882578361779,0.00893513858318,0.706219851971,-0.707881271839
1608810900435627800,,18065,,1608810900,435258221,"""world""",,,2.81966400146,4.73591756821,0.445250958204,,0.0088752405718,0.00908995699137,0.706228494644,-0.707870066166
1608810900435651469,,18066,,1608810900,435317182,"""world""",,,2.81966567039,4.73591661453,0.445260822773,,0.00887289363891,0.0088944286108,0.706140041351,-0.707960724831
1608810900435658664,,18067,,1608810900,435339172,"""world""",,,2.8196709156,4.73591089249,0.445267766714,,0.00885523390025,0.00890563614666,0.706188619137,-0.707912445068
1608810900445495674,,18068,,1608810900,445268903,"""world""",,,2.81965613365,4.73591327667,0.445253908634,,0.00877772737294,0.00883039925247,0.706223249435,-0.707879841328
1608810900455684957,,18069,,1608810900,455358092,"""world""",,,2.81966090202,4.73590946198,0.445264577866,,0.00880552921444,0.00895889848471,0.706238985062,-0.707862138748
1608810900475832775,,18070,,1608810900,475293415,"""world""",,,2.81965661049,4.73591423035,0.445257872343,,0.00886048935354,0.00895960256457,0.706207215786,-0.707893073559
1608810900476543395,,18071,,1608810900,476143067,"""world""",,,2.81966471672,4.73592281342,0.445261418819,,0.0088474098593,0.00893366988748,0.70614618063,-0.707954525948
1608810900476549253,,18072,,1608810900,476175085,"""world""",,,2.81965637207,4.73592090607,0.445264577866,,0.00882884021848,0.0088644484058,0.70620405674,-0.707897782326
1608810900485986797,,18073,,1608810900,485337909,"""world""",,,2.81965351105,4.7359213829,0.445249527693,,0.00890598352998,0.00905509851873,0.706236541271,-0.707862079144
1608810900495854104,,18074,,1608810900,495321879,"""world""",,,2.81966876984,4.73592233658,0.445250302553,,0.00886412337422,0.008853812702,0.706184566021,-0.707916975021
1608810900505597664,,18075,,1608810900,505281864,"""world""",,,2.81965065002,4.73592185974,0.445256024599,,0.00880229379982,0.00878214463592,0.706215798855,-0.707887470722
1608810900515758376,,18076,,1608810900,515269068,"""world""",,,2.81966042519,4.73592042923,0.445251941681,,0.00881626922637,0.00892059132457,0.706231892109,-0.707869589329
1608810900525681986,,18077,,1608810900,525334862,"""world""",,,2.81964659691,4.73591756821,0.445258378983,,0.00882374309003,0.00889912899584,0.706241667271,-0.707859992981
1608810900625870759,,18078,,1608810900,625360800,"""world""",,,2.81966662407,4.73591566086,0.445259600878,,0.00885005947202,0.00894221197814,0.706247270107,-0.707853496075
1608810900625967558,,18079,,1608810900,625519763,"""world""",,,2.81966233253,4.73591804504,0.445253580809,,0.00874808337539,0.00904229097068,0.706275880337,-0.70782494545
1608810900656638709,,18080,,1608810900,655328319,"""world""",,,2.81966352463,4.73592662811,0.445264279842,,0.00885487534106,0.00889104604721,0.706161856651,-0.707939267159
1608810900658006178,,18081,,1608810900,655467812,"""world""",,,2.81966209412,4.73591947556,0.445261895657,,0.00882080383599,0.00900259613991,0.706230938435,-0.707869410515
1608810900721446126,,18082,,1608810900,715341082,"""world""",,,2.81966090202,4.73591470718,0.445261448622,,0.00888950750232,0.0089572891593,0.706223666668,-0.707876384258
1608810900721464420,,18083,,1608810900,715449232,"""world""",,,2.81965637207,4.73590278625,0.445265114307,,0.00876684859395,0.0089452425018,0.706263661385,-0.707838177681
1608810900721472550,,18085,,1608810900,715528456,"""world""",,,2.81967258453,4.73592090607,0.445264011621,,0.0087824575603,0.00887810532004,0.706241905689,-0.707860410213
1608810900721480377,,18086,,1608810900,715636954,"""world""",,,2.81967353821,4.73590278625,0.445261925459,,0.00881912186742,0.00891517661512,0.706271231174,-0.707830309868
1608810900721492428,,18090,,1608810900,715811246,"""world""",,,2.81966137886,4.7359161377,0.445257484913,,0.00887554418296,0.00905634183437,0.706204771996,-0.707894146442
1608810900721499990,,18091,,1608810900,715914381,"""world""",,,2.81966710091,4.7359213829,0.445259153843,,0.00887956283987,0.00899927970022,0.706226885319,-0.70787280798
1608810900721525558,,18093,,1608810900,716011862,"""world""",,,2.81965899467,4.73592090607,0.445259571075,,0.00884480495006,0.0089157782495,0.70620059967,-0.707900524139
1608810900827910563,,18094,,1608810900,825423887,"""world""",,,2.81967067719,4.73590803146,0.445267260075,,0.008848272264,0.00901072565466,0.706278443336,-0.70782148838
1608810900827950268,,18095,,1608810900,825487930,"""world""",,,2.81967067719,4.73591470718,0.445266276598,,0.0088692381978,0.00898109376431,0.706221938133,-0.707878053188
1608810900828041772,,18096,,1608810900,825964502,"""world""",,,2.81967115402,4.73591375351,0.445267111063,,0.00886460952461,0.00904928799719,0.706210851669,-0.707888245583
1608810900828095987,,18114,,1608810900,826666552,"""world""",,,2.81966495514,4.735912323,0.445263504982,,0.00881209410727,0.00896742846817,0.706229269505,-0.707871675491
1608810900850985304,,18115,,1608810900,836200921,"""world""",,,2.81965827942,4.73591470718,0.445267677307,,0.00881750602275,0.00902154576033,0.706294834614,-0.707805395126
1608810900851019132,,18116,,1608810900,845317001,"""world""",,,2.81966495514,4.73591041565,0.445271551609,,0.00881662219763,0.00886018294841,0.706250548363,-0.707851707935
1608810900856713336,,18117,,1608810900,855336852,"""world""",,,2.81965970993,4.73592281342,0.445269495249,,0.00876182876527,0.00897687487304,0.706247389317,-0.707854032516
1608810900870128795,,18118,,1608810900,865328172,"""world""",,,2.81982445717,4.7359418869,0.445144683123,,0.0083253197372,0.0114152617753,0.706472098827,-0.707599937916
1608810900875832217,,18119,,1608810900,875331595,"""world""",,,2.8196606636,4.73591184616,0.445267558098,,0.00887542124838,0.00895403977484,0.706201970577,-0.707898199558
1608810900908420368,,18120,,1608810900,905338179,"""world""",,,2.81966137886,4.735912323,0.445271641016,,0.00883558765054,0.00892824213952,0.70623588562,-0.707865178585
1608810900908426968,,18121,,1608810900,905388378,"""world""",,,2.81966900826,4.73592472076,0.445268452168,,0.00887885969132,0.00890200212598,0.706251382828,-0.707849502563
1608810900908433390,,18122,,1608810900,905548505,"""world""",,,2.81966090202,4.73593044281,0.445300132036,,0.00896695628762,0.00896319188178,0.706278800964,-0.707820236683
1608810900956524985,,18123,,1608810900,955432982,"""world""",,,2.81965994835,4.73601675034,0.445488512516,,0.00942874327302,0.00947632081807,0.706192970276,-0.707893311977
1608810900956737373,,18128,,1608810900,955674327,"""world""",,,2.81993603706,4.73524045944,0.446007013321,,0.0115270316601,0.0105119403452,0.707423150539,-0.706618189812
1608810900971697689,,18129,,1608810900,965313772,"""world""",,,2.82018089294,4.73391866684,0.445992171764,,0.0116475410759,0.0104748932645,0.707633256912,-0.7064062953
1608810900971724533,,18131,,1608810900,965383521,"""world""",,,2.82069659233,4.72988843918,0.445595085621,,0.0106532974169,0.00905358046293,0.707575142384,-0.706499874592
1608810900975803338,,18132,,1608810900,975319411,"""world""",,,2.82095837593,4.72737646103,0.445652842522,,0.010301919654,0.01044567395,0.70751363039,-0.706547439098
1608810900985873986,,18133,,1608810900,985327489,"""world""",,,2.82062220573,4.72530031204,0.444391667843,,0.00574119575322,0.0195253137499,0.710112035275,-0.703794538975
1608810900995733481,,18134,,1608810900,995296076,"""world""",,,2.82049274445,4.72326374054,0.443650364876,,-0.000544469861779,0.0150647405535,0.710720360279,-0.703313171864
1608810901006144650,,18135,,1608810901,5291806,"""world""",,,2.82085561752,4.72099685669,0.444442212582,,0.00495780492201,0.0171995274723,0.709038674831,-0.704942405224
1608810901015705161,,18136,,1608810901,15391857,"""world""",,,2.82084202766,4.71951961517,0.444640994072,,0.00606157165021,0.0178476758301,0.709186911583,-0.70476859808
1608810901025708321,,18137,,1608810901,25306554,"""world""",,,2.82075953484,4.71853399277,0.444626063108,,0.00586949614808,0.0184366814792,0.709130525589,-0.704811811447
1608810901035581182,,18138,,1608810901,35297283,"""world""",,,2.82048916817,4.71796798706,0.444638371468,,0.00491338409483,0.0191107653081,0.708355903625,-0.705579698086
1608810901035889286,,18139,,1608810901,35416229,"""world""",,,2.82019352913,4.71740150452,0.444541662931,,0.00234333518893,0.0181427150965,0.70839458704,-0.705579638481
1608810901045670879,,18140,,1608810901,45322378,"""world""",,,2.82008171082,4.71700954437,0.444610059261,,0.00226934347302,0.0182486120611,0.708537817001,-0.705433189869
1608810901055924095,,18141,,1608810901,55394435,"""world""",,,2.82001876831,4.71643829346,0.444639891386,,0.00243701669388,0.0184109229594,0.708595812321,-0.705370187759
1608810901056286348,,18142,,1608810901,55444496,"""world""",,,2.81996393204,4.71560811996,0.444717079401,,0.00274876481853,0.0185976959765,0.708810925484,-0.705147981644
1608810901075565902,,18143,,1608810901,75292365,"""world""",,,2.81994771957,4.71434307098,0.444764465094,,0.00282475887798,0.0187202952802,0.709182441235,-0.704770803452
1608810901085790163,,18144,,1608810901,85287776,"""world""",,,2.82001566887,4.71264362335,0.444804489613,,0.00331095932052,0.019603593275,0.708781599998,-0.705147862434
1608810901085811246,,18145,,1608810901,85366575,"""world""",,,2.82045960426,4.71010541916,0.445600658655,,0.00629382161424,0.00936298072338,0.706800580025,-0.707322895527
1608810901097451667,,18146,,1608810901,95362383,"""world""",,,2.82056164742,4.70803833008,0.445711672306,,0.00738071510568,0.0100020747632,0.706712067127,-0.707392036915
1608810901105815062,,18147,,1608810901,105348876,"""world""",,,2.82102441788,4.70541000366,0.446330726147,,0.00562533503398,0.0176861938089,0.70775282383,-0.706216394901
1608810901126031704,,18148,,1608810901,125316165,"""world""",,,2.82128429413,4.7035908699,0.446482390165,,0.00656665908173,0.0180156305432,0.707318246365,-0.706635177135
1608810901126105180,,18149,,1608810901,125398264,"""world""",,,2.82143735886,4.70168447495,0.446331083775,,0.00497068930417,0.0166501104832,0.707432627678,-0.706567168236
1608810901135721127,,18150,,1608810901,135296747,"""world""",,,2.82122087479,4.70059251785,0.445569574833,,-0.00157736882102,0.0115247797221,0.70878225565,-0.705331504345
1608810901135734835,,18151,,1608810901,135323184,"""world""",,,2.82180547714,4.69927692413,0.446325957775,,0.0058705904521,0.0169071592391,0.707086980343,-0.706900060177
1608810901145701899,,18152,,1608810901,145297217,"""world""",,,2.82191038132,4.69842243195,0.446282058954,,0.00592136802152,0.0168100707233,0.707071959972,-0.706916987896
1608810901155965888,,18153,,1608810901,155358715,"""world""",,,2.82199835777,4.6976275444,0.446327775717,,0.00614141486585,0.0175646562129,0.70723348856,-0.706735134125
1608810901166565529,,18154,,1608810901,165322991,"""world""",,,2.82205367088,4.69684648514,0.446240574121,,0.00541097065434,0.0170066058636,0.707140624523,-0.706847727299
1608810901175959621,,18155,,1608810901,175379828,"""world""",,,2.82215428352,4.69623231888,0.446329474449,,0.0058459606953,0.017404416576,0.706925094128,-0.707050085068
1608810901176150094,,18156,,1608810901,175494872,"""world""",,,2.82228064537,4.69561719894,0.446396261454,,0.00609140470624,0.0176295880228,0.706508398056,-0.707458913326
1608810901196862047,,18157,,1608810901,195345194,"""world""",,,2.82246279716,4.6950097084,0.446539789438,,0.00718898046762,0.0182408578694,0.705989718437,-0.70795071125
1608810901196879725,,18158,,1608810901,195600608,"""world""",,,2.82256984711,4.69423627853,0.446530401707,,0.00735122943297,0.0185455568135,0.705757021904,-0.708173036575
1608810901206204880,,18159,,1608810901,205315823,"""world""",,,2.82271003723,4.69331502914,0.446451812983,,0.00851454306394,0.0188754163682,0.706077098846,-0.707832157612
1608810901223287481,,18160,,1608810901,219072277,"""world""",,,2.82254815102,4.69201469421,0.446454614401,,0.00605946686119,0.0176397655159,0.706388235092,-0.707578897476
1608810901225762352,,18161,,1608810901,225310496,"""world""",,,2.82254242897,4.69069862366,0.446491897106,,0.00595691753551,0.0177401024848,0.706918120384,-0.707047760487
