rosbagTimestamp,header,seq,stamp,secs,nsecs,frame_id,name,position,velocity,effort
1608810897592439414,,102748,,1608810897,409057904,'',"[wheel_left_joint, wheel_right_joint]","[628.553952681832, 689.7473706859164]","[0.0, 0.0]","[0.0, 0.0]"
1608810897592459918,,102749,,1608810897,425439630,'',"[wheel_left_joint, wheel_right_joint]","[628.553952681832, 689.7473706859164]","[0.0, 0.0]","[0.0, 0.0]"
1608810897630564693,,102750,,1608810897,445486335,'',"[wheel_left_joint, wheel_right_joint]","[628.553952681832, 689.7473706859164]","[0.0, 0.0]","[0.0, 0.0]"
1608810897630581462,,102751,,1608810897,465290691,'',"[wheel_left_joint, wheel_right_joint]","[628.553952681832, 689.7473706859164]","[0.0, 0.0]","[0.0, 0.0]"
1608810897630664628,,102752,,1608810897,485327772,'',"[wheel_left_joint, wheel_right_joint]","[628.553952681832, 689.7473706859164]","[0.0, 0.0]","[0.0, 0.0]"
1608810897630675994,,102753,,1608810897,505648031,'',"[wheel_left_joint, wheel_right_joint]","[628.553952681832, 689.7473706859164]","[0.0, 0.0]","[0.0, 0.0]"
1608810897630683080,,102754,,1608810897,525572541,'',"[wheel_left_joint, wheel_right_joint]","[628.553952681832, 689.7473706859164]","[0.0, 0.0]","[0.0, 0.0]"
1608810897630778012,,102755,,1608810897,545570542,'',"[wheel_left_joint, wheel_right_joint]","[628.553952681832, 689.7473706859164]","[0.0, 0.0]","[0.0, 0.0]"
1608810897686493489,,102756,,1608810897,564596233,'',"[wheel_left_joint, wheel_right_joint]","[628.553952681832, 689.7473706859164]","[0.0, 0.0]","[0.0, 0.0]"
1608810897686563757,,102757,,1608810897,585927007,'',"[wheel_left_joint, wheel_right_joint]","[628.553952681832, 689.7473706859164]","[0.0, 0.0]","[0.0, 0.0]"
1608810897686574747,,102758,,1608810897,605908094,'',"[wheel_left_joint, wheel_right_joint]","[628.553952681832, 689.7473706859164]","[0.0, 0.0]","[0.0, 0.0]"
1608810897686582241,,102759,,1608810897,625893556,'',"[wheel_left_joint, wheel_right_joint]","[628.553952681832, 689.7473706859164]","[0.0, 0.0]","[0.0, 0.0]"
1608810897731273446,,102760,,1608810897,649364056,'',"[wheel_left_joint, wheel_right_joint]","[628.553952681832, 689.7473706859164]","[0.0, 0.0]","[0.0, 0.0]"
1608810897731304525,,102761,,1608810897,666135991,'',"[wheel_left_joint, wheel_right_joint]","[628.553952681832, 689.7473706859164]","[0.0, 0.0]","[0.0, 0.0]"
1608810897731414811,,102762,,1608810897,685859856,'',"[wheel_left_joint, wheel_right_joint]","[628.553952681832, 689.7473706859164]","[0.0, 0.0]","[0.0, 0.0]"
1608810897731428483,,102763,,1608810897,705753744,'',"[wheel_left_joint, wheel_right_joint]","[628.553952681832, 689.7473706859164]","[0.0, 0.0]","[0.0, 0.0]"
1608810897758050079,,102764,,1608810897,725725498,'',"[wheel_left_joint, wheel_right_joint]","[628.553952681832, 689.7473706859164]","[0.0, 0.0]","[0.0, 0.0]"
1608810897786899295,,102765,,1608810897,746688812,'',"[wheel_left_joint, wheel_right_joint]","[628.553952681832, 689.7473706859164]","[0.0, 0.0]","[0.0, 0.0]"
1608810897804302238,,102766,,1608810897,765834656,'',"[wheel_left_joint, wheel_right_joint]","[628.553952681832, 689.7473706859164]","[0.0, 0.0]","[0.0, 0.0]"
1608810897804309936,,102767,,1608810897,785818660,'',"[wheel_left_joint, wheel_right_joint]","[628.553952681832, 689.7473706859164]","[0.0, 0.0]","[0.0, 0.0]"
1608810897866761118,,102768,,1608810897,805737628,'',"[wheel_left_joint, wheel_right_joint]","[628.553952681832, 689.7473706859164]","[0.0, 0.0]","[0.0, 0.0]"
1608810897899856503,,102769,,1608810897,824729781,'',"[wheel_left_joint, wheel_right_joint]","[628.553952681832, 689.7473706859164]","[0.0, 0.0]","[0.0, 0.0]"
1608810897899950514,,102770,,1608810897,845631268,'',"[wheel_left_joint, wheel_right_joint]","[628.553952681832, 689.7473706859164]","[0.0, 0.0]","[0.0, 0.0]"
1608810897900010956,,102771,,1608810897,865706553,'',"[wheel_left_joint, wheel_right_joint]","[628.553952681832, 689.7473706859164]","[0.0, 0.0]","[0.0, 0.0]"
1608810897925929881,,102772,,1608810897,885717679,'',"[wheel_left_joint, wheel_right_joint]","[628.553952681832, 689.7473706859164]","[0.0, 0.0]","[0.0, 0.0]"
1608810897925938753,,102773,,1608810897,905727637,'',"[wheel_left_joint, wheel_right_joint]","[628.553952681832, 689.7473706859164]","[0.0, 0.0]","[0.0, 0.0]"
1608810897956303424,,102774,,1608810897,925717182,'',"[wheel_left_joint, wheel_right_joint]","[628.553952681832, 689.7473706859164]","[0.0, 0.0]","[0.0, 0.0]"
1608810897986818774,,102775,,1608810897,945697686,'',"[wheel_left_joint, wheel_right_joint]","[628.553952681832, 689.7473706859164]","[0.0, 0.0]","[0.0, 0.0]"
1608810897986834338,,102776,,1608810897,965743224,'',"[wheel_left_joint, wheel_right_joint]","[628.553952681832, 689.7473706859164]","[0.0, 0.0]","[0.0, 0.0]"
1608810898013318391,,102777,,1608810897,985703605,'',"[wheel_left_joint, wheel_right_joint]","[628.553952681832, 689.7473706859164]","[0.0, 0.0]","[0.0, 0.0]"
1608810898034001953,,102778,,1608810898,5736311,'',"[wheel_left_joint, wheel_right_joint]","[628.553952681832, 689.7473706859164]","[0.0, 0.0]","[0.0, 0.0]"
1608810898049132265,,102779,,1608810898,25691751,'',"[wheel_left_joint, wheel_right_joint]","[628.553952681832, 689.7473706859164]","[0.0, 0.0]","[0.0, 0.0]"
1608810898060722695,,102780,,1608810898,46434313,'',"[wheel_left_joint, wheel_right_joint]","[628.553952681832, 689.7473706859164]","[0.0, 0.0]","[0.0, 0.0]"
1608810898082654761,,102781,,1608810898,65718115,'',"[wheel_left_joint, wheel_right_joint]","[628.553952681832, 689.7473706859164]","[0.0, 0.0]","[0.0, 0.0]"
1608810898109393490,,102782,,1608810898,86236409,'',"[wheel_left_joint, wheel_right_joint]","[628.553952681832, 689.7473706859164]","[0.0, 0.0]","[0.0, 0.0]"
1608810898129389326,,102783,,1608810898,105696067,'',"[wheel_left_joint, wheel_right_joint]","[628.553952681832, 689.7473706859164]","[0.0, 0.0]","[0.0, 0.0]"
1608810898152798127,,102784,,1608810898,125668712,'',"[wheel_left_joint, wheel_right_joint]","[628.553952681832, 689.7473706859164]","[0.0, 0.0]","[0.0, 0.0]"
1608810898174956010,,102785,,1608810898,145672270,'',"[wheel_left_joint, wheel_right_joint]","[628.553952681832, 689.7473706859164]","[0.0, 0.0]","[0.0, 0.0]"
1608810898199037568,,102786,,1608810898,164703516,'',"[wheel_left_joint, wheel_right_joint]","[628.553952681832, 689.7473706859164]","[0.0, 0.0]","[0.0, 0.0]"
1608810898225023239,,102787,,1608810898,184777066,'',"[wheel_left_joint, wheel_right_joint]","[628.553952681832, 689.7473706859164]","[0.0, 0.0]","[0.0, 0.0]"
1608810898251444498,,102788,,1608810898,204971937,'',"[wheel_left_joint, wheel_right_joint]","[628.553952681832, 689.7473706859164]","[0.0, 0.0]","[0.0, 0.0]"
1608810898251475696,,102789,,1608810898,225713041,'',"[wheel_left_joint, wheel_right_joint]","[628.553952681832, 689.7473706859164]","[0.0, 0.0]","[0.0, 0.0]"
1608810898284113013,,102790,,1608810898,245655647,'',"[wheel_left_joint, wheel_right_joint]","[628.553952681832, 689.7473706859164]","[0.0, 0.0]","[0.0, 0.0]"
1608810898309550134,,102791,,1608810898,265602628,'',"[wheel_left_joint, wheel_right_joint]","[628.553952681832, 689.7473706859164]","[0.0, 0.0]","[0.0, 0.0]"
1608810898309582364,,102792,,1608810898,285570898,'',"[wheel_left_joint, wheel_right_joint]","[628.553952681832, 689.7473706859164]","[0.0, 0.0]","[0.0, 0.0]"
1608810898341341274,,102793,,1608810898,305562499,'',"[wheel_left_joint, wheel_right_joint]","[628.553952681832, 689.7473706859164]","[0.0, 0.0]","[0.0, 0.0]"
1608810898360667162,,102794,,1608810898,325685336,'',"[wheel_left_joint, wheel_right_joint]","[628.553952681832, 689.7473706859164]","[0.0, 0.0]","[0.0, 0.0]"
1608810898360761490,,102795,,1608810898,345552700,'',"[wheel_left_joint, wheel_right_joint]","[628.553952681832, 689.7473706859164]","[0.0, 0.0]","[0.0, 0.0]"
1608810898381934715,,102796,,1608810898,365561799,'',"[wheel_left_joint, wheel_right_joint]","[628.553952681832, 689.7473706859164]","[0.0, 0.0]","[0.0, 0.0]"
1608810898422595266,,102797,,1608810898,385571190,'',"[wheel_left_joint, wheel_right_joint]","[628.553952681832, 689.7473706859164]","[0.0, 0.0]","[0.0, 0.0]"
1608810898442359485,,102798,,1608810898,405522545,'',"[wheel_left_joint, wheel_right_joint]","[628.553952681832, 689.7473706859164]","[0.0, 0.0]","[0.0, 0.0]"
1608810898442388815,,102799,,1608810898,425503647,'',"[wheel_left_joint, wheel_right_joint]","[628.553952681832, 689.7473706859164]","[0.0, 0.0]","[0.0, 0.0]"
1608810898460831437,,102800,,1608810898,445446545,'',"[wheel_left_joint, wheel_right_joint]","[628.553952681832, 689.7473706859164]","[0.0, 0.0]","[0.0, 0.0]"
1608810898482644834,,102801,,1608810898,465608461,'',"[wheel_left_joint, wheel_right_joint]","[628.553952681832, 689.7473706859164]","[0.0, 0.0]","[0.0, 0.0]"
1608810898498816421,,102802,,1608810898,485812664,'',"[wheel_left_joint, wheel_right_joint]","[628.553952681832, 689.7473706859164]","[0.0, 0.0]","[0.0, 0.0]"
1608810898527209880,,102803,,1608810898,505317526,'',"[wheel_left_joint, wheel_right_joint]","[628.553952681832, 689.7473706859164]","[0.0, 0.0]","[0.0, 0.0]"
1608810898543484319,,102804,,1608810898,524543001,'',"[wheel_left_joint, wheel_right_joint]","[628.553952681832, 689.7473706859164]","[0.0, 0.0]","[0.0, 0.0]"
1608810898564785947,,102805,,1608810898,544526727,'',"[wheel_left_joint, wheel_right_joint]","[628.553952681832, 689.7473706859164]","[0.0, 0.0]","[0.0, 0.0]"
1608810898594167733,,102806,,1608810898,565386527,'',"[wheel_left_joint, wheel_right_joint]","[628.553952681832, 689.7473706859164]","[0.0, 0.0]","[0.0, 0.0]"
1608810898631689479,,102807,,1608810898,585417207,'',"[wheel_left_joint, wheel_right_joint]","[628.553952681832, 689.7473706859164]","[0.0, 0.0]","[0.0, 0.0]"
1608810898658566242,,102808,,1608810898,605359521,'',"[wheel_left_joint, wheel_right_joint]","[628.553952681832, 689.7473706859164]","[0.0, 0.0]","[0.0, 0.0]"
1608810898658581943,,102809,,1608810898,625355205,'',"[wheel_left_joint, wheel_right_joint]","[628.553952681832, 689.7473706859164]","[0.0, 0.0]","[0.0, 0.0]"
1608810898658704079,,102810,,1608810898,645346806,'',"[wheel_left_joint, wheel_right_joint]","[628.553952681832, 689.7473706859164]","[0.0, 0.0]","[0.0, 0.0]"
1608810898684143082,,102811,,1608810898,665368154,'',"[wheel_left_joint, wheel_right_joint]","[628.553952681832, 689.7473706859164]","[0.0, 0.0]","[0.0, 0.0]"
1608810898715309924,,102812,,1608810898,685441705,'',"[wheel_left_joint, wheel_right_joint]","[628.553952681832, 689.7473706859164]","[0.0, 0.0]","[0.0, 0.0]"
1608810898745695355,,102813,,1608810898,705363313,'',"[wheel_left_joint, wheel_right_joint]","[628.553952681832, 689.7473706859164]","[0.0, 0.0]","[0.0, 0.0]"
1608810898898295887,,102814,,1608810898,727458480,'',"[wheel_left_joint, wheel_right_joint]","[628.553952681832, 689.7473706859164]","[0.0, 0.0]","[0.0, 0.0]"
1608810898898351993,,102815,,1608810898,746020193,'',"[wheel_left_joint, wheel_right_joint]","[628.553952681832, 689.7473706859164]","[0.0, 0.0]","[0.0, 0.0]"
1608810898933105997,,102816,,1608810898,766633560,'',"[wheel_left_joint, wheel_right_joint]","[628.553952681832, 689.7473706859164]","[0.0, 0.0]","[0.0, 0.0]"
1608810898933134752,,102817,,1608810898,785280139,'',"[wheel_left_joint, wheel_right_joint]","[628.553952681832, 689.7473706859164]","[0.0, 0.0]","[0.0, 0.0]"
1608810898933186177,,102818,,1608810898,805426015,'',"[wheel_left_joint, wheel_right_joint]","[628.553952681832, 689.7473706859164]","[0.0, 0.0]","[0.0, 0.0]"
1608810898933234469,,102819,,1608810898,826173243,'',"[wheel_left_joint, wheel_right_joint]","[628.553952681832, 689.7473706859164]","[0.0, 0.0]","[0.0, 0.0]"
1608810898933269498,,102820,,1608810898,846169510,'',"[wheel_left_joint, wheel_right_joint]","[628.553952681832, 689.7473706859164]","[0.0, 0.0]","[0.0, 0.0]"
1608810898933290548,,102821,,1608810898,866442539,'',"[wheel_left_joint, wheel_right_joint]","[628.553952681832, 689.7473706859164]","[0.0, 0.0]","[0.0, 0.0]"
1608810898933386607,,102822,,1608810898,885183025,'',"[wheel_left_joint, wheel_right_joint]","[628.553952681832, 689.7473706859164]","[0.0, 0.0]","[0.0, 0.0]"
1608810898933507557,,102823,,1608810898,905390727,'',"[wheel_left_joint, wheel_right_joint]","[628.553952681832, 689.7473706859164]","[0.0, 0.0]","[0.0, 0.0]"
1608810898956829214,,102824,,1608810898,925219304,'',"[wheel_left_joint, wheel_right_joint]","[628.553952681832, 689.7473706859164]","[0.0, 0.0]","[0.0, 0.0]"
1608810898980237315,,102825,,1608810898,947219689,'',"[wheel_left_joint, wheel_right_joint]","[628.553952681832, 689.7473706859164]","[0.0, 0.0]","[0.0, 0.0]"
1608810899002626495,,102826,,1608810898,966357965,'',"[wheel_left_joint, wheel_right_joint]","[628.553952681832, 689.7473706859164]","[0.0, 0.0]","[0.0, 0.0]"
1608810899035937958,,102827,,1608810898,986475261,'',"[wheel_left_joint, wheel_right_joint]","[628.553952681832, 689.7473706859164]","[0.0, 0.0]","[0.0, 0.0]"
1608810899035973614,,102828,,1608810899,5175793,'',"[wheel_left_joint, wheel_right_joint]","[628.553952681832, 689.7473706859164]","[0.0, 0.0]","[0.0, 0.0]"
1608810899070527687,,102829,,1608810899,25166535,'',"[wheel_left_joint, wheel_right_joint]","[628.553952681832, 689.7473706859164]","[0.0, 0.0]","[0.0, 0.0]"
1608810899070577426,,102830,,1608810899,45138319,'',"[wheel_left_joint, wheel_right_joint]","[628.553952681832, 689.7473706859164]","[0.0, 0.0]","[0.0, 0.0]"
1608810899090172432,,102831,,1608810899,66219777,'',"[wheel_left_joint, wheel_right_joint]","[628.553952681832, 689.7473706859164]","[0.0, 0.0]","[0.0, 0.0]"
1608810899107161536,,102832,,1608810899,86292468,'',"[wheel_left_joint, wheel_right_joint]","[628.553952681832, 689.7473706859164]","[0.0, 0.0]","[0.0, 0.0]"
1608810899128491626,,102833,,1608810899,106179970,'',"[wheel_left_joint, wheel_right_joint]","[628.553952681832, 689.7473706859164]","[0.0, 0.0]","[0.0, 0.0]"
1608810899160079944,,102834,,1608810899,125092826,'',"[wheel_left_joint, wheel_right_joint]","[628.553952681832, 689.7473706859164]","[0.0, 0.0]","[0.0, 0.0]"
1608810899187186550,,102835,,1608810899,145096691,'',"[wheel_left_joint, wheel_right_joint]","[628.553952681832, 689.7473706859164]","[0.0, 0.0]","[0.0, 0.0]"
1608810899187236802,,102836,,1608810899,165167923,'',"[wheel_left_joint, wheel_right_joint]","[628.553952681832, 689.7473706859164]","[0.0, 0.0]","[0.0, 0.0]"
1608810899211840830,,102837,,1608810899,186402490,'',"[wheel_left_joint, wheel_right_joint]","[628.553952681832, 689.7473706859164]","[0.0, 0.0]","[0.0, 0.0]"
1608810899237696410,,102838,,1608810899,206103637,'',"[wheel_left_joint, wheel_right_joint]","[628.553952681832, 689.7473706859164]","[0.0, 0.0]","[0.0, 0.0]"
1608810899260831998,,102839,,1608810899,226063465,'',"[wheel_left_joint, wheel_right_joint]","[628.553952681832, 689.7473706859164]","[0.0, 0.0]","[0.0, 0.0]"
1608810899285522634,,102840,,1608810899,245910138,'',"[wheel_left_joint, wheel_right_joint]","[628.553952681832, 689.7473706859164]","[0.0, 0.0]","[0.0, 0.0]"
1608810899285535398,,102841,,1608810899,265186372,'',"[wheel_left_joint, wheel_right_joint]","[628.553952681832, 689.7473706859164]","[0.0, 0.0]","[0.0, 0.0]"
1608810899302729850,,102842,,1608810899,285454458,'',"[wheel_left_joint, wheel_right_joint]","[628.553952681832, 689.7473706859164]","[0.0, 0.0]","[0.0, 0.0]"
1608810899331871523,,102843,,1608810899,306146583,'',"[wheel_left_joint, wheel_right_joint]","[628.553952681832, 689.7473706859164]","[0.0, 0.0]","[0.0, 0.0]"
1608810899357684250,,102844,,1608810899,326029710,'',"[wheel_left_joint, wheel_right_joint]","[628.553952681832, 689.7473706859164]","[0.0, 0.0]","[0.0, 0.0]"
1608810899385854765,,102845,,1608810899,346039991,'',"[wheel_left_joint, wheel_right_joint]","[628.553952681832, 689.7473706859164]","[0.0, 0.0]","[0.0, 0.0]"
1608810899415718216,,102846,,1608810899,365855459,'',"[wheel_left_joint, wheel_right_joint]","[628.553952681832, 689.7473706859164]","[0.0, 0.0]","[0.0, 0.0]"
1608810899415868387,,102847,,1608810899,384935131,'',"[wheel_left_joint, wheel_right_joint]","[628.553952681832, 689.7473706859164]","[0.0, 0.0]","[0.0, 0.0]"
1608810899434926326,,102848,,1608810899,405283417,'',"[wheel_left_joint, wheel_right_joint]","[628.553952681832, 689.7473706859164]","[0.0, 0.0]","[0.0, 0.0]"
1608810899466698299,,102849,,1608810899,425732317,'',"[wheel_left_joint, wheel_right_joint]","[628.553952681832, 689.7473706859164]","[0.0, 0.0]","[0.0, 0.0]"
1608810899466756703,,102850,,1608810899,446010611,'',"[wheel_left_joint, wheel_right_joint]","[628.553952681832, 689.7473706859164]","[0.0, 0.0]","[0.0, 0.0]"
1608810899489698566,,102851,,1608810899,466030807,'',"[wheel_left_joint, wheel_right_joint]","[628.553952681832, 689.7473706859164]","[0.0, 0.0]","[0.0, 0.0]"
1608810899515946122,,102852,,1608810899,485942807,'',"[wheel_left_joint, wheel_right_joint]","[628.553952681832, 689.7473706859164]","[0.0, 0.0]","[0.0, 0.0]"
1608810899537129808,,102853,,1608810899,505102970,'',"[wheel_left_joint, wheel_right_joint]","[628.553952681832, 689.7473706859164]","[0.0, 0.0]","[0.0, 0.0]"
1608810899564725123,,102854,,1608810899,526348619,'',"[wheel_left_joint, wheel_right_joint]","[628.553952681832, 689.7473706859164]","[0.0, 0.0]","[0.0, 0.0]"
1608810899599437439,,102855,,1608810899,546584042,'',"[wheel_left_joint, wheel_right_joint]","[628.553952681832, 689.7473706859164]","[0.0, 0.0]","[0.0, 0.0]"
1608810899599462653,,102856,,1608810899,565890898,'',"[wheel_left_joint, wheel_right_joint]","[628.553952681832, 689.7473706859164]","[0.0, 0.0]","[0.0, 0.0]"
1608810899626893970,,102857,,1608810899,586443037,'',"[wheel_left_joint, wheel_right_joint]","[628.553952681832, 689.7473706859164]","[0.0, 0.0]","[0.0, 0.0]"
1608810899628478127,,102858,,1608810899,605972119,'',"[wheel_left_joint, wheel_right_joint]","[628.553952681832, 689.7473706859164]","[0.0, 0.0]","[0.0, 0.0]"
1608810899651041637,,102859,,1608810899,624931054,'',"[wheel_left_joint, wheel_right_joint]","[628.553952681832, 689.7473706859164]","[0.0, 0.0]","[0.0, 0.0]"
1608810899674648293,,102860,,1608810899,644941043,'',"[wheel_left_joint, wheel_right_joint]","[628.553952681832, 689.7473706859164]","[0.0, 0.0]","[0.0, 0.0]"
1608810899692464814,,102861,,1608810899,665075852,'',"[wheel_left_joint, wheel_right_joint]","[628.553952681832, 689.7473706859164]","[0.0, 0.0]","[0.0, 0.0]"
1608810899711399760,,102862,,1608810899,686425323,'',"[wheel_left_joint, wheel_right_joint]","[628.553952681832, 689.7473706859164]","[0.0, 0.0]","[0.0, 0.0]"
1608810899728192895,,102863,,1608810899,705852041,'',"[wheel_left_joint, wheel_right_joint]","[628.553952681832, 689.7473706859164]","[0.0, 0.0]","[0.0, 0.0]"
1608810899752851323,,102864,,1608810899,725801953,'',"[wheel_left_joint, wheel_right_joint]","[628.553952681832, 689.7473706859164]","[0.0, 0.0]","[0.0, 0.0]"
1608810899784802760,,102865,,1608810899,744981072,'',"[wheel_left_joint, wheel_right_joint]","[628.553952681832, 689.7473706859164]","[0.0, 0.0]","[0.0, 0.0]"
1608810899823558849,,102866,,1608810899,765444555,'',"[wheel_left_joint, wheel_right_joint]","[628.553952681832, 689.7473706859164]","[0.0, 0.0]","[0.0, 0.0]"
1608810899823565539,,102867,,1608810899,784950014,'',"[wheel_left_joint, wheel_right_joint]","[628.553952681832, 689.7473706859164]","[0.0, 0.0]","[0.0, 0.0]"
1608810899850672896,,102868,,1608810899,806097673,'',"[wheel_left_joint, wheel_right_joint]","[628.553952681832, 689.7473706859164]","[0.0, 0.0]","[0.0, 0.0]"
1608810899850718713,,102869,,1608810899,825811944,'',"[wheel_left_joint, wheel_right_joint]","[628.553952681832, 689.7473706859164]","[0.0, 0.0]","[0.0, 0.0]"
1608810899874253642,,102870,,1608810899,845823683,'',"[wheel_left_joint, wheel_right_joint]","[628.553952681832, 689.7473706859164]","[0.0, 0.0]","[0.0, 0.0]"
1608810899899674864,,102871,,1608810899,865033424,'',"[wheel_left_joint, wheel_right_joint]","[628.553952681832, 689.7473706859164]","[0.0, 0.0]","[0.0, 0.0]"
1608810899920803142,,102872,,1608810899,885321925,'',"[wheel_left_joint, wheel_right_joint]","[628.553952681832, 689.7473706859164]","[0.0, 0.0]","[0.0, 0.0]"
1608810899977188140,,102873,,1608810899,905719498,'',"[wheel_left_joint, wheel_right_joint]","[628.553952681832, 689.7473706859164]","[0.0, 0.0]","[0.0, 0.0]"
1608810899977202154,,102874,,1608810899,925523592,'',"[wheel_left_joint, wheel_right_joint]","[628.553952681832, 689.7473706859164]","[0.0, 0.0]","[0.0, 0.0]"
1608810899998501319,,102875,,1608810899,947304975,'',"[wheel_left_joint, wheel_right_joint]","[628.553952681832, 689.7473706859164]","[0.0, 0.0]","[0.0, 0.0]"
1608810899998514998,,102876,,1608810899,965715635,'',"[wheel_left_joint, wheel_right_joint]","[628.553952681832, 689.7473706859164]","[0.0, 0.0]","[0.0, 0.0]"
1608810900022745277,,102877,,1608810899,985599637,'',"[wheel_left_joint, wheel_right_joint]","[628.553952681832, 689.7473706859164]","[0.0, 0.0]","[0.0, 0.0]"
1608810900022770736,,102878,,1608810900,5408398,'',"[wheel_left_joint, wheel_right_joint]","[628.553952681832, 689.7473706859164]","[0.0, 0.0]","[0.0, 0.0]"
1608810900052277686,,102879,,1608810900,24618155,'',"[wheel_left_joint, wheel_right_joint]","[628.553952681832, 689.7473706859164]","[0.0, 0.0]","[0.0, 0.0]"
1608810900068470730,,102880,,1608810900,44899380,'',"[wheel_left_joint, wheel_right_joint]","[628.553952681832, 689.7473706859164]","[0.0, 0.0]","[0.0, 0.0]"
1608810900086716058,,102881,,1608810900,64915216,'',"[wheel_left_joint, wheel_right_joint]","[628.553952681832, 689.7473706859164]","[0.0, 0.0]","[0.0, 0.0]"
1608810900103531807,,102882,,1608810900,84849978,'',"[wheel_left_joint, wheel_right_joint]","[628.553952681832, 689.7473706859164]","[0.0, 0.0]","[0.0, 0.0]"
1608810900124151813,,102883,,1608810900,103891460,'',"[wheel_left_joint, wheel_right_joint]","[628.553952681832, 689.7473706859164]","[0.0, 0.0]","[0.0, 0.0]"
1608810900158178878,,102884,,1608810900,123878133,'',"[wheel_left_joint, wheel_right_joint]","[628.553952681832, 689.7473706859164]","[0.0, 0.0]","[0.0, 0.0]"
1608810900190486180,,102885,,1608810900,143903010,'',"[wheel_left_joint, wheel_right_joint]","[628.553952681832, 689.7473706859164]","[0.0, 0.0]","[0.0, 0.0]"
1608810900190496685,,102886,,1608810900,164772173,'',"[wheel_left_joint, wheel_right_joint]","[628.553952681832, 689.7473706859164]","[0.0, 0.0]","[0.0, 0.0]"
1608810900226855688,,102887,,1608810900,184823006,'',"[wheel_left_joint, wheel_right_joint]","[628.553952681832, 689.7473706859164]","[0.0, 0.0]","[0.0, 0.0]"
1608810900226889104,,102888,,1608810900,204814054,'',"[wheel_left_joint, wheel_right_joint]","[628.553952681832, 689.7473706859164]","[0.0, 0.0]","[0.0, 0.0]"
1608810900248335271,,102889,,1608810900,223920279,'',"[wheel_left_joint, wheel_right_joint]","[628.553952681832, 689.7473706859164]","[0.0, 0.0]","[0.0, 0.0]"
1608810900281210375,,102890,,1608810900,243800213,'',"[wheel_left_joint, wheel_right_joint]","[628.553952681832, 689.7473706859164]","[0.0, 0.0]","[0.0, 0.0]"
1608810900281269947,,102891,,1608810900,263852212,'',"[wheel_left_joint, wheel_right_joint]","[628.553952681832, 689.7473706859164]","[0.0, 0.0]","[0.0, 0.0]"
1608810900304036804,,102892,,1608810900,284761913,'',"[wheel_left_joint, wheel_right_joint]","[628.553952681832, 689.7473706859164]","[0.0, 0.0]","[0.0, 0.0]"
1608810900321172303,,102893,,1608810900,304804288,'',"[wheel_left_joint, wheel_right_joint]","[628.553952681832, 689.7473706859164]","[0.0, 0.0]","[0.0, 0.0]"
1608810900339246847,,102894,,1608810900,324788045,'',"[wheel_left_joint, wheel_right_joint]","[628.553952681832, 689.7473706859164]","[0.0, 0.0]","[0.0, 0.0]"
1608810900363437779,,102895,,1608810900,343859273,'',"[wheel_left_joint, wheel_right_joint]","[628.553952681832, 689.7473706859164]","[0.0, 0.0]","[0.0, 0.0]"
1608810900407148861,,102896,,1608810900,363988848,'',"[wheel_left_joint, wheel_right_joint]","[628.553952681832, 689.7473706859164]","[0.0, 0.0]","[0.0, 0.0]"
1608810900433809374,,102897,,1608810900,383822995,'',"[wheel_left_joint, wheel_right_joint]","[628.553952681832, 689.7473706859164]","[0.0, 0.0]","[0.0, 0.0]"
1608810900433867528,,102898,,1608810900,404681368,'',"[wheel_left_joint, wheel_right_joint]","[628.553952681832, 689.7473706859164]","[0.0, 0.0]","[0.0, 0.0]"
1608810900452214926,,102899,,1608810900,424719369,'',"[wheel_left_joint, wheel_right_joint]","[628.553952681832, 689.7473706859164]","[0.0, 0.0]","[0.0, 0.0]"
1608810900477743797,,102900,,1608810900,444737830,'',"[wheel_left_joint, wheel_right_joint]","[628.553952681832, 689.7473706859164]","[0.0, 0.0]","[0.0, 0.0]"
1608810900504564217,,102901,,1608810900,463921922,'',"[wheel_left_joint, wheel_right_joint]","[628.553952681832, 689.7473706859164]","[0.0, 0.0]","[0.0, 0.0]"
1608810900504654075,,102902,,1608810900,483791940,'',"[wheel_left_joint, wheel_right_joint]","[628.553952681832, 689.7473706859164]","[0.0, 0.0]","[0.0, 0.0]"
1608810900572241532,,102903,,1608810900,503794653,'',"[wheel_left_joint, wheel_right_joint]","[628.553952681832, 689.7473706859164]","[0.0, 0.0]","[0.0, 0.0]"
1608810900591358008,,102904,,1608810900,524768805,'',"[wheel_left_joint, wheel_right_joint]","[628.553952681832, 689.7473706859164]","[0.0, 0.0]","[0.0, 0.0]"
1608810900591414497,,102905,,1608810900,544682569,'',"[wheel_left_joint, wheel_right_joint]","[628.553952681832, 689.7473706859164]","[0.0, 0.0]","[0.0, 0.0]"
1608810900591486646,,102906,,1608810900,564687032,'',"[wheel_left_joint, wheel_right_joint]","[628.553952681832, 689.7473706859164]","[0.0, 0.0]","[0.0, 0.0]"
1608810900618800079,,102907,,1608810900,583832336,'',"[wheel_left_joint, wheel_right_joint]","[628.553952681832, 689.7473706859164]","[0.0, 0.0]","[0.0, 0.0]"
1608810900647490129,,102908,,1608810900,603920207,'',"[wheel_left_joint, wheel_right_joint]","[628.553952681832, 689.7473706859164]","[0.0, 0.0]","[0.0, 0.0]"
1608810900647526171,,102909,,1608810900,623793725,'',"[wheel_left_joint, wheel_right_joint]","[628.553952681832, 689.7473706859164]","[0.0, 0.0]","[0.0, 0.0]"
1608810900684290821,,102910,,1608810900,644673095,'',"[wheel_left_joint, wheel_right_joint]","[628.553952681832, 689.7473706859164]","[0.0, 0.0]","[0.0, 0.0]"
1608810900716340573,,102911,,1608810900,664364925,'',"[wheel_left_joint, wheel_right_joint]","[628.553952681832, 689.7473706859164]","[0.0, 0.0]","[0.0, 0.0]"
1608810900716355733,,102912,,1608810900,683794573,'',"[wheel_left_joint, wheel_right_joint]","[628.553952681832, 689.7473706859164]","[0.0, 0.0]","[0.0, 0.0]"
1608810900757278960,,102913,,1608810900,703738668,'',"[wheel_left_joint, wheel_right_joint]","[628.553952681832, 689.7473706859164]","[0.0, 0.0]","[0.0, 0.0]"
1608810900757299732,,102914,,1608810900,723702302,'',"[wheel_left_joint, wheel_right_joint]","[628.553952681832, 689.7473706859164]","[0.0, 0.0]","[0.0, 0.0]"
1608810900790001229,,102915,,1608810900,743744677,'',"[wheel_left_joint, wheel_right_joint]","[628.553952681832, 689.7473706859164]","[0.0, 0.0]","[0.0, 0.0]"
1608810900790156292,,102916,,1608810900,764521100,'',"[wheel_left_joint, wheel_right_joint]","[628.553952681832, 689.7473706859164]","[0.0, 0.0]","[0.0, 0.0]"
1608810900817863835,,102917,,1608810900,784532562,'',"[wheel_left_joint, wheel_right_joint]","[628.553952681832, 689.7473706859164]","[0.0, 0.0]","[0.0, 0.0]"
1608810900852879742,,102918,,1608810900,804559481,'',"[wheel_left_joint, wheel_right_joint]","[628.553952681832, 689.7473706859164]","[0.0, 0.0]","[0.0, 0.0]"
1608810900852934391,,102919,,1608810900,823498015,'',"[wheel_left_joint, wheel_right_joint]","[628.553952681832, 689.7473706859164]","[0.0, 0.0]","[0.0, 0.0]"
1608810900889537541,,102920,,1608810900,843611258,'',"[wheel_left_joint, wheel_right_joint]","[628.553952681832, 689.7473706859164]","[0.0, 0.0]","[0.0, 0.0]"
1608810900889553294,,102921,,1608810900,863686588,'',"[wheel_left_joint, wheel_right_joint]","[628.553952681832, 689.7473706859164]","[0.0, 0.0]","[0.0, 0.0]"
1608810900908364747,,102922,,1608810900,884532129,'',"[wheel_left_joint, wheel_right_joint]","[628.6392447701655, 689.8302258574404]","[4.264604416675866, 4.142758576199412]","[0.0, 0.0]"
1608810900930590366,,102923,,1608810900,904537466,'',"[wheel_left_joint, wheel_right_joint]","[628.7732751946896, 689.961819365155]","[6.701521226204932, 6.579675385728478]","[0.0, 0.0]"
1608810900971323121,,102924,,1608810900,924504016,'',"[wheel_left_joint, wheel_right_joint]","[628.885373367928, 690.0617329543456]","[5.604908661916852, 4.9956794595345855]","[0.0, 0.0]"
1608810901024364597,,102925,,1608810900,943706189,'',"[wheel_left_joint, wheel_right_joint]","[628.9462962881662, 690.1153451241553]","[3.0461460119113326, 2.6806084904819727]","[0.0, 0.0]"
1608810901024385023,,102926,,1608810900,963638910,'',"[wheel_left_joint, wheel_right_joint]","[628.9999084579758, 690.1713942107745]","[2.6806084904819727, 2.802454330958426]","[0.0, 0.0]"
1608810901024414928,,102927,,1608810900,983540425,'',"[wheel_left_joint, wheel_right_joint]","[629.0778897958808, 690.2542493822984]","[3.8990668952465057, 4.142758576199412]","[0.0, 0.0]"
1608810901048104254,,102928,,1608810901,5387443,'',"[wheel_left_joint, wheel_right_joint]","[629.1631818842143, 690.3419783874415]","[4.264604416675866, 4.386450257152319]","[0.0, 0.0]"
1608810901048147993,,102929,,1608810901,24393360,'',"[wheel_left_joint, wheel_right_joint]","[629.2606585565954, 690.4321443093941]","[4.873833619058132, 4.508296097628772]","[0.0, 0.0]"
1608810901080906842,,102930,,1608810901,44458498,'',"[wheel_left_joint, wheel_right_joint]","[629.350824478548, 690.5198733145371]","[4.508296097628772, 4.386450257152319]","[0.0, 0.0]"
1608810901103014808,,102931,,1608810901,64526844,'',"[wheel_left_joint, wheel_right_joint]","[629.4409904005006, 690.6076023196802]","[4.508296097628772, 4.386450257152319]","[0.0, 0.0]"
1608810901103109042,,102932,,1608810901,84488743,'',"[wheel_left_joint, wheel_right_joint]","[629.5360301560722, 690.7002051584423]","[4.751987778581679, 4.630141938105226]","[0.0, 0.0]"
1608810901124262596,,102933,,1608810901,104455599,'',"[wheel_left_joint, wheel_right_joint]","[629.6261960780248, 690.7928079972044]","[4.508296097628772, 4.630141938105226]","[0.0, 0.0]"
1608810901144578492,,102934,,1608810901,125385730,'',"[wheel_left_joint, wheel_right_joint]","[629.7163619999774, 690.8829739191569]","[4.508296097628772, 4.508296097628772]","[0.0, 0.0]"
1608810901158301644,,102935,,1608810901,144862929,'',"[wheel_left_joint, wheel_right_joint]","[629.80652792193, 690.9682660074905]","[4.508296097628772, 4.264604416675866]","[0.0, 0.0]"
1608810901186176981,,102936,,1608810901,164753961,'',"[wheel_left_joint, wheel_right_joint]","[629.8966938438825, 691.053558095824]","[4.508296097628772, 4.264604416675866]","[0.0, 0.0]"
1608810901203673718,,102937,,1608810901,183579354,'',"[wheel_left_joint, wheel_right_joint]","[629.9868597658351, 691.1437240177765]","[4.508296097628772, 4.508296097628772]","[0.0, 0.0]"
1608810901224588448,,102938,,1608810901,203671906,'',"[wheel_left_joint, wheel_right_joint]","[630.0745887709782, 691.2338899397291]","[4.386450257152319, 4.508296097628772]","[0.0, 0.0]"
1608810901245463047,,102939,,1608810901,223535523,'',"[wheel_left_joint, wheel_right_joint]","[630.1623177761212, 691.3216189448722]","[4.386450257152319, 4.386450257152319]","[0.0, 0.0]"
1608810901266983728,,102940,,1608810901,244491609,'',"[wheel_left_joint, wheel_right_joint]","[630.2500467812642, 691.4093479500152]","[4.386450257152319, 4.386450257152319]","[0.0, 0.0]"
1608810901298511863,,102941,,1608810901,263638094,'',"[wheel_left_joint, wheel_right_joint]","[630.3377757864073, 691.4946400383487]","[4.386450257152319, 4.264604416675866]","[0.0, 0.0]"
1608810901336333857,,102942,,1608810901,283563246,'',"[wheel_left_joint, wheel_right_joint]","[630.4279417083599, 691.5823690434918]","[4.508296097628772, 4.386450257152319]","[0.0, 0.0]"
1608810901336357424,,102943,,1608810901,303540310,'',"[wheel_left_joint, wheel_right_joint]","[630.5132337966934, 691.6700980486348]","[4.264604416675866, 4.386450257152319]","[0.0, 0.0]"
1608810901364145115,,102944,,1608810901,323830883,'',"[wheel_left_joint, wheel_right_joint]","[630.5960889682174, 691.7505163033493]","[4.142758576199412, 4.020912735722959]","[0.0, 0.0]"
1608810901389270905,,102945,,1608810901,345348659,'',"[wheel_left_joint, wheel_right_joint]","[630.6789441397414, 691.8309345580637]","[4.142758576199412, 4.020912735722959]","[0.0, 0.0]"
1608810901389299976,,102946,,1608810901,365237066,'',"[wheel_left_joint, wheel_right_joint]","[630.7666731448844, 691.9186635632068]","[4.386450257152319, 4.386450257152319]","[0.0, 0.0]"
1608810901418340170,,102947,,1608810901,384263396,'',"[wheel_left_joint, wheel_right_joint]","[630.8544021500275, 692.0088294851594]","[4.386450257152319, 4.508296097628772]","[0.0, 0.0]"
1608810901491663064,,102948,,1608810901,404498558,'',"[wheel_left_joint, wheel_right_joint]","[630.94456807198, 692.0989954071119]","[4.508296097628772, 4.508296097628772]","[0.0, 0.0]"
1608810901493071458,,102949,,1608810901,424530449,'',"[wheel_left_joint, wheel_right_joint]","[631.0347339939326, 692.186724412255]","[4.508296097628772, 4.386450257152319]","[0.0, 0.0]"
1608810901519766017,,102950,,1608810901,444786026,'',"[wheel_left_joint, wheel_right_joint]","[631.1273368326947, 692.2720165005885]","[4.630141938105226, 4.264604416675866]","[0.0, 0.0]"
1608810901519808067,,102951,,1608810901,464369673,'',"[wheel_left_joint, wheel_right_joint]","[631.2223765882663, 692.3621824225411]","[4.751987778581679, 4.508296097628772]","[0.0, 0.0]"
1608810901519814467,,102952,,1608810901,485072618,'',"[wheel_left_joint, wheel_right_joint]","[631.3149794270284, 692.4547852613032]","[4.630141938105226, 4.630141938105226]","[0.0, 0.0]"
1608810901542735427,,102953,,1608810901,505190834,'',"[wheel_left_joint, wheel_right_joint]","[631.405145348981, 692.5449511832558]","[4.508296097628772, 4.508296097628772]","[0.0, 0.0]"
1608810901542772995,,102954,,1608810901,525092947,'',"[wheel_left_joint, wheel_right_joint]","[631.4953112709336, 692.6351171052083]","[4.508296097628772, 4.508296097628772]","[0.0, 0.0]"
1608810901569319403,,102955,,1608810901,545139421,'',"[wheel_left_joint, wheel_right_joint]","[631.5854771928862, 692.7228461103514]","[4.508296097628772, 4.386450257152319]","[0.0, 0.0]"
1608810901587877348,,102956,,1608810901,564239243,'',"[wheel_left_joint, wheel_right_joint]","[631.6732061980292, 692.8105751154944]","[4.386450257152319, 4.386450257152319]","[0.0, 0.0]"
1608810901626008860,,102957,,1608810901,584244596,'',"[wheel_left_joint, wheel_right_joint]","[631.7609352031723, 692.8983041206375]","[4.386450257152319, 4.386450257152319]","[0.0, 0.0]"
1608810901626041134,,102958,,1608810901,605317336,'',"[wheel_left_joint, wheel_right_joint]","[631.8486642083153, 692.98847004259]","[4.386450257152319, 4.508296097628772]","[0.0, 0.0]"
1608810901660948330,,102959,,1608810901,624156728,'',"[wheel_left_joint, wheel_right_joint]","[631.9339562966488, 693.0761990477331]","[4.264604416675866, 4.386450257152319]","[0.0, 0.0]"
1608810901693753650,,102960,,1608810901,644793764,'',"[wheel_left_joint, wheel_right_joint]","[632.0241222186014, 693.1639280528761]","[4.508296097628772, 4.386450257152319]","[0.0, 0.0]"
1608810901693808346,,102961,,1608810901,664612470,'',"[wheel_left_joint, wheel_right_joint]","[632.114288140554, 693.2516570580192]","[4.508296097628772, 4.386450257152319]","[0.0, 0.0]"
1608810901717555351,,102962,,1608810901,685924643,'',"[wheel_left_joint, wheel_right_joint]","[632.1995802288875, 693.3393860631622]","[4.264604416675866, 4.386450257152319]","[0.0, 0.0]"
1608810901764324687,,102963,,1608810901,707605736,'',"[wheel_left_joint, wheel_right_joint]","[632.2946199844591, 693.4295519851148]","[4.751987778581679, 4.508296097628772]","[0.0, 0.0]"
1608810901787226518,,102964,,1608810901,727472561,'',"[wheel_left_joint, wheel_right_joint]","[632.3872228232212, 693.5197179070674]","[4.630141938105226, 4.508296097628772]","[0.0, 0.0]"
1608810901787235975,,102965,,1608810901,745188280,'',"[wheel_left_joint, wheel_right_joint]","[632.4798256619833, 693.60988382902]","[4.630141938105226, 4.508296097628772]","[0.0, 0.0]"
1608810901787277188,,102966,,1608810901,764106997,'',"[wheel_left_joint, wheel_right_joint]","[632.5699915839359, 693.7000497509725]","[4.508296097628772, 4.508296097628772]","[0.0, 0.0]"
1608810901814338362,,102967,,1608810901,784112932,'',"[wheel_left_joint, wheel_right_joint]","[632.6650313395076, 693.7902156729251]","[4.751987778581679, 4.508296097628772]","[0.0, 0.0]"
1608810901849138668,,102968,,1608810901,804025545,'',"[wheel_left_joint, wheel_right_joint]","[632.7551972614601, 693.8779446780682]","[4.508296097628772, 4.386450257152319]","[0.0, 0.0]"
1608810901849297640,,102969,,1608810901,824014857,'',"[wheel_left_joint, wheel_right_joint]","[632.8478001002222, 693.9705475168303]","[4.630141938105226, 4.630141938105226]","[0.0, 0.0]"
1608810901876428047,,102970,,1608810901,844432291,'',"[wheel_left_joint, wheel_right_joint]","[632.9379660221748, 694.0631503555924]","[4.508296097628772, 4.630141938105226]","[0.0, 0.0]"
1608810901905715064,,102971,,1608810901,865213687,'',"[wheel_left_joint, wheel_right_joint]","[633.0281319441274, 694.1557531943545]","[4.508296097628772, 4.630141938105226]","[0.0, 0.0]"
1608810901905916018,,102972,,1608810901,885103552,'',"[wheel_left_joint, wheel_right_joint]","[633.1158609492704, 694.2434821994975]","[4.386450257152319, 4.386450257152319]","[0.0, 0.0]"
1608810901933914557,,102973,,1608810901,905010623,'',"[wheel_left_joint, wheel_right_joint]","[633.206026871223, 694.3336481214501]","[4.508296097628772, 4.508296097628772]","[0.0, 0.0]"
1608810901965107407,,102974,,1608810901,923979793,'',"[wheel_left_joint, wheel_right_joint]","[633.2986297099851, 694.4213771265931]","[4.630141938105226, 4.386450257152319]","[0.0, 0.0]"
1608810902029725279,,102975,,1608810901,944216996,'',"[wheel_left_joint, wheel_right_joint]","[633.3912325487472, 694.5115430485457]","[4.630141938105226, 4.508296097628772]","[0.0, 0.0]"
1608810902029734119,,102976,,1608810901,963981749,'',"[wheel_left_joint, wheel_right_joint]","[633.4838353875093, 694.6041458873078]","[4.630141938105226, 4.630141938105226]","[0.0, 0.0]"
1608810902029738599,,102977,,1608810901,984972248,'',"[wheel_left_joint, wheel_right_joint]","[633.5764382262714, 694.6967487260699]","[4.630141938105226, 4.630141938105226]","[0.0, 0.0]"
1608810902055968186,,102978,,1608810902,4533439,'',"[wheel_left_joint, wheel_right_joint]","[633.666604148224, 694.789351564832]","[4.508296097628772, 4.630141938105226]","[0.0, 0.0]"
1608810902055971932,,102979,,1608810902,24091437,'',"[wheel_left_joint, wheel_right_joint]","[633.7592069869861, 694.8770805699751]","[4.630141938105226, 4.386450257152319]","[0.0, 0.0]"
1608810902055975372,,102980,,1608810902,43928239,'',"[wheel_left_joint, wheel_right_joint]","[633.8469359921291, 694.9672464919277]","[4.386450257152319, 4.508296097628772]","[0.0, 0.0]"
1608810902080158233,,102981,,1608810902,62509255,'',"[wheel_left_joint, wheel_right_joint]","[633.9419757477008, 695.0549754970707]","[4.751987778581679, 4.386450257152319]","[0.0, 0.0]"
1608810902097494637,,102982,,1608810902,82484000,'',"[wheel_left_joint, wheel_right_joint]","[634.0345785864629, 695.1475783358328]","[4.630141938105226, 4.630141938105226]","[0.0, 0.0]"
1608810902122474010,,102983,,1608810902,103584170,'',"[wheel_left_joint, wheel_right_joint]","[634.1247445084155, 695.2401811745949]","[4.508296097628772, 4.630141938105226]","[0.0, 0.0]"
1608810902143071028,,102984,,1608810902,123030179,'',"[wheel_left_joint, wheel_right_joint]","[634.2173473471776, 695.332784013357]","[4.630141938105226, 4.630141938105226]","[0.0, 0.0]"
1608810902168555871,,102985,,1608810902,144031483,'',"[wheel_left_joint, wheel_right_joint]","[634.3123871027492, 695.4229499353096]","[4.751987778581679, 4.508296097628772]","[0.0, 0.0]"
1608810902197412305,,102986,,1608810902,162906177,'',"[wheel_left_joint, wheel_right_joint]","[634.4025530247018, 695.5106789404526]","[4.508296097628772, 4.386450257152319]","[0.0, 0.0]"
1608810902213569168,,102987,,1608810902,182833094,'',"[wheel_left_joint, wheel_right_joint]","[634.4902820298448, 695.6008448624052]","[4.386450257152319, 4.508296097628772]","[0.0, 0.0]"
1608810902239518690,,102988,,1608810902,203026567,'',"[wheel_left_joint, wheel_right_joint]","[634.5804479517974, 695.6910107843578]","[4.508296097628772, 4.508296097628772]","[0.0, 0.0]"
1608810902257281115,,102989,,1608810902,223975960,'',"[wheel_left_joint, wheel_right_joint]","[634.675487707369, 695.7836136231199]","[4.751987778581679, 4.630141938105226]","[0.0, 0.0]"
1608810902285166444,,102990,,1608810902,243976078,'',"[wheel_left_joint, wheel_right_joint]","[634.7680905461311, 695.8737795450725]","[4.630141938105226, 4.508296097628772]","[0.0, 0.0]"
1608810902315445947,,102991,,1608810902,265026669,'',"[wheel_left_joint, wheel_right_joint]","[634.8582564680837, 695.963945467025]","[4.508296097628772, 4.508296097628772]","[0.0, 0.0]"
1608810902315485621,,102992,,1608810902,284494843,'',"[wheel_left_joint, wheel_right_joint]","[634.9508593068458, 696.0541113889776]","[4.630141938105226, 4.508296097628772]","[0.0, 0.0]"
1608810902358795302,,102993,,1608810902,303905564,'',"[wheel_left_joint, wheel_right_joint]","[635.0410252287984, 696.1467142277397]","[4.508296097628772, 4.630141938105226]","[0.0, 0.0]"
1608810902358824098,,102994,,1608810902,323873310,'',"[wheel_left_joint, wheel_right_joint]","[635.1336280675605, 696.2393170665018]","[4.630141938105226, 4.630141938105226]","[0.0, 0.0]"
1608810902379308626,,102995,,1608810902,344756502,'',"[wheel_left_joint, wheel_right_joint]","[635.2311047399417, 696.3319199052639]","[4.873833619058132, 4.630141938105226]","[0.0, 0.0]"
1608810902408315607,,102996,,1608810902,365968951,'',"[wheel_left_joint, wheel_right_joint]","[635.3212706618942, 696.4220858272165]","[4.508296097628772, 4.508296097628772]","[0.0, 0.0]"
1608810902408323040,,102997,,1608810902,384693452,'',"[wheel_left_joint, wheel_right_joint]","[635.4138735006563, 696.5122517491691]","[4.630141938105226, 4.508296097628772]","[0.0, 0.0]"
1608810902450675665,,102998,,1608810902,403730879,'',"[wheel_left_joint, wheel_right_joint]","[635.5064763394184, 696.6048545879312]","[4.630141938105226, 4.630141938105226]","[0.0, 0.0]"
1608810902450699051,,102999,,1608810902,423745870,'',"[wheel_left_joint, wheel_right_joint]","[635.5990791781805, 696.6974574266933]","[4.630141938105226, 4.630141938105226]","[0.0, 0.0]"
1608810902480059585,,103000,,1608810902,443680953,'',"[wheel_left_joint, wheel_right_joint]","[635.6916820169427, 696.7900602654554]","[4.630141938105226, 4.630141938105226]","[0.0, 0.0]"
1608810902506794756,,103001,,1608810902,464793080,'',"[wheel_left_joint, wheel_right_joint]","[635.7867217725143, 696.8826631042175]","[4.751987778581679, 4.630141938105226]","[0.0, 0.0]"
1608810902506924368,,103002,,1608810902,484667502,'',"[wheel_left_joint, wheel_right_joint]","[635.8793246112764, 696.9728290261701]","[4.630141938105226, 4.508296097628772]","[0.0, 0.0]"
1608810902539900843,,103003,,1608810902,504508678,'',"[wheel_left_joint, wheel_right_joint]","[635.969490533229, 697.0654318649322]","[4.508296097628772, 4.630141938105226]","[0.0, 0.0]"
1608810902563614042,,103004,,1608810902,522706485,'',"[wheel_left_joint, wheel_right_joint]","[636.057219538372, 697.1555977868848]","[4.386450257152319, 4.508296097628772]","[0.0, 0.0]"
1608810902563631970,,103005,,1608810902,542722642,'',"[wheel_left_joint, wheel_right_joint]","[636.1498223771341, 697.2457637088373]","[4.630141938105226, 4.508296097628772]","[0.0, 0.0]"
1608810902580018451,,103006,,1608810902,562721885,'',"[wheel_left_joint, wheel_right_joint]","[636.2448621327057, 697.3383665475994]","[4.751987778581679, 4.630141938105226]","[0.0, 0.0]"
1608810902596525672,,103007,,1608810902,583825263,'',"[wheel_left_joint, wheel_right_joint]","[636.3399018882774, 697.4309693863615]","[4.751987778581679, 4.630141938105226]","[0.0, 0.0]"
1608810902614254043,,103008,,1608810902,603803216,'',"[wheel_left_joint, wheel_right_joint]","[636.434941643849, 697.5260091419332]","[4.751987778581679, 4.751987778581679]","[0.0, 0.0]"
1608810902640751702,,103009,,1608810902,622686076,'',"[wheel_left_joint, wheel_right_joint]","[636.5275444826111, 697.6186119806953]","[4.630141938105226, 4.630141938105226]","[0.0, 0.0]"
1608810902762814960,,103010,,1608810902,642675111,'',"[wheel_left_joint, wheel_right_joint]","[636.6201473213732, 697.7112148194574]","[4.630141938105226, 4.630141938105226]","[0.0, 0.0]"
1608810902789319568,,103011,,1608810902,662696227,'',"[wheel_left_joint, wheel_right_joint]","[636.7127501601353, 697.80138074141]","[4.630141938105226, 4.508296097628772]","[0.0, 0.0]"
1608810902789334824,,103012,,1608810902,684660514,'',"[wheel_left_joint, wheel_right_joint]","[636.8053529988974, 697.8939835801721]","[4.630141938105226, 4.630141938105226]","[0.0, 0.0]"
1608810902789370005,,103013,,1608810902,706612553,'',"[wheel_left_joint, wheel_right_joint]","[636.9003927544691, 697.9890233357437]","[4.751987778581679, 4.751987778581679]","[0.0, 0.0]"
1608810902789387703,,103014,,1608810902,726583507,'',"[wheel_left_joint, wheel_right_joint]","[636.9954325100407, 698.0816261745058]","[4.751987778581679, 4.630141938105226]","[0.0, 0.0]"
1608810902789398698,,103015,,1608810902,746792145,'',"[wheel_left_joint, wheel_right_joint]","[637.0904722656123, 698.1742290132679]","[4.751987778581679, 4.630141938105226]","[0.0, 0.0]"
1608810902789439193,,103016,,1608810902,765774744,'',"[wheel_left_joint, wheel_right_joint]","[637.1830751043744, 698.26683185203]","[4.630141938105226, 4.630141938105226]","[0.0, 0.0]"
1608810902837014229,,103017,,1608810902,785413524,'',"[wheel_left_joint, wheel_right_joint]","[637.2781148599461, 698.3594346907921]","[4.751987778581679, 4.630141938105226]","[0.0, 0.0]"
1608810902865011286,,103018,,1608810902,804042077,'',"[wheel_left_joint, wheel_right_joint]","[637.3731546155177, 698.4544744463637]","[4.751987778581679, 4.751987778581679]","[0.0, 0.0]"
1608810902865100681,,103019,,1608810902,824646465,'',"[wheel_left_joint, wheel_right_joint]","[637.4657574542798, 698.5470772851259]","[4.630141938105226, 4.630141938105226]","[0.0, 0.0]"
1608810902865120166,,103020,,1608810902,845184943,'',"[wheel_left_joint, wheel_right_joint]","[637.5607972098514, 698.639680123888]","[4.751987778581679, 4.630141938105226]","[0.0, 0.0]"
1608810902896651667,,103021,,1608810902,863749044,'',"[wheel_left_joint, wheel_right_joint]","[637.6534000486135, 698.7322829626501]","[4.630141938105226, 4.630141938105226]","[0.0, 0.0]"
1608810902896698152,,103022,,1608810902,884498959,'',"[wheel_left_joint, wheel_right_joint]","[637.7460028873757, 698.8248858014122]","[4.630141938105226, 4.630141938105226]","[0.0, 0.0]"
1608810902998922085,,103023,,1608810902,903786901,'',"[wheel_left_joint, wheel_right_joint]","[637.8386057261378, 698.9174886401743]","[4.630141938105226, 4.630141938105226]","[0.0, 0.0]"
1608810903169786242,,103024,,1608810902,923634201,'',"[wheel_left_joint, wheel_right_joint]","[637.9312085648999, 699.0125283957459]","[4.630141938105226, 4.751987778581679]","[0.0, 0.0]"
1608810903169798890,,103025,,1608810902,944797073,'',"[wheel_left_joint, wheel_right_joint]","[638.028685237281, 699.1075681513175]","[4.873833619058132, 4.751987778581679]","[0.0, 0.0]"
1608810903169804875,,103026,,1608810902,963611981,'',"[wheel_left_joint, wheel_right_joint]","[638.1237249928527, 699.2001709900796]","[4.751987778581679, 4.630141938105226]","[0.0, 0.0]"
1608810903169811812,,103027,,1608810902,983571270,'',"[wheel_left_joint, wheel_right_joint]","[638.2187647484243, 699.2952107456513]","[4.751987778581679, 4.751987778581679]","[0.0, 0.0]"
1608810903169823128,,103028,,1608810903,3576054,'',"[wheel_left_joint, wheel_right_joint]","[638.3138045039959, 699.3878135844134]","[4.751987778581679, 4.630141938105226]","[0.0, 0.0]"
1608810903203061627,,103029,,1608810903,23747953,'',"[wheel_left_joint, wheel_right_joint]","[638.4088442595676, 699.482853339985]","[4.751987778581679, 4.751987778581679]","[0.0, 0.0]"
1608810903203074549,,103030,,1608810903,43570770,'',"[wheel_left_joint, wheel_right_joint]","[638.5038840151392, 699.5778930955566]","[4.751987778581679, 4.751987778581679]","[0.0, 0.0]"
1608810903203079662,,103031,,1608810903,64805983,'',"[wheel_left_joint, wheel_right_joint]","[638.6013606875204, 699.6704959343188]","[4.873833619058132, 4.630141938105226]","[0.0, 0.0]"
1608810903203086716,,103032,,1608810903,83485294,'',"[wheel_left_joint, wheel_right_joint]","[638.6939635262825, 699.7655356898904]","[4.630141938105226, 4.751987778581679]","[0.0, 0.0]"
1608810903203102679,,103033,,1608810903,103840639,'',"[wheel_left_joint, wheel_right_joint]","[638.7890032818541, 699.8581385286525]","[4.751987778581679, 4.630141938105226]","[0.0, 0.0]"
1608810903203111765,,103034,,1608810903,123732574,'',"[wheel_left_joint, wheel_right_joint]","[638.8791692038067, 699.9507413674146]","[4.508296097628772, 4.630141938105226]","[0.0, 0.0]"
1608810903203124464,,103035,,1608810903,143455069,'',"[wheel_left_joint, wheel_right_joint]","[638.9766458761878, 700.0457811229862]","[4.873833619058132, 4.751987778581679]","[0.0, 0.0]"
1608810903203203995,,103036,,1608810903,163508279,'',"[wheel_left_joint, wheel_right_joint]","[639.074122548569, 700.1432577953674]","[4.873833619058132, 4.873833619058132]","[0.0, 0.0]"
1608810903242500920,,103037,,1608810903,185074499,'',"[wheel_left_joint, wheel_right_joint]","[639.1691623041406, 700.238297550939]","[4.751987778581679, 4.751987778581679]","[0.0, 0.0]"
1608810903242511727,,103038,,1608810903,203461882,'',"[wheel_left_joint, wheel_right_joint]","[639.2666389765218, 700.3309003897011]","[4.873833619058132, 4.630141938105226]","[0.0, 0.0]"
1608810903269340893,,103039,,1608810903,223589168,'',"[wheel_left_joint, wheel_right_joint]","[639.3616787320934, 700.4259401452728]","[4.751987778581679, 4.751987778581679]","[0.0, 0.0]"
1608810903269383114,,103040,,1608810903,243518432,'',"[wheel_left_joint, wheel_right_joint]","[639.4567184876651, 700.5209799008444]","[4.751987778581679, 4.751987778581679]","[0.0, 0.0]"
1608810903304592231,,103041,,1608810903,263495234,'',"[wheel_left_joint, wheel_right_joint]","[639.5493213264272, 700.6135827396065]","[4.630141938105226, 4.630141938105226]","[0.0, 0.0]"
1608810903330965376,,103042,,1608810903,284390690,'',"[wheel_left_joint, wheel_right_joint]","[639.6443610819988, 700.7061855783686]","[4.751987778581679, 4.630141938105226]","[0.0, 0.0]"
1608810903331063543,,103043,,1608810903,305204779,'',"[wheel_left_joint, wheel_right_joint]","[639.74183775438, 700.8012253339402]","[4.873833619058132, 4.751987778581679]","[0.0, 0.0]"
1608810903368861659,,103044,,1608810903,324012702,'',"[wheel_left_joint, wheel_right_joint]","[639.8368775099516, 700.8962650895119]","[4.751987778581679, 4.751987778581679]","[0.0, 0.0]"
1608810903386929848,,103045,,1608810903,342617937,'',"[wheel_left_joint, wheel_right_joint]","[639.9294803487137, 700.9913048450835]","[4.630141938105226, 4.751987778581679]","[0.0, 0.0]"
1608810903386949195,,103046,,1608810903,362607571,'',"[wheel_left_joint, wheel_right_joint]","[640.0245201042853, 701.0887815174647]","[4.751987778581679, 4.873833619058132]","[0.0, 0.0]"
1608810903418431591,,103047,,1608810903,382535961,'',"[wheel_left_joint, wheel_right_joint]","[640.1219967766665, 701.1813843562268]","[4.873833619058132, 4.630141938105226]","[0.0, 0.0]"
1608810903454409964,,103048,,1608810903,402380359,'',"[wheel_left_joint, wheel_right_joint]","[640.2194734490477, 701.2764241117984]","[4.873833619058132, 4.751987778581679]","[0.0, 0.0]"
1608810903454474654,,103049,,1608810903,423223029,'',"[wheel_left_joint, wheel_right_joint]","[640.3145132046193, 701.37146386737]","[4.751987778581679, 4.751987778581679]","[0.0, 0.0]"
1608810903469596075,,103050,,1608810903,442238597,'',"[wheel_left_joint, wheel_right_joint]","[640.4095529601909, 701.4665036229417]","[4.751987778581679, 4.751987778581679]","[0.0, 0.0]"
1608810903497189155,,103051,,1608810903,462291515,'',"[wheel_left_joint, wheel_right_joint]","[640.5045927157626, 701.5639802953228]","[4.751987778581679, 4.873833619058132]","[0.0, 0.0]"
1608810903518940185,,103052,,1608810903,483204178,'',"[wheel_left_joint, wheel_right_joint]","[640.6020693881437, 701.6565831340849]","[4.873833619058132, 4.630141938105226]","[0.0, 0.0]"
1608810903536053466,,103053,,1608810903,503194686,'',"[wheel_left_joint, wheel_right_joint]","[640.6922353100963, 701.749185972847]","[4.508296097628772, 4.630141938105226]","[0.0, 0.0]"
1608810903554767542,,103054,,1608810903,523816587,'',"[wheel_left_joint, wheel_right_joint]","[640.7872750656679, 701.8417888116091]","[4.751987778581679, 4.630141938105226]","[0.0, 0.0]"
1608810903584896224,,103055,,1608810903,544453654,'',"[wheel_left_joint, wheel_right_joint]","[640.8847517380491, 701.9392654839903]","[4.873833619058132, 4.873833619058132]","[0.0, 0.0]"
1608810903584926957,,103056,,1608810903,563191584,'',"[wheel_left_joint, wheel_right_joint]","[640.9822284104303, 702.0367421563715]","[4.873833619058132, 4.873833619058132]","[0.0, 0.0]"
1608810903623910332,,103057,,1608810903,583210089,'',"[wheel_left_joint, wheel_right_joint]","[641.0797050828114, 702.1317819119431]","[4.873833619058132, 4.751987778581679]","[0.0, 0.0]"
1608810903649920267,,103058,,1608810903,603739833,'',"[wheel_left_joint, wheel_right_joint]","[641.1771817551926, 702.2268216675147]","[4.873833619058132, 4.751987778581679]","[0.0, 0.0]"
1608810903650005547,,103059,,1608810903,623182648,'',"[wheel_left_joint, wheel_right_joint]","[641.2746584275737, 702.3218614230864]","[4.873833619058132, 4.751987778581679]","[0.0, 0.0]"
1608810903688865529,,103060,,1608810903,643216610,'',"[wheel_left_joint, wheel_right_joint]","[641.3745720167644, 702.4193380954675]","[4.9956794595345855, 4.873833619058132]","[0.0, 0.0]"
1608810903688873516,,103061,,1608810903,663062759,'',"[wheel_left_joint, wheel_right_joint]","[641.4696117723361, 702.5168147678487]","[4.751987778581679, 4.873833619058132]","[0.0, 0.0]"
1608810903715020860,,103062,,1608810903,684162652,'',"[wheel_left_joint, wheel_right_joint]","[641.5670884447172, 702.6142914402299]","[4.873833619058132, 4.873833619058132]","[0.0, 0.0]"
1608810903730641258,,103063,,1608810903,703065065,'',"[wheel_left_joint, wheel_right_joint]","[641.6621282002889, 702.7093311958015]","[4.751987778581679, 4.751987778581679]","[0.0, 0.0]"
1608810903749747101,,103064,,1608810903,723049740,'',"[wheel_left_joint, wheel_right_joint]","[641.7571679558605, 702.8019340345636]","[4.751987778581679, 4.630141938105226]","[0.0, 0.0]"
1608810903783623825,,103065,,1608810903,743061830,'',"[wheel_left_joint, wheel_right_joint]","[641.8522077114321, 702.8969737901352]","[4.751987778581679, 4.751987778581679]","[0.0, 0.0]"
1608810903783673984,,103066,,1608810903,763037465,'',"[wheel_left_joint, wheel_right_joint]","[641.9496843838133, 702.9944504625164]","[4.873833619058132, 4.873833619058132]","[0.0, 0.0]"
1608810903809719327,,103067,,1608810903,783046346,'',"[wheel_left_joint, wheel_right_joint]","[642.0447241393849, 703.0919271348976]","[4.751987778581679, 4.873833619058132]","[0.0, 0.0]"
1608810903837789000,,103068,,1608810903,804346594,'',"[wheel_left_joint, wheel_right_joint]","[642.1446377285756, 703.1894038072787]","[4.9956794595345855, 4.873833619058132]","[0.0, 0.0]"
1608810903875144998,,103069,,1608810903,823051860,'',"[wheel_left_joint, wheel_right_joint]","[642.2396774841473, 703.2820066460408]","[4.751987778581679, 4.630141938105226]","[0.0, 0.0]"
1608810903875961718,,103070,,1608810903,842910549,'',"[wheel_left_joint, wheel_right_joint]","[642.3347172397189, 703.3770464016125]","[4.751987778581679, 4.751987778581679]","[0.0, 0.0]"
1608810903906282218,,103071,,1608810903,863035210,'',"[wheel_left_joint, wheel_right_joint]","[642.4321939121, 703.4745230739936]","[4.873833619058132, 4.873833619058132]","[0.0, 0.0]"
1608810903906300670,,103072,,1608810903,883005304,'',"[wheel_left_joint, wheel_right_joint]","[642.5296705844812, 703.5719997463748]","[4.873833619058132, 4.873833619058132]","[0.0, 0.0]"
1608810903924764844,,103073,,1608810903,903079803,'',"[wheel_left_joint, wheel_right_joint]","[642.6271472568624, 703.669476418756]","[4.873833619058132, 4.873833619058132]","[0.0, 0.0]"
1608810903965708271,,103074,,1608810903,924282353,'',"[wheel_left_joint, wheel_right_joint]","[642.7270608460531, 703.7669530911371]","[4.9956794595345855, 4.873833619058132]","[0.0, 0.0]"
1608810903967374496,,103075,,1608810903,942857841,'',"[wheel_left_joint, wheel_right_joint]","[642.8269744352438, 703.8619928467087]","[4.9956794595345855, 4.751987778581679]","[0.0, 0.0]"
1608810903993805453,,103076,,1608810903,963072618,'',"[wheel_left_joint, wheel_right_joint]","[642.9220141908154, 703.9594695190899]","[4.751987778581679, 4.873833619058132]","[0.0, 0.0]"
1608810904029337572,,103077,,1608810903,983103080,'',"[wheel_left_joint, wheel_right_joint]","[643.0194908631966, 704.0569461914711]","[4.873833619058132, 4.873833619058132]","[0.0, 0.0]"
1608810904029433078,,103078,,1608810904,3021554,'',"[wheel_left_joint, wheel_right_joint]","[643.1145306187682, 704.1519859470427]","[4.751987778581679, 4.751987778581679]","[0.0, 0.0]"
1608810904076028231,,103079,,1608810904,22902123,'',"[wheel_left_joint, wheel_right_joint]","[643.2120072911493, 704.2494626194239]","[4.873833619058132, 4.873833619058132]","[0.0, 0.0]"
1608810904076130320,,103080,,1608810904,44360161,'',"[wheel_left_joint, wheel_right_joint]","[643.31192088034, 704.346939291805]","[4.9956794595345855, 4.873833619058132]","[0.0, 0.0]"
1608810904103029486,,103081,,1608810904,64311605,'',"[wheel_left_joint, wheel_right_joint]","[643.4093975527212, 704.4444159641862]","[4.873833619058132, 4.873833619058132]","[0.0, 0.0]"
1608810904103132284,,103082,,1608810904,82979264,'',"[wheel_left_joint, wheel_right_joint]","[643.5068742251024, 704.5418926365674]","[4.873833619058132, 4.873833619058132]","[0.0, 0.0]"
1608810904137831774,,103083,,1608810904,103016740,'',"[wheel_left_joint, wheel_right_joint]","[643.601913980674, 704.6393693089485]","[4.751987778581679, 4.873833619058132]","[0.0, 0.0]"
1608810904177063676,,103084,,1608810904,122990056,'',"[wheel_left_joint, wheel_right_joint]","[643.7018275698647, 704.7368459813297]","[4.9956794595345855, 4.873833619058132]","[0.0, 0.0]"
1608810904177263886,,103085,,1608810904,142918752,'',"[wheel_left_joint, wheel_right_joint]","[643.7993042422459, 704.8318857369013]","[4.873833619058132, 4.751987778581679]","[0.0, 0.0]"
1608810904215540425,,103086,,1608810904,164918943,'',"[wheel_left_joint, wheel_right_joint]","[643.9016547482461, 704.9293624092825]","[5.117525300011039, 4.873833619058132]","[0.0, 0.0]"
1608810904215543953,,103087,,1608810904,182826597,'',"[wheel_left_joint, wheel_right_joint]","[643.9991314206272, 705.0268390816636]","[4.873833619058132, 4.873833619058132]","[0.0, 0.0]"
1608810904247534780,,103088,,1608810904,204167980,'',"[wheel_left_joint, wheel_right_joint]","[644.0966080930084, 705.1267526708543]","[4.873833619058132, 4.9956794595345855]","[0.0, 0.0]"
1608810904247558228,,103089,,1608810904,223205143,'',"[wheel_left_joint, wheel_right_joint]","[644.19164784858, 705.221792426426]","[4.751987778581679, 4.751987778581679]","[0.0, 0.0]"
1608810904299591064,,103090,,1608810904,243264492,'',"[wheel_left_joint, wheel_right_joint]","[644.2891245209612, 705.3217060156167]","[4.873833619058132, 4.9956794595345855]","[0.0, 0.0]"
1608810904299770260,,103091,,1608810904,262891052,'',"[wheel_left_joint, wheel_right_joint]","[644.3866011933424, 705.4216196048073]","[4.873833619058132, 4.9956794595345855]","[0.0, 0.0]"
